[{"event_id":"2594","title":"androidの小さな勉強会＆ワークショップの忘年会@東京・渋谷","url":"https://atnd.org/events/2594","shortener_url":null,"started_at":"2009-12-28T08:30:00.000+09:00","ended_at":"2009-12-28T14:35:00.000+09:00","limit_number":15,"address":"東京都渋谷区渋谷2-22-7","place":"adlib base","lat":35.6584,"lon":139.704,"state":"closed","id":null},{"event_id":"2528","title":"山手線 Hackathon","url":"https://atnd.org/events/2528","shortener_url":null,"started_at":"2009-12-27T03:00:00.000+09:00","ended_at":"2009-12-29T23:59:59.000+09:00","limit_number":65536,"address":"東京都千代田区外神田1丁目17−6","place":"JR山手線","lat":35.6986,"lon":139.773,"state":"closed","id":null},{"event_id":"2319","title":"RelaxCafe@CouchDB break.4 ","url":"https://atnd.org/events/2319","shortener_url":null,"started_at":"2009-12-26T04:00:00.000+09:00","ended_at":"2009-12-26T09:00:00.000+09:00","limit_number":26,"address":"東京都千代田区神田錦町3‐21","place":"千代田区プラットフォームスクエアミーティングルーム002","lat":35.6914,"lon":139.762,"state":"closed","id":null},{"event_id":"2362","title":"Smiley Hackathon#7","url":"https://atnd.org/events/2362","shortener_url":null,"started_at":"2009-12-19T04:00:00.000+09:00","ended_at":"2009-12-19T11:00:00.000+09:00","limit_number":25,"address":"東京都品川区西五反田1-21-8","place":"株式会社ガイアックス 7F セミナールーム","lat":35.623,"lon":139.723,"state":"closed","id":null},{"event_id":"1593","title":"Smalltalk合同勉強会@名古屋","url":"https://atnd.org/events/1593","shortener_url":null,"started_at":"2009-12-19T01:00:00.000+09:00","ended_at":"2009-12-19T10:00:00.000+09:00","limit_number":30,"address":"愛知県名古屋市東区葵3-22-8","place":"株式会社ニューキャスト(ニューザックビル 6F)","lat":35.1698,"lon":136.928,"state":"closed","id":null},{"event_id":"1970","title":"七尾合宿＆能登留学フォーラム","url":"https://atnd.org/events/1970","shortener_url":null,"started_at":"2009-12-06T04:30:00.000+09:00","ended_at":"2009-12-06T07:00:00.000+09:00","limit_number":100,"address":"石川県七尾市三島町70-1","place":"七尾商工会議所２階ホール","lat":37.0479,"lon":136.966,"state":"closed","id":null},{"event_id":"2468","title":"12月20日開催決定！年末に向けてtwitterでやることセミナーin大崎","url":"https://atnd.org/events/2468","shortener_url":null,"started_at":"2009-12-05T09:00:00.000+09:00","ended_at":"2009-12-18T09:00:00.000+09:00","limit_number":13,"address":"東京都品川区大崎1-11-1","place":"スターバックス　ゲートシティー大崎","lat":35.6195,"lon":139.731,"state":"closed","id":null},{"event_id":"2467","title":"12月20日開催決定！年末に向けてtwitterでやることセミナーin大崎","url":"https://atnd.org/events/2467","shortener_url":null,"started_at":"2009-12-05T09:00:00.000+09:00","ended_at":"2009-12-18T09:00:00.000+09:00","limit_number":13,"address":"東京都品川区大崎1-11-1","place":"スターバックス　ゲートシティー大崎","lat":35.6195,"lon":139.731,"state":"closed","id":null}]