[{"event_id":"1242","title":"Smiley Hackathon#6","url":"https://atnd.org/events/1242","shortener_url":null,"started_at":"2009-08-22T14:00:00.000+09:00","ended_at":"2009-08-22T19:30:00.000+09:00","limit_number":15,"address":"東京都中央区日本橋浜町2-31-1","place":"株式会社ドワンゴ 11F","lat":35.688,"lon":139.787,"state":"closed","id":null},{"event_id":"988","title":"GAEでTwitterのbotを作る　#1","url":"https://atnd.org/events/988","shortener_url":null,"started_at":"2009-08-15T14:00:00.000+09:00","ended_at":"2009-08-15T18:00:00.000+09:00","limit_number":42,"address":"東京都渋谷区道玄坂1-12-1","place":"渋谷マークシティ・ウエスト18階 IBM ソフトウェアコンピテンシーセンター","lat":35.6579,"lon":139.698,"state":"closed","id":null},{"event_id":"1172","title":"Smalltalkハッカソン","url":"https://atnd.org/events/1172","shortener_url":null,"started_at":"2009-08-08T13:00:00.000+09:00","ended_at":"2009-08-08T18:00:00.000+09:00","limit_number":8,"address":"東京都杉並区高円寺南4-44-3","place":"株式会社フルネス　トレーニングルーム","lat":35.7047,"lon":139.651,"state":"closed","id":null},{"event_id":"1202","title":"日本最高の勉強会（標高的な意味で） at 富士山 リベンジ","url":"https://atnd.org/events/1202","shortener_url":null,"started_at":"2009-08-08T09:30:00.000+09:00","ended_at":"2009-08-09T12:00:00.000+09:00","limit_number":8,"address":"静岡県富士宮市","place":"富士宮口～富士山頂","lat":35.222,"lon":138.622,"state":"closed","id":null},{"event_id":"1193","title":"ATND API Hackathon","url":"https://atnd.org/events/1193","shortener_url":null,"started_at":"2009-08-02T13:00:00.000+09:00","ended_at":"2009-08-02T18:00:00.000+09:00","limit_number":7,"address":"東京都港区元麻布3-1-37","place":"三田倶楽部@六本木","lat":35.6582,"lon":139.728,"state":"closed","id":null},{"event_id":"1249","title":"2009年お盆に香川で開発合宿（仮称）","url":"https://atnd.org/events/1249","shortener_url":null,"started_at":"2009-08-14T08:30:00.000+09:00","ended_at":"2009-08-15T18:00:00.000+09:00","limit_number":6,"address":"香川県高松市香川町東谷926-5","place":"古民家体験/癒しろ玉響（たまゆら）","lat":34.2078,"lon":134.066,"state":"closed","id":null}]