[{"event_id":"1072","title":"第2回Android勉強会in札幌(ハンズオンwithハッカソン)","url":"https://atnd.org/events/1072","shortener_url":null,"started_at":"2009-07-25T04:30:00.000+09:00","ended_at":"2009-07-25T07:30:00.000+09:00","limit_number":50,"address":"札幌市白石区東札幌5条1丁目1-1","place":"札幌市産業振興センター　技能訓練棟3F　セミナールーム1","lat":43.0562,"lon":141.386,"state":"closed","id":null},{"event_id":"905","title":"日本最高の勉強会（標高的な意味で） at 富士山","url":"https://atnd.org/events/905","shortener_url":null,"started_at":"2009-07-25T00:30:00.000+09:00","ended_at":"2009-07-26T04:00:00.000+09:00","limit_number":10,"address":"静岡県富士宮市","place":"富士宮口～富士山頂","lat":35.2206,"lon":138.618,"state":"closed","id":null},{"event_id":"928","title":"Pre RubyKaigi Hackathon 2009 @万葉","url":"https://atnd.org/events/928","shortener_url":null,"started_at":"2009-07-16T01:00:00.000+09:00","ended_at":"2009-07-16T09:00:00.000+09:00","limit_number":10,"address":"東京都千代田区神田錦町2丁目4番地","place":"株式会社万葉 神保町オフィス","lat":35.6939,"lon":139.763,"state":"closed","id":null},{"event_id":"1076","title":"大岡山.rb#01","url":"https://atnd.org/events/1076","shortener_url":null,"started_at":"2009-07-15T22:00:00.000+09:00","ended_at":"2009-07-16T00:00:00.000+09:00","limit_number":null,"address":"東京都大田区北千束3丁目28−14","place":"マクドナルド　大岡山店","lat":35.607,"lon":139.685,"state":"closed","id":null},{"event_id":"1081","title":"「JPUG合宿2009盛岡」後　非公式わんこそば大会","url":"https://atnd.org/events/1081","shortener_url":null,"started_at":"2009-07-19T05:00:00.000+09:00","ended_at":"2009-07-19T06:00:00.000+09:00","limit_number":null,"address":"盛岡市盛岡駅前通8-11","place":"東家 駅前店","lat":39.7018,"lon":141.138,"state":"closed","id":null}]