[{"event_id":"1422","title":"PRML(パターン認識と機械学習) Hackathon #1","url":"https://atnd.org/events/1422","shortener_url":null,"started_at":"2009-09-13T00:00:00.000+09:00","ended_at":"2009-09-13T12:00:00.000+09:00","limit_number":21,"address":"東京都墨田区京島1-38-11","place":"曳舟文化センター 第２会議室","lat":35.7183,"lon":139.819,"state":"closed","id":null},{"event_id":"1333","title":"Ruby か Smalltalk か Objective-C ハッカソン","url":"https://atnd.org/events/1333","shortener_url":null,"started_at":"2009-09-12T04:00:00.000+09:00","ended_at":"2009-09-12T09:00:00.000+09:00","limit_number":8,"address":"東京都千代田区神田錦町2丁目4番地","place":"株式会社万葉 神保町オフィス","lat":35.6939,"lon":139.763,"state":"closed","id":null},{"event_id":"1048","title":"Haskell Annual Meeting Autumn.jp 2009","url":"https://atnd.org/events/1048","shortener_url":null,"started_at":"2009-09-19T01:00:00.000+09:00","ended_at":"2009-09-23T12:30:00.000+09:00","limit_number":null,"address":"","place":"online meeting (everywhere/どこでも)","lat":null,"lon":null,"state":"closed","id":null},{"event_id":"862","title":"ocaml-nagoyaプログラミング夏合宿","url":"https://atnd.org/events/862","shortener_url":null,"started_at":"2009-09-19T01:00:00.000+09:00","ended_at":"2009-09-20T10:00:00.000+09:00","limit_number":10,"address":"","place":"長野県の某別荘（予定）","lat":null,"lon":null,"state":"closed","id":null},{"event_id":"1455","title":"LOCAL池田合宿","url":"https://atnd.org/events/1455","shortener_url":null,"started_at":"2009-09-12T07:00:00.000+09:00","ended_at":"2009-09-13T03:00:00.000+09:00","limit_number":10,"address":"北海道中川郡池田町旭町3丁目33","place":"民家","lat":42.93,"lon":143.455,"state":"closed","id":null}]