[{"event_id":"2058","title":"Android Hackathon 2/2 in Fukuoka","url":"https://atnd.org/events/2058","shortener_url":null,"started_at":"2009-11-29T10:00:00.000+09:00","ended_at":"2009-11-29T18:00:00.000+09:00","limit_number":10,"address":"福岡市中央区大名2-4-22","place":"株式会社Fusic(新日本ビル 9F)","lat":33.5888,"lon":130.391,"state":"closed","id":null},{"event_id":"2111","title":"appengine hack-a-thon #1","url":"https://atnd.org/events/2111","shortener_url":null,"started_at":"2009-11-15T11:00:00.000+09:00","ended_at":"2009-11-15T18:00:00.000+09:00","limit_number":15,"address":"東京都港区六本木6丁目","place":"六本木ライブラリー　アカデミーヒルズ40","lat":35.659,"lon":139.729,"state":"closed","id":null},{"event_id":"2057","title":"Android Hackathon 1/2 in Fukuoka","url":"https://atnd.org/events/2057","shortener_url":null,"started_at":"2009-11-15T10:00:00.000+09:00","ended_at":"2009-11-15T18:00:00.000+09:00","limit_number":10,"address":"福岡市中央区大名2-4-22","place":"株式会社Fusic(新日本ビル 9F)","lat":33.5888,"lon":130.391,"state":"closed","id":null},{"event_id":"1873","title":"朝霧JAM アフターパーティー","url":"https://atnd.org/events/1873","shortener_url":null,"started_at":"2009-11-07T15:00:00.000+09:00","ended_at":"2009-11-07T23:00:00.000+09:00","limit_number":40,"address":"〒136-0075 東京都江東区新砂1-10-5","place":"東陽町KEL","lat":35.666,"lon":139.825,"state":"closed","id":null}]