[{"event_id":"4769","title":"MessagePackハッカソン","url":"https://atnd.org/events/4769","shortener_url":null,"started_at":"2010-05-30T14:00:00.000+09:00","ended_at":"2010-05-30T16:00:00.000+09:00","limit_number":15,"address":"","place":"PFIオフィス会議室","lat":null,"lon":null,"state":"closed","id":null},{"event_id":"4289","title":"rake:money 第7回","url":"https://atnd.org/events/4289","shortener_url":null,"started_at":"2010-05-20T20:00:00.000+09:00","ended_at":"2010-05-20T23:00:00.000+09:00","limit_number":20,"address":"東京都港区南青山5-10-5","place":"Barクオレ表参道","lat":35.6625,"lon":139.711,"state":"closed","id":null},{"event_id":"4126","title":"#twitter515","url":"https://atnd.org/events/4126","shortener_url":null,"started_at":"2010-05-15T13:00:00.000+09:00","ended_at":"2010-05-15T17:00:00.000+09:00","limit_number":184,"address":"東京都港区新橋3-2-5","place":"5東洋海事ビル","lat":35.6662,"lon":139.754,"state":"closed","id":null},{"event_id":"4329","title":"GW Hackathon","url":"https://atnd.org/events/4329","shortener_url":null,"started_at":"2010-05-03T13:00:00.000+09:00","ended_at":"2010-05-06T08:59:59.000+09:00","limit_number":9,"address":"東京都港区六本木6-10-1","place":"六本木ライブラリー","lat":35.6604,"lon":139.729,"state":"closed","id":null},{"event_id":"4295","title":"LLVM2.7 Hackathon","url":"https://atnd.org/events/4295","shortener_url":null,"started_at":"2010-05-02T13:00:00.000+09:00","ended_at":"2010-05-02T21:00:00.000+09:00","limit_number":10,"address":"東京都新宿区市谷仲之町4-39","place":"市ヶ谷健保会館会議室A室","lat":35.6954,"lon":139.724,"state":"closed","id":null},{"event_id":"4043","title":"iPhone/iPod touch/iPad hack-a-thon #01","url":"https://atnd.org/events/4043","shortener_url":null,"started_at":"2010-05-02T11:00:00.000+09:00","ended_at":"2010-05-03T18:00:00.000+09:00","limit_number":null,"address":"","place":"都内某所","lat":null,"lon":null,"state":"closed","id":null},{"event_id":"4960","title":"キャンドルナイト・ウェブ 開発合宿","url":"https://atnd.org/events/4960","shortener_url":null,"started_at":"2010-05-30T21:00:00.000+09:00","ended_at":"2010-07-19T21:00:00.000+09:00","limit_number":null,"address":"東京都渋谷区","place":"自宅","lat":35.664,"lon":139.698,"state":"closed","id":null},{"event_id":"4584","title":"PHP フレームワーク勉強会 第6回 (CI \u0026 CakePHP)","url":"https://atnd.org/events/4584","shortener_url":null,"started_at":"2010-05-29T19:00:00.000+09:00","ended_at":"2010-05-29T21:00:00.000+09:00","limit_number":20,"address":"東京都新宿区百人町2-27-6","place":"関東IT健保会館","lat":35.7022,"lon":139.696,"state":"closed","id":null},{"event_id":"4420","title":"2010.05.29-30 きぬがわ高原CC","url":"https://atnd.org/events/4420","shortener_url":null,"started_at":"2010-05-29T10:20:00.000+09:00","ended_at":"2010-06-01T08:59:59.000+09:00","limit_number":12,"address":"栃木県日光市五十里722","place":"栃木・きぬがわ高原CC","lat":36.9386,"lon":139.735,"state":"closed","id":null},{"event_id":"4044","title":"第一回ペンギンサミット【合宿】","url":"https://atnd.org/events/4044","shortener_url":null,"started_at":"2010-05-22T10:00:00.000+09:00","ended_at":"2010-05-23T15:00:00.000+09:00","limit_number":5,"address":"","place":"箱根あたり。 参加者が確定してから確定します。","lat":null,"lon":null,"state":"closed","id":null}]