[{"event_id":"3519","title":"第４回唐揚げオフ","url":"https://atnd.org/events/3519","shortener_url":null,"started_at":"2010-03-28T11:30:00.000+09:00","ended_at":"2010-03-28T14:30:00.000+09:00","limit_number":13,"address":"東京都渋谷区神南1-22-10 皆川ビル4F","place":"珈琲＆無国籍ダイニング　海峡　渋谷公園通り店","lat":35.6614,"lon":139.701,"state":"closed","id":null},{"event_id":"2007","title":"PRML(パターン認識と機械学習) Hackathon #2","url":"https://atnd.org/events/2007","shortener_url":null,"started_at":"2010-03-28T00:00:00.000+09:00","ended_at":"2010-03-28T08:30:00.000+09:00","limit_number":18,"address":"東京都墨田区京島1丁目38−11","place":"【会場が変更になりました】曳舟文化センター 第２会議室","lat":35.7183,"lon":139.819,"state":"closed","id":null},{"event_id":"3375","title":"おが〜るnite 2010 春","url":"https://atnd.org/events/3375","shortener_url":null,"started_at":"2010-03-20T10:00:00.000+09:00","ended_at":"2010-03-22T23:59:59.000+09:00","limit_number":null,"address":"岩手県盛岡市盛岡駅前通1−44","place":"回転鮨清次郎フェザン店","lat":39.7035,"lon":141.135,"state":"closed","id":null},{"event_id":"3631","title":"Smiley Hackathon#8","url":"https://atnd.org/events/3631","shortener_url":null,"started_at":"2010-03-20T04:00:00.000+09:00","ended_at":"2010-03-20T11:00:00.000+09:00","limit_number":25,"address":"東京都品川区西五反田1-21-8 KSS五反田ビル","place":"株式会社ガイアックス 7F セミナールーム","lat":35.623,"lon":139.723,"state":"closed","id":null},{"event_id":"3552","title":"Sheevaplug/Plan9 Hackathon #1","url":"https://atnd.org/events/3552","shortener_url":null,"started_at":"2010-03-20T00:00:00.000+09:00","ended_at":"2010-03-22T12:00:00.000+09:00","limit_number":null,"address":"茨城県つくば市天王台1-1-1 筑波大学筑波キャンパス 工学系学系E棟302 http://bit.ly/acLtD9","place":"筑波大学 Softlab","lat":0.0,"lon":0.0,"state":"closed","id":null},{"event_id":"3605","title":"Google wave API Challenge セットアップHackathon","url":"https://atnd.org/events/3605","shortener_url":null,"started_at":"2010-03-17T10:30:00.000+09:00","ended_at":"2010-03-19T23:59:59.000+09:00","limit_number":9,"address":"","place":"未定 or アカデミーヒルズ（￥1k/人） or ","lat":null,"lon":null,"state":"closed","id":null},{"event_id":"3501","title":"Twitter いわき初off","url":"https://atnd.org/events/3501","shortener_url":null,"started_at":"2010-03-13T09:00:00.000+09:00","ended_at":"2010-03-13T11:00:00.000+09:00","limit_number":null,"address":"福島県いわき市平字田町1-4","place":"洋風居酒屋Jam","lat":37.0582,"lon":140.892,"state":"closed","id":null},{"event_id":"3508","title":"appengine hack-a-thon #2","url":"https://atnd.org/events/3508","shortener_url":null,"started_at":"2010-03-13T01:00:00.000+09:00","ended_at":"2010-03-13T11:45:00.000+09:00","limit_number":12,"address":"東京都新宿区市谷仲之町4-39","place":"ITS市ヶ谷会議室B / http://www.its-kenpo.or.jp/restaurant/itigaya_kaigisitu/index.html","lat":35.6954,"lon":139.724,"state":"closed","id":null},{"event_id":"3390","title":"ギークハウス改造大ハッカソン ","url":"https://atnd.org/events/3390","shortener_url":null,"started_at":"2010-03-07T06:00:00.000+09:00","ended_at":"2010-03-07T13:00:00.000+09:00","limit_number":2147483647,"address":"東京都中央区東日本橋1-1-8","place":"ギークハウス東日本橋","lat":35.6908,"lon":139.785,"state":"closed","id":null},{"event_id":"3307","title":"山手トンネルウォーク","url":"https://atnd.org/events/3307","shortener_url":null,"started_at":"2010-03-07T03:00:00.000+09:00","ended_at":"2010-03-07T05:00:00.000+09:00","limit_number":10,"address":"","place":"首都高速大橋ジャンクション前","lat":null,"lon":null,"state":"closed","id":null},{"event_id":"3028","title":"Androidハッカソン＠岡山","url":"https://atnd.org/events/3028","shortener_url":null,"started_at":"2010-03-07T00:00:00.000+09:00","ended_at":"2010-03-07T08:00:00.000+09:00","limit_number":18,"address":"岡山市北区奉還町2丁目2番1号","place":"岡山国際交流センター","lat":34.6683,"lon":133.916,"state":"closed","id":null},{"event_id":"3037","title":"社員でなくても参加できるコスモルート開発合宿","url":"https://atnd.org/events/3037","shortener_url":null,"started_at":"2010-03-19T23:50:00.000+09:00","ended_at":"2010-03-21T08:00:00.000+09:00","limit_number":3,"address":"愛知県名古屋市港区港栄1-8-23","place":"邦和セミナープラザ","lat":35.1073,"lon":136.882,"state":"closed","id":null},{"event_id":"2693","title":"Kansai Tech Camp＠Hikone","url":"https://atnd.org/events/2693","shortener_url":null,"started_at":"2010-03-19T15:00:00.000+09:00","ended_at":"2010-03-21T15:00:00.000+09:00","limit_number":12,"address":"滋賀県彦根市古沢町677","place":"彦根ステーションホテル（予定）","lat":35.2769,"lon":136.263,"state":"closed","id":null}]