[{"event_id":"7367","title":"第3回 いしがきの上ミュージックフェスティバル","url":"https://atnd.org/events/7367","shortener_url":null,"started_at":"2010-10-30T04:00:00.000+09:00","ended_at":"2010-10-31T02:00:00.000+09:00","limit_number":null,"address":"岩手県盛岡市内丸1-37","place":"盛岡城跡公園内 盛岡城跡","lat":39.6999,"lon":141.151,"state":"closed","id":null},{"event_id":"8138","title":"Tokyo.clj#7","url":"https://atnd.org/events/8138","shortener_url":null,"started_at":"2010-10-30T01:00:00.000+09:00","ended_at":"2010-10-30T10:00:00.000+09:00","limit_number":10,"address":"新宿区坂町26-27","place":"株式会社タイムインターメディア中会議室","lat":35.6912,"lon":139.727,"state":"closed","id":null},{"event_id":"8862","title":"第12回Cassandra勉強会","url":"https://atnd.org/events/8862","shortener_url":null,"started_at":"2010-10-29T10:30:00.000+09:00","ended_at":"2010-10-29T12:30:00.000+09:00","limit_number":30,"address":"東京都品川区東品川4-12-3","place":"品川シーサイド楽天タワー","lat":35.6099,"lon":139.748,"state":"closed","id":null},{"event_id":"7595","title":"Shibuya.lisp Hackathon #1","url":"https://atnd.org/events/7595","shortener_url":null,"started_at":"2010-10-24T04:00:00.000+09:00","ended_at":"2010-10-24T09:00:00.000+09:00","limit_number":80,"address":"東京都港区北青山2-5-8","place":"オラクル青山センター","lat":35.6712,"lon":139.719,"state":"closed","id":null},{"event_id":"9076","title":"一夜だけのギークハウス in 徳島 20101023","url":"https://atnd.org/events/9076","shortener_url":null,"started_at":"2010-10-23T13:00:00.000+09:00","ended_at":"2010-10-24T00:00:00.000+09:00","limit_number":6,"address":"徳島県徳島市住吉4-10-56","place":"オープンフォース 秘密基地","lat":34.0816,"lon":134.57,"state":"closed","id":null},{"event_id":"8626","title":"リアルタイムWebハッカソン","url":"https://atnd.org/events/8626","shortener_url":null,"started_at":"2010-10-20T10:00:00.000+09:00","ended_at":"2010-10-20T14:00:00.000+09:00","limit_number":70,"address":"東京都港区六本木6-10-1 六本木ヒルズ森タワー","place":"グリー株式会社 会議室","lat":35.6604,"lon":139.729,"state":"closed","id":null},{"event_id":"8379","title":"第6回Android勉強会in札幌","url":"https://atnd.org/events/8379","shortener_url":null,"started_at":"2010-10-16T04:00:00.000+09:00","ended_at":"2010-10-16T08:00:00.000+09:00","limit_number":10,"address":"北海道札幌市中央区北2条東1丁目4-9 アーバンコート武蔵野","place":"株式会社インフィニットループ 会議室(部屋番号803)","lat":43.0643,"lon":141.358,"state":"closed","id":null},{"event_id":"8397","title":"#MA6 Mashup Camp - Collabo Day with appengine ja hack-a-thon #7 ※ 当日の参加者を募集します。初級コースもあります。","url":"https://atnd.org/events/8397","shortener_url":null,"started_at":"2010-10-16T01:00:00.000+09:00","ended_at":"2010-10-16T09:00:00.000+09:00","limit_number":40,"address":"東京都中央区銀座7-2-6","place":"リクルート メディアテクノロジーラボ MTL Cafe","lat":35.6709,"lon":139.761,"state":"closed","id":null},{"event_id":"8290","title":"Scalaを遊ぶ!会 第1回","url":"https://atnd.org/events/8290","shortener_url":null,"started_at":"2010-10-13T10:30:00.000+09:00","ended_at":"2010-10-13T12:30:00.000+09:00","limit_number":17,"address":"東京都渋谷区渋谷3-19-1 オミビル地下1階","place":"カフェ・ミヤマ渋谷東口駅前店 3号室","lat":35.6577,"lon":139.703,"state":"closed","id":null},{"event_id":"8392","title":"#MA6 Mashup Caravan - Collabo Talks","url":"https://atnd.org/events/8392","shortener_url":null,"started_at":"2010-10-13T09:30:00.000+09:00","ended_at":"2010-10-13T11:30:00.000+09:00","limit_number":50,"address":"東京都中央区銀座7-2-6","place":"リクルート メディアテクノロジーラボ MTL Cafe","lat":35.6709,"lon":139.761,"state":"closed","id":null},{"event_id":"8376","title":"Sphinx + 翻訳 Hack-a-thon 2010.10","url":"https://atnd.org/events/8376","shortener_url":null,"started_at":"2010-10-10T02:00:00.000+09:00","ended_at":"2010-10-10T10:00:00.000+09:00","limit_number":12,"address":"東京都新宿区箪笥町35","place":"アクセンス・テクノロジー (日米タイム24ビル3階)","lat":35.7002,"lon":139.735,"state":"closed","id":null},{"event_id":"8390","title":"#MA6 Mashup Camp - Chrome Extensions / Web Apps Day (未経験者歓迎 JavaScript できれば OK)","url":"https://atnd.org/events/8390","shortener_url":null,"started_at":"2010-10-09T01:00:00.000+09:00","ended_at":"2010-10-09T11:00:00.000+09:00","limit_number":20,"address":"東京都中央区銀座7-2-6","place":"リクルート メディアテクノロジーラボ MTL Cafe","lat":35.6709,"lon":139.761,"state":"closed","id":null},{"event_id":"8300","title":"[AHF]Android Hackathon in Fukuoka vol.2","url":"https://atnd.org/events/8300","shortener_url":null,"started_at":"2010-10-09T01:00:00.000+09:00","ended_at":"2010-10-09T10:00:00.000+09:00","limit_number":20,"address":"福岡市中央区大名1-14-28 第1松村ビル302号室","place":"AipCafe","lat":33.5876,"lon":130.396,"state":"closed","id":null},{"event_id":"7945","title":"名古屋Hackathon","url":"https://atnd.org/events/7945","shortener_url":null,"started_at":"2010-10-09T01:00:00.000+09:00","ended_at":"2010-10-09T12:00:00.000+09:00","limit_number":20,"address":"愛知県名古屋市東区葵3-22-8","place":"ニューザックビル6F ニューキャスト セミナールーム","lat":35.1698,"lon":136.928,"state":"closed","id":null},{"event_id":"8226","title":"大名古屋#06","url":"https://atnd.org/events/8226","shortener_url":null,"started_at":"2010-10-03T01:30:00.000+09:00","ended_at":"2010-10-03T03:00:00.000+09:00","limit_number":20,"address":"愛知県名古屋市東区葵3丁目22-8","place":"株式会社ニューキャスト セミナールーム（ニューザックビル6F） ","lat":35.1698,"lon":136.928,"state":"closed","id":null},{"event_id":"8068","title":"webrick cafe#1 (ウェブリックカフェ)","url":"https://atnd.org/events/8068","shortener_url":null,"started_at":"2010-10-02T05:00:00.000+09:00","ended_at":"2010-10-02T08:00:00.000+09:00","limit_number":16,"address":"東京都千代田区三崎町1-3-12 水道橋ビル8階","place":"m-School (エムスクール)","lat":35.7009,"lon":139.756,"state":"closed","id":null},{"event_id":"8170","title":"a-blog cms 勉強会 in 大阪","url":"https://atnd.org/events/8170","shortener_url":null,"started_at":"2010-10-19T10:00:00.000+09:00","ended_at":"2010-10-19T13:00:00.000+09:00","limit_number":20,"address":"大阪府大阪市淀川区十三本町1-12-15","place":"大阪研修センター","lat":34.7198,"lon":135.479,"state":"closed","id":null}]