[{"event_id":"7992","title":"【Flash勉強会】 大阪てら子 34 「おやつとジャム」","url":"https://atnd.org/events/7992","shortener_url":null,"started_at":"2010-09-26T14:00:00.000+09:00","ended_at":"2010-09-26T18:30:00.000+09:00","limit_number":20,"address":"大阪市中央区南久宝寺町4丁目5番17号","place":"AID-DCCさん（アップウェル船場7F） 701","lat":34.6798,"lon":135.498,"state":"closed","id":null},{"event_id":"7862","title":"#MA6 Mashup Camp - Social Platform Day","url":"https://atnd.org/events/7862","shortener_url":null,"started_at":"2010-09-25T10:00:00.000+09:00","ended_at":"2010-09-25T20:00:00.000+09:00","limit_number":20,"address":"東京都中央区銀座7-2-6","place":"リクルート メディアテクノロジーラボ MTL Cafe","lat":35.6709,"lon":139.761,"state":"closed","id":null},{"event_id":"7990","title":"mixiチェック、SocialFeedbackとか使って何か作るHackathon","url":"https://atnd.org/events/7990","shortener_url":null,"started_at":"2010-09-23T11:00:00.000+09:00","ended_at":"2010-09-26T08:59:59.000+09:00","limit_number":15,"address":"東京都港区六本木6-8-10","place":"六本木STEPビル5F","lat":35.6612,"lon":139.733,"state":"closed","id":null},{"event_id":"7742","title":"横浜Androidプラットフォーム部第2回勉強会","url":"https://atnd.org/events/7742","shortener_url":null,"started_at":"2010-09-19T14:00:00.000+09:00","ended_at":"2010-09-19T17:00:00.000+09:00","limit_number":30,"address":"神奈川県横浜市中区寿町1-4","place":"かながわ労働プラザ第4会議室","lat":35.44,"lon":139.641,"state":"closed","id":null},{"event_id":"7776","title":"大名古屋#05","url":"https://atnd.org/events/7776","shortener_url":null,"started_at":"2010-09-19T10:30:00.000+09:00","ended_at":"2010-09-19T12:00:00.000+09:00","limit_number":15,"address":"愛知県名古屋市熱田区金山町1-7-5 住友生命金山第二ビル2F","place":"株式会社コスモルート","lat":35.1422,"lon":136.9,"state":"closed","id":null},{"event_id":"8048","title":"DEVBBQ開催中止残念会","url":"https://atnd.org/events/8048","shortener_url":null,"started_at":"2010-09-18T18:00:00.000+09:00","ended_at":"2010-09-18T21:00:00.000+09:00","limit_number":10,"address":"大分県大分市府内町1-1-15ガーデンプラザ1F","place":"炭火焼肉ホルモン酒場","lat":33.2355,"lon":131.608,"state":"closed","id":null},{"event_id":"7696","title":"Mashup Camp - Girls Day（男性参加大歓迎）#MA6","url":"https://atnd.org/events/7696","shortener_url":null,"started_at":"2010-09-18T10:00:00.000+09:00","ended_at":"2010-09-18T20:00:00.000+09:00","limit_number":50,"address":"東京都中央区銀座7-2-6","place":"リクルート　メディアテクノロジーラボ MTL Cafe","lat":35.6709,"lon":139.761,"state":"closed","id":null},{"event_id":"7560","title":"9/17(Fri) wonderfl,jsdo.it Meetup #1（路地裏 ver）","url":"https://atnd.org/events/7560","shortener_url":null,"started_at":"2010-09-17T20:00:00.000+09:00","ended_at":"2010-09-20T08:59:59.000+09:00","limit_number":0,"address":"","place":"本町近辺","lat":null,"lon":null,"state":"closed","id":null},{"event_id":"7568","title":"MessagePackハッカソン 第2回","url":"https://atnd.org/events/7568","shortener_url":null,"started_at":"2010-09-12T14:00:00.000+09:00","ended_at":"2010-09-12T17:00:00.000+09:00","limit_number":15,"address":"東京都品川区東品川4-13-9 楽天タワー2号館","place":"楽天株式会社2号館","lat":35.6101,"lon":139.75,"state":"closed","id":null},{"event_id":"7103","title":"蛭田さんを祝う会","url":"https://atnd.org/events/7103","shortener_url":null,"started_at":"2010-09-11T21:00:00.000+09:00","ended_at":"2010-09-11T23:00:00.000+09:00","limit_number":35,"address":"東京都港区六本木5-16-3","place":"Bajamar（バハマール）六本木","lat":35.6618,"lon":139.735,"state":"closed","id":null},{"event_id":"7505","title":"Mashup Camp - Maps Day #MA6","url":"https://atnd.org/events/7505","shortener_url":null,"started_at":"2010-09-11T10:00:00.000+09:00","ended_at":"2010-09-11T20:00:00.000+09:00","limit_number":50,"address":"東京都中央区銀座7-2-6","place":"リクルート　メディアテクノロジーラボ MTL Cafe","lat":35.6709,"lon":139.761,"state":"closed","id":null},{"event_id":"7475","title":"Sphinx + 翻訳 Hack-a-thon 2010.09","url":"https://atnd.org/events/7475","shortener_url":null,"started_at":"2010-09-05T11:00:00.000+09:00","ended_at":"2010-09-05T19:00:00.000+09:00","limit_number":9,"address":"東京都新宿区箪笥町35","place":"アクセンス・テクノロジー (日米タイム24ビル3階)","lat":35.7002,"lon":139.735,"state":"closed","id":null},{"event_id":"7711","title":"shinjuku.cfm","url":"https://atnd.org/events/7711","shortener_url":null,"started_at":"2010-09-04T13:00:00.000+09:00","ended_at":"2010-09-04T21:00:00.000+09:00","limit_number":5,"address":"東京都新宿区百人町2-27-6 関東ITソフトウェア健保会館","place":"関東ITソフトウェア健保会館","lat":35.7023,"lon":139.699,"state":"closed","id":null},{"event_id":"6680","title":"第1回 浜松ウェブAPIハッカソン: 2010年9月4日(土) ","url":"https://atnd.org/events/6680","shortener_url":null,"started_at":"2010-09-04T10:00:00.000+09:00","ended_at":"2010-09-04T18:00:00.000+09:00","limit_number":15,"address":"静岡県浜松市中区和地山3-1-7","place":"静岡県浜松市インキュベーション施設 HI-Cube(ハイキューブ)2階会議室","lat":34.7277,"lon":137.715,"state":"closed","id":null},{"event_id":"8079","title":"第10回日本Androidの会東北支部発信会","url":"https://atnd.org/events/8079","shortener_url":null,"started_at":"2010-09-25T15:00:00.000+09:00","ended_at":"2010-09-25T17:00:00.000+09:00","limit_number":20,"address":"仙台市青葉区中央1-3-1","place":"AER 8F 会議室","lat":38.2626,"lon":140.881,"state":"closed","id":null}]