[{"event_id":"6611","title":"沖縄 Android 自習室","url":"https://atnd.org/events/6611","shortener_url":null,"started_at":"2010-07-31T04:00:00.000+09:00","ended_at":"2010-07-31T08:00:00.000+09:00","limit_number":10,"address":"(26.341786,127.859358)","place":"IT津梁パーク1Fプレゼンテーションスペース","lat":26.3335,"lon":127.851,"state":"closed","id":null},{"event_id":"5932","title":"appengine ja hack-a-thon #6","url":"https://atnd.org/events/5932","shortener_url":null,"started_at":"2010-07-31T01:00:00.000+09:00","ended_at":"2010-07-31T09:00:00.000+09:00","limit_number":36,"address":"東京都江東区青海2-56-4","place":"the Canteen 2F コンベンションセンター（住所はダミーで隣の警察署にしています）","lat":35.6186,"lon":139.775,"state":"closed","id":null},{"event_id":"6426","title":"『Flying Sauser Attack!』 ","url":"https://atnd.org/events/6426","shortener_url":null,"started_at":"2010-07-16T10:00:00.000+09:00","ended_at":"2010-07-18T23:59:59.000+09:00","limit_number":null,"address":"","place":"清水JAMJAMJAM","lat":null,"lon":null,"state":"closed","id":null},{"event_id":"6015","title":"SHARP工場でDK01ハッカソン","url":"https://atnd.org/events/6015","shortener_url":null,"started_at":"2010-07-10T02:00:00.000+09:00","ended_at":"2010-07-10T09:00:00.000+09:00","limit_number":17,"address":"広島県東広島市八本松飯田2丁目13番1号","place":"広島県 東広島市 八本松飯田 シャープ株式会社 通信システム事業本部 構内","lat":34.4521,"lon":132.709,"state":"closed","id":null},{"event_id":"6116","title":"一夜だけのギークハウス in京都 20100709","url":"https://atnd.org/events/6116","shortener_url":null,"started_at":"2010-07-09T11:00:00.000+09:00","ended_at":"2010-07-10T00:00:00.000+09:00","limit_number":16,"address":"京都市南区東九条南河原町","place":"某宿泊所","lat":34.9813,"lon":135.766,"state":"closed","id":null},{"event_id":"5931","title":"appengine ja hack-a-thon #5","url":"https://atnd.org/events/5931","shortener_url":null,"started_at":"2010-07-03T01:00:00.000+09:00","ended_at":"2010-07-03T11:45:00.000+09:00","limit_number":36,"address":"東京都新宿区市谷仲之町4-39","place":"ITS市ヶ谷会議室D","lat":35.6954,"lon":139.724,"state":"closed","id":null},{"event_id":"5855","title":"第３回　秋葉原arduino開発合宿","url":"https://atnd.org/events/5855","shortener_url":null,"started_at":"2010-07-17T04:00:00.000+09:00","ended_at":"2010-07-17T09:00:00.000+09:00","limit_number":8,"address":"東京都千代田区外神田1-16-10","place":"喫茶室ルノアールニュー秋葉原店マイスペース","lat":35.6973,"lon":139.773,"state":"closed","id":null}]