[{"event_id":"2778","title":"第1回 デ部　ミーティング　2010.01.16","url":"https://atnd.org/events/2778","shortener_url":null,"started_at":"2010-01-16T13:00:00.000+09:00","ended_at":"2010-01-19T08:59:59.000+09:00","limit_number":30,"address":"東京都新宿区西新宿2丁目1−1","place":"新宿三井ビル34階　株式会社豆蔵　トレーニングルーム","lat":35.6919,"lon":139.694,"state":"closed","id":null},{"event_id":"2659","title":"RelaxCafe@CouchDB break.5","url":"https://atnd.org/events/2659","shortener_url":null,"started_at":"2010-01-09T13:00:00.000+09:00","ended_at":"2010-01-09T18:00:00.000+09:00","limit_number":20,"address":"東京都千代田区神田神保町1-105","place":"株式会社インターネットイニシアティブ 会議室","lat":35.6943,"lon":139.761,"state":"closed","id":null},{"event_id":"2479","title":"(第7回)Zope/Plone開発勉強会(合宿バージョン)","url":"https://atnd.org/events/2479","shortener_url":null,"started_at":"2010-01-29T12:00:00.000+09:00","ended_at":"2010-01-31T12:00:00.000+09:00","limit_number":8,"address":"長野県須坂市大字仁礼峰の原高原3153-720","place":"菅平(峰の原) マウンテンパパ(無線LANあり)","lat":36.5531,"lon":138.35,"state":"closed","id":null},{"event_id":"2855","title":"第0回 WEB開発＆スキー・スノーボード合宿","url":"https://atnd.org/events/2855","shortener_url":null,"started_at":"2010-01-25T13:00:00.000+09:00","ended_at":"2010-01-27T10:00:00.000+09:00","limit_number":8,"address":"","place":"斑尾タングラム側のホテル","lat":null,"lon":null,"state":"closed","id":null},{"event_id":"2667","title":"mixiアプリ情報交換会","url":"https://atnd.org/events/2667","shortener_url":null,"started_at":"2010-01-16T13:00:00.000+09:00","ended_at":"2010-01-16T20:00:00.000+09:00","limit_number":null,"address":"東京都北区十条仲原1-17-8スプリングハウス4F","place":"株式会社マインディア","lat":35.7635,"lon":139.719,"state":"closed","id":null}]