[{"event_id":"7315","title":"Androidハッカソン＠高松","url":"https://atnd.org/events/7315","shortener_url":null,"started_at":"2010-08-28T13:00:00.000+09:00","ended_at":"2010-08-28T17:30:00.000+09:00","limit_number":12,"address":"香川県高松市常磐町1丁目9-31","place":"高松市常磐街商店街（トキワ街） ミッド・プラザ","lat":34.3386,"lon":134.051,"state":"closed","id":null},{"event_id":"6700","title":"大名古屋#04","url":"https://atnd.org/events/6700","shortener_url":null,"started_at":"2010-08-22T10:30:00.000+09:00","ended_at":"2010-08-22T12:00:00.000+09:00","limit_number":30,"address":"愛知県名古屋市東区葵3丁目22-8","place":"株式会社ニューキャスト セミナールーム（ニューザックビル6F）","lat":35.1698,"lon":136.928,"state":"closed","id":null},{"event_id":"5975","title":"Smiley Hackathon#9","url":"https://atnd.org/events/5975","shortener_url":null,"started_at":"2010-08-21T13:00:00.000+09:00","ended_at":"2010-08-21T20:00:00.000+09:00","limit_number":26,"address":"東京都港区北青山2-5-8","place":"オラクル青山センター","lat":35.6712,"lon":139.719,"state":"closed","id":null},{"event_id":"7104","title":"Code Meeting 2010.08","url":"https://atnd.org/events/7104","shortener_url":null,"started_at":"2010-08-21T10:00:00.000+09:00","ended_at":"2010-08-21T18:00:00.000+09:00","limit_number":8,"address":"東京都新宿区箪笥町35 日米タイム24ビル 3F","place":"株式会社アクセンス・テクノロジー会議室","lat":35.7002,"lon":139.735,"state":"closed","id":null},{"event_id":"7018","title":"Scala@東北 第1回BootCamp\u0026Hackathon","url":"https://atnd.org/events/7018","shortener_url":null,"started_at":"2010-08-20T09:00:00.000+09:00","ended_at":"2010-08-20T21:00:00.000+09:00","limit_number":10,"address":"仙台市青葉区本町1-14-20本町キクタビル6F","place":"JCraft(本町キクタビル6F)","lat":38.2672,"lon":140.877,"state":"closed","id":null},{"event_id":"5072","title":"ぼっつく第二期 #1（日程確定！）","url":"https://atnd.org/events/5072","shortener_url":null,"started_at":"2010-08-07T18:00:00.000+09:00","ended_at":"2010-08-07T21:00:00.000+09:00","limit_number":20,"address":"東京都新宿区市谷仲之町4-39","place":"IT健保会館（市ヶ谷）　- C室","lat":35.6954,"lon":139.724,"state":"closed","id":null},{"event_id":"6203","title":"金光ダブルフォルツ夏合宿","url":"https://atnd.org/events/6203","shortener_url":null,"started_at":"2010-08-14T10:00:00.000+09:00","ended_at":"2010-08-15T17:00:00.000+09:00","limit_number":null,"address":"岡山県真庭市社128-14","place":"湯原温泉 森のホテル ロシュフォール","lat":35.1778,"lon":133.74,"state":"closed","id":null},{"event_id":"7118","title":"井戸端会議（Yokoid）　Mtg.003","url":"https://atnd.org/events/7118","shortener_url":null,"started_at":"2010-08-12T19:00:00.000+09:00","ended_at":"2010-08-12T21:00:00.000+09:00","limit_number":12,"address":"","place":"かながわ労働プラザ第１０会議室","lat":null,"lon":null,"state":"closed","id":null},{"event_id":"6771","title":"わくわくオープンラボ新企画会議","url":"https://atnd.org/events/6771","shortener_url":null,"started_at":"2010-08-04T19:30:00.000+09:00","ended_at":"2010-08-07T08:59:59.000+09:00","limit_number":15,"address":"東京都新宿区新宿2-19-1","place":"喫茶室ルノアール 新宿3丁目ビッグスビル店　貸し会議室","lat":35.6912,"lon":139.708,"state":"closed","id":null},{"event_id":"6652","title":".fukui  vol.1    -JavaScriptの巻-","url":"https://atnd.org/events/6652","shortener_url":null,"started_at":"2010-08-04T19:00:00.000+09:00","ended_at":"2010-08-04T21:30:00.000+09:00","limit_number":12,"address":"福井県福井市開発2丁目614","place":"株式会社サーフボード1階セミナールーム","lat":36.0781,"lon":136.24,"state":"closed","id":null}]