[{"event_id":"4198","title":"iPad ハッカソン #2","url":"https://atnd.org/events/4198","shortener_url":null,"started_at":"2010-04-27T10:00:00.000+09:00","ended_at":"2010-04-29T23:59:59.000+09:00","limit_number":11,"address":"東京都渋谷区恵比寿4-17-3","place":"株式会社シリウステクノロジーズ","lat":35.644,"lon":139.712,"state":"closed","id":null},{"event_id":"4012","title":"楽器弾きながら花見をやりましょうin盛岡","url":"https://atnd.org/events/4012","shortener_url":null,"started_at":"2010-04-24T04:00:00.000+09:00","ended_at":"2010-04-27T02:30:00.000+09:00","limit_number":null,"address":"岩手県盛岡市内丸1-42","place":"盛岡城跡公園（桜山神社前に集合）","lat":39.7015,"lon":141.152,"state":"closed","id":null},{"event_id":"3891","title":"BPStudy#32","url":"https://atnd.org/events/3891","shortener_url":null,"started_at":"2010-04-23T10:00:00.000+09:00","ended_at":"2010-04-23T12:30:00.000+09:00","limit_number":50,"address":"東京都渋谷区恵比寿1丁目20−8","place":"EBISU303","lat":35.6469,"lon":139.713,"state":"closed","id":null},{"event_id":"4166","title":"iPad ハッカソン","url":"https://atnd.org/events/4166","shortener_url":null,"started_at":"2010-04-20T10:00:00.000+09:00","ended_at":"2010-04-20T12:00:00.000+09:00","limit_number":8,"address":"東京都渋谷区恵比寿4-17-3","place":"シリウステクノロジーズ会議室","lat":35.644,"lon":139.712,"state":"closed","id":null},{"event_id":"3898","title":"CSNagoya「第1回GC本読書会」","url":"https://atnd.org/events/3898","shortener_url":null,"started_at":"2010-04-18T08:30:00.000+09:00","ended_at":"2010-04-20T23:59:59.000+09:00","limit_number":15,"address":"愛知県名古屋市中区栄3丁目18−1","place":"アートピア 第4研修室","lat":35.1655,"lon":136.905,"state":"closed","id":null},{"event_id":"4045","title":"第2回Smalltalkハッカソン","url":"https://atnd.org/events/4045","shortener_url":null,"started_at":"2010-04-17T02:00:00.000+09:00","ended_at":"2010-04-17T09:00:00.000+09:00","limit_number":10,"address":"東京都千代田区神田錦町2丁目4番地","place":"株式会社万葉","lat":35.6939,"lon":139.763,"state":"closed","id":null},{"event_id":"4058","title":"Google Wave Hackathon","url":"https://atnd.org/events/4058","shortener_url":null,"started_at":"2010-04-17T01:00:00.000+09:00","ended_at":"2010-04-17T09:00:00.000+09:00","limit_number":20,"address":"東京都渋谷区桜丘町26-1","place":"Google Japan 会議室 ","lat":35.6564,"lon":139.699,"state":"closed","id":null},{"event_id":"3851","title":"appengine ja hack-a-thon #3","url":"https://atnd.org/events/3851","shortener_url":null,"started_at":"2010-04-17T01:00:00.000+09:00","ended_at":"2010-04-17T11:45:00.000+09:00","limit_number":12,"address":"東京都新宿区市谷仲之町4-39","place":"ITS市ヶ谷会議室B","lat":35.6954,"lon":139.724,"state":"closed","id":null},{"event_id":"3765","title":"日本Androidの会　中国支部　第１１回勉強会（ハッカソン）","url":"https://atnd.org/events/3765","shortener_url":null,"started_at":"2010-04-11T01:00:00.000+09:00","ended_at":"2010-04-11T08:00:00.000+09:00","limit_number":0,"address":"山口県周南市御幸通2-28","place":"周南市市民交流センター　３F講座室","lat":34.0517,"lon":131.803,"state":"closed","id":null},{"event_id":"3518","title":"C.M.ビショップ「パターン認識と機械学習(PRML)」読書会（第13回）","url":"https://atnd.org/events/3518","shortener_url":null,"started_at":"2010-04-10T04:00:00.000+09:00","ended_at":"2010-04-10T11:00:00.000+09:00","limit_number":25,"address":"東京都港区赤坂2-17-22","place":"サイボウズ・ラボ","lat":35.6698,"lon":139.74,"state":"closed","id":null},{"event_id":"3734","title":"【Ruby】とべとべ自習室【Rails】","url":"https://atnd.org/events/3734","shortener_url":null,"started_at":"2010-04-10T03:50:00.000+09:00","ended_at":"2010-04-10T10:00:00.000+09:00","limit_number":50,"address":"東京都港区北青山2-5-8","place":"オラクル青山センター 13Fセミナールーム","lat":35.6712,"lon":139.719,"state":"closed","id":null},{"event_id":"3601","title":"第2回Komagome.py 春の花見SP(前半)","url":"https://atnd.org/events/3601","shortener_url":null,"started_at":"2010-04-10T03:00:00.000+09:00","ended_at":"2010-04-10T09:30:00.000+09:00","limit_number":8,"address":"東京都豊島区巣鴨1-15-1","place":"ルノアール巣鴨店","lat":35.7332,"lon":139.74,"state":"closed","id":null},{"event_id":"3729","title":"Tokyo.clj#1","url":"https://atnd.org/events/3729","shortener_url":null,"started_at":"2010-04-10T00:00:00.000+09:00","ended_at":"2010-04-10T10:00:00.000+09:00","limit_number":15,"address":"東京都新宿区坂町26-27","place":"タイムインターメディア会議室(2F)","lat":35.6912,"lon":139.727,"state":"closed","id":null},{"event_id":"3852","title":"Chrome Extensions with HTML5作ろう会 Vol.1 - 福井","url":"https://atnd.org/events/3852","shortener_url":null,"started_at":"2010-04-07T10:00:00.000+09:00","ended_at":"2010-04-07T12:00:00.000+09:00","limit_number":10,"address":"福井県福井市開発2丁目614","place":"(株)サーフボード 1階会議室","lat":36.0781,"lon":136.24,"state":"closed","id":null},{"event_id":"3868","title":"屋形船で花見しながらHackathon","url":"https://atnd.org/events/3868","shortener_url":null,"started_at":"2010-04-04T09:30:00.000+09:00","ended_at":"2010-04-06T23:59:59.000+09:00","limit_number":15,"address":"東京都中央区晴海3丁目1-4","place":"隅田川 - お台場 - 隅田川","lat":35.6565,"lon":139.78,"state":"closed","id":null},{"event_id":"3763","title":"日本Androidの会　中国支部　第９回勉強会（ハッカソン）","url":"https://atnd.org/events/3763","shortener_url":null,"started_at":"2010-04-04T01:00:00.000+09:00","ended_at":"2010-04-04T08:00:00.000+09:00","limit_number":50,"address":"山口県周南市御幸通2-28","place":"周南市市民交流センター　３F講座室","lat":34.0517,"lon":131.803,"state":"closed","id":null},{"event_id":"3785","title":"PostgreSQL 9 TestFest Japan","url":"https://atnd.org/events/3785","shortener_url":null,"started_at":"2010-04-03T18:00:00.000+09:00","ended_at":"2010-04-04T01:00:00.000+09:00","limit_number":10,"address":"東京都新宿区新宿4丁目3-25","place":"フォルシア株式会社 会議室 （オリックス新宿ビル9階）","lat":35.6893,"lon":139.704,"state":"closed","id":null},{"event_id":"3699","title":"広島 みにはっかそん #\\003","url":"https://atnd.org/events/3699","shortener_url":null,"started_at":"2010-04-03T05:00:00.000+09:00","ended_at":"2010-04-03T09:00:00.000+09:00","limit_number":24,"address":"広島市中区基町5-61","place":"広島市青少年センター 第１会議室 ","lat":34.3976,"lon":132.454,"state":"closed","id":null},{"event_id":"3654","title":"4/3 土　チームラボ　電子工作祭り　参加者募集 ","url":"https://atnd.org/events/3654","shortener_url":null,"started_at":"2010-04-03T04:00:00.000+09:00","ended_at":"2010-04-03T10:00:00.000+09:00","limit_number":12,"address":"東京都文京区本郷4-9-22","place":"チームラボオフィス (東京都文京区本郷4-9-22  本郷フジビル2Ｆ)","lat":35.7089,"lon":139.756,"state":"closed","id":null},{"event_id":"3395","title":"4/3 土　チームラボ　電子工作祭り　ライトニングトーク募集 ","url":"https://atnd.org/events/3395","shortener_url":null,"started_at":"2010-04-03T04:00:00.000+09:00","ended_at":"2010-04-03T11:00:00.000+09:00","limit_number":10,"address":"東京都文京区本郷4-9-22","place":"チームラボオフィス (東京都文京区本郷4-9-22  本郷フジビル2Ｆ  )","lat":35.7089,"lon":139.756,"state":"closed","id":null},{"event_id":"3791","title":"a-blog cms Power User Training Camp 2010 Spring","url":"https://atnd.org/events/3791","shortener_url":null,"started_at":"2010-04-23T04:00:00.000+09:00","ended_at":"2010-04-24T07:00:00.000+09:00","limit_number":20,"address":"愛知県知多郡南知多町大字師崎字高岩57","place":"師崎荘","lat":34.7012,"lon":136.967,"state":"closed","id":null}]