[{"event_id":"9849","title":"Bill Wall Leather 2010 JAPAN TOUR IN HIROSHIMA","url":"https://atnd.org/events/9849","shortener_url":null,"started_at":"2010-11-26T13:00:00.000+09:00","ended_at":"2010-11-26T20:00:00.000+09:00","limit_number":null,"address":"広島県広島市中区本通1-6 ミタキヤビル B-1F","place":"925本通店","lat":34.3931,"lon":132.462,"state":"closed","id":null},{"event_id":"10100","title":"Scala勉強会第13回 in 渋谷","url":"https://atnd.org/events/10100","shortener_url":null,"started_at":"2010-11-24T20:00:00.000+09:00","ended_at":"2010-11-24T21:30:00.000+09:00","limit_number":20,"address":"〒150-0036 東京都渋谷区南平台町16番28号 グラスシティ渋谷11階","place":"株式会社HDE 会議室","lat":35.6549,"lon":139.695,"state":"closed","id":null},{"event_id":"8911","title":"第1回 Symfony2 勉強会 (11/20)","url":"https://atnd.org/events/8911","shortener_url":null,"started_at":"2010-11-20T14:00:00.000+09:00","ended_at":"2010-11-20T18:00:00.000+09:00","limit_number":58,"address":"東京都渋谷区桜丘町22-14 N.E.S.ビル2F","place":"ジンガジャパン株式会社 会議室","lat":35.6546,"lon":139.7,"state":"closed","id":null},{"event_id":"9889","title":"Scala勉強会第12回 in 渋谷","url":"https://atnd.org/events/9889","shortener_url":null,"started_at":"2010-11-17T20:00:00.000+09:00","ended_at":"2010-11-17T21:30:00.000+09:00","limit_number":20,"address":"〒150-0036 東京都渋谷区南平台町16番28号 グラスシティ渋谷11階","place":"株式会社HDE 会議室","lat":35.6549,"lon":139.695,"state":"closed","id":null},{"event_id":"9185","title":"Android Hackaton Vol.3 In Fukuoka","url":"https://atnd.org/events/9185","shortener_url":null,"started_at":"2010-11-13T10:00:00.000+09:00","ended_at":"2010-11-13T19:00:00.000+09:00","limit_number":15,"address":"福岡市中央区大名1-14-28","place":"AipCafe （福岡市中央区大名1-14-28 第1松村ビル302号室）","lat":33.5876,"lon":130.396,"state":"closed","id":null},{"event_id":"9607","title":"Scala勉強会第11回 in 渋谷","url":"https://atnd.org/events/9607","shortener_url":null,"started_at":"2010-11-10T20:00:00.000+09:00","ended_at":"2010-11-10T21:30:00.000+09:00","limit_number":20,"address":"〒150-0036 東京都渋谷区南平台町16番28号 グラスシティ渋谷11階","place":"株式会社HDE 会議室","lat":35.6549,"lon":139.695,"state":"closed","id":null},{"event_id":"9631","title":"ギークハウス水道橋見学会+ハッカソン","url":"https://atnd.org/events/9631","shortener_url":null,"started_at":"2010-11-07T14:00:00.000+09:00","ended_at":"2010-11-07T18:00:00.000+09:00","limit_number":2147483647,"address":"東京都千代田区三崎町2-13-7","place":"ギークハウス水道橋","lat":35.7005,"lon":139.753,"state":"closed","id":null},{"event_id":"9305","title":"Sphinx + 翻訳 Hack-a-thon 2010.11","url":"https://atnd.org/events/9305","shortener_url":null,"started_at":"2010-11-06T11:00:00.000+09:00","ended_at":"2010-11-06T19:00:00.000+09:00","limit_number":12,"address":"東京都新宿区箪笥町35","place":"アクセンス・テクノロジー (日米タイム24ビル3階)","lat":35.7002,"lon":139.735,"state":"closed","id":null},{"event_id":"9337","title":"Scala勉強会第10回 in 渋谷","url":"https://atnd.org/events/9337","shortener_url":null,"started_at":"2010-11-03T10:30:00.000+09:00","ended_at":"2010-11-03T17:00:00.000+09:00","limit_number":20,"address":"東京都渋谷区桜丘町26番1号 セルリアンタワー","place":"GMOメディア株式会社 11F 大会議室","lat":35.6564,"lon":139.699,"state":"closed","id":null},{"event_id":"8072","title":"a-blog cms Training Camp 2010 Autumn","url":"https://atnd.org/events/8072","shortener_url":null,"started_at":"2010-11-19T13:00:00.000+09:00","ended_at":"2010-11-20T12:00:00.000+09:00","limit_number":33,"address":"愛知県知多郡南知多町大字師崎字高岩57","place":"師崎荘","lat":34.7012,"lon":136.967,"state":"closed","id":null},{"event_id":"9489","title":"【SmartPhoneソーシャルゲーム＆新規事業創出合宿】デジタルネイティブナイトvol.7","url":"https://atnd.org/events/9489","shortener_url":null,"started_at":"2010-11-13T19:00:00.000+09:00","ended_at":"2010-11-13T22:00:00.000+09:00","limit_number":40,"address":"","place":"","lat":null,"lon":null,"state":"closed","id":null},{"event_id":"8817","title":"『アードマン連結体』読書会","url":"https://atnd.org/events/8817","shortener_url":null,"started_at":"2010-11-13T16:00:00.000+09:00","ended_at":"2010-11-13T19:00:00.000+09:00","limit_number":20,"address":"京都府南丹市園部町新町51-1","place":"京都府船井郡園部町『かいちや旅館』","lat":35.1071,"lon":135.479,"state":"closed","id":null},{"event_id":"8325","title":"a-blog cms 勉強会 in 静岡","url":"https://atnd.org/events/8325","shortener_url":null,"started_at":"2010-11-09T13:30:00.000+09:00","ended_at":"2010-11-09T17:00:00.000+09:00","limit_number":20,"address":"静岡県静岡市葵区呉服町2-3-1","place":"ふしみや貸会議室 901号室","lat":34.9742,"lon":138.383,"state":"closed","id":null},{"event_id":"8655","title":"【スペシャルコミュニケーション術セミナー】","url":"https://atnd.org/events/8655","shortener_url":null,"started_at":"2010-11-03T15:10:00.000+09:00","ended_at":"2010-11-03T18:00:00.000+09:00","limit_number":12,"address":"東京都武蔵野市吉祥寺本町1-11-27","place":"吉祥寺レンタルサロン「ワ･ミューズ」","lat":35.7055,"lon":139.581,"state":"closed","id":null}]