[{"event_id":"8724","title":"Scala勉強会第18回 in 渋谷 兼 納会","url":"https://atnd.org/events/8724","shortener_url":null,"started_at":"2010-12-29T18:00:00.000+09:00","ended_at":"2011-01-01T08:59:59.000+09:00","limit_number":20,"address":"東京都渋谷区道玄坂2-6-17 渋東シネタワーB2F","place":"某忘年会を真似て「ソファー＆個室 ダイニング　渋谷　モアイカフェ　TOM BOY 106　道玄坂店」に決定","lat":35.659,"lon":139.699,"state":"closed","id":null},{"event_id":"10903","title":"第一回おめでてハッカソン","url":"https://atnd.org/events/10903","shortener_url":null,"started_at":"2010-12-26T10:00:00.000+09:00","ended_at":"2010-12-26T17:30:00.000+09:00","limit_number":20,"address":"静岡大学浜松キャンパス","place":"情報棟２号館 ７階の佐藤研究室を予定","lat":34.7249,"lon":137.718,"state":"closed","id":null},{"event_id":"10964","title":"week of code #1@the world","url":"https://atnd.org/events/10964","shortener_url":null,"started_at":"2010-12-26T00:00:00.000+09:00","ended_at":"2010-12-31T23:55:00.000+09:00","limit_number":2010,"address":"インターネット","place":"インターネット","lat":36.3613,"lon":-82.4002,"state":"closed","id":null},{"event_id":"10466","title":"Symfony Advent 2010","url":"https://atnd.org/events/10466","shortener_url":null,"started_at":"2010-12-25T00:00:00.000+09:00","ended_at":"2010-12-27T08:59:59.000+09:00","limit_number":19,"address":"","place":"各自ブログ","lat":null,"lon":null,"state":"closed","id":null},{"event_id":"10950","title":"はてな技術勉強会 Hackathon ","url":"https://atnd.org/events/10950","shortener_url":null,"started_at":"2010-12-19T10:10:00.000+09:00","ended_at":"2010-12-19T17:00:00.000+09:00","limit_number":30,"address":"京都府京都市中京区御池通間之町東入高宮町206 御池ビル9F","place":"はてな京都本社","lat":35.0097,"lon":135.755,"state":"closed","id":null},{"event_id":"9709","title":"Gee vol.2","url":"https://atnd.org/events/9709","shortener_url":null,"started_at":"2010-12-18T15:00:00.000+09:00","ended_at":"2010-12-18T20:00:00.000+09:00","limit_number":null,"address":"東京都台東区秋葉原3-11","place":"秋葉原 MOGRA","lat":35.7021,"lon":139.775,"state":"closed","id":null},{"event_id":"10377","title":"第1回 MongoDB JP \u0026 CouchDB JP 合同勉強会 in Tokyo","url":"https://atnd.org/events/10377","shortener_url":null,"started_at":"2010-12-12T14:00:00.000+09:00","ended_at":"2010-12-12T21:00:00.000+09:00","limit_number":55,"address":"東京都品川区南大井6-26-1","place":"ニフティ株式会社 大森ベルポートA館 6Fセミナールーム （東京都品川区南大井6-26-1）","lat":35.588,"lon":139.732,"state":"closed","id":null},{"event_id":"10271","title":"Sonix Hack-a-thon 2010/12/11:GWTでさりげなくHackathonする回","url":"https://atnd.org/events/10271","shortener_url":null,"started_at":"2010-12-11T12:00:00.000+09:00","ended_at":"2010-12-11T18:00:00.000+09:00","limit_number":5,"address":"東京都渋谷区神宮前1-14-25 斉藤ビル6F","place":"株式会社ソニックス様","lat":35.6699,"lon":139.703,"state":"closed","id":null},{"event_id":"10386","title":"Tokyo.clj#7'","url":"https://atnd.org/events/10386","shortener_url":null,"started_at":"2010-12-11T10:30:00.000+09:00","ended_at":"2010-12-11T19:00:00.000+09:00","limit_number":20,"address":"新宿区坂町26-27","place":"株式会社タイムインターメディア大会議室","lat":35.6912,"lon":139.727,"state":"closed","id":null},{"event_id":"10139","title":"12月4日（土） nico-simply 6th Anniversary Party","url":"https://atnd.org/events/10139","shortener_url":null,"started_at":"2010-12-04T19:00:00.000+09:00","ended_at":"2010-12-07T08:59:59.000+09:00","limit_number":null,"address":"長野県中野市吉田900-1","place":"nico-simply","lat":36.7548,"lon":138.358,"state":"closed","id":null},{"event_id":"9182","title":"第2回 浜松ハッカソン: 2010年12月4日(土)","url":"https://atnd.org/events/9182","shortener_url":null,"started_at":"2010-12-04T10:00:00.000+09:00","ended_at":"2010-12-04T18:00:00.000+09:00","limit_number":25,"address":"静岡県浜松市中区和地山3-1-7","place":"静岡県浜松市インキュベーション施設 HI-Cube(ハイキューブ)2階会議室","lat":34.7277,"lon":137.715,"state":"closed","id":null},{"event_id":"11149","title":"キャンドルナイト@広島平和記念公園","url":"https://atnd.org/events/11149","shortener_url":null,"started_at":"2010-12-22T18:30:00.000+09:00","ended_at":"2010-12-22T21:00:00.000+09:00","limit_number":null,"address":"広島市中区中島町1-2","place":"平和記念資料館　会議室2、平和公園韓国人原爆犠牲者慰霊碑前","lat":34.3915,"lon":132.453,"state":"closed","id":null},{"event_id":"11006","title":"ぱ～研（パートナーシップ研究会）","url":"https://atnd.org/events/11006","shortener_url":null,"started_at":"2010-12-22T18:30:00.000+09:00","ended_at":"2010-12-25T08:59:59.000+09:00","limit_number":null,"address":"福岡市博多区吉塚本町13-50","place":"「福岡県ＮＰＯ・ボランティアセンター」　会議室","lat":33.6081,"lon":130.424,"state":"closed","id":null},{"event_id":"9901","title":"kanazawa.js v0.0.1 勉強会","url":"https://atnd.org/events/9901","shortener_url":null,"started_at":"2010-12-05T10:00:00.000+09:00","ended_at":"2010-12-05T17:00:00.000+09:00","limit_number":12,"address":"石川県金沢市武蔵町14番31号","place":"ITビジネスプラザ武蔵 5F 会議室1","lat":36.5713,"lon":136.655,"state":"closed","id":null},{"event_id":"10499","title":"名古屋市立大学芸術工学部情報デザイン学科４年スキー合宿","url":"https://atnd.org/events/10499","shortener_url":null,"started_at":"2010-12-04T00:00:00.000+09:00","ended_at":"2010-12-06T08:59:59.000+09:00","limit_number":null,"address":"長野県","place":"未定（長野）","lat":36.6513,"lon":138.181,"state":"closed","id":null},{"event_id":"9954","title":"第2回ベンチャー・カフェ　「エンジニアは、サービスデザインにどう貢献できるか」","url":"https://atnd.org/events/9954","shortener_url":null,"started_at":"2010-12-03T18:30:00.000+09:00","ended_at":"2010-12-06T08:59:59.000+09:00","limit_number":65,"address":"東京都中央区銀座4-9-8 王子ビル3階","place":"ダイヤモンド経営者倶楽部　銀座サロン","lat":35.6704,"lon":139.767,"state":"closed","id":null}]