[{"event_id":"4804","title":"PRML(パターン認識と機械学習) Hackathon #3 〜人工無脳対決〜","url":"https://atnd.org/events/4804","shortener_url":null,"started_at":"2010-06-26T04:00:00.000+09:00","ended_at":"2010-08-31T14:55:00.000+09:00","limit_number":17,"address":"","place":"未定","lat":null,"lon":null,"state":"closed","id":null},{"event_id":"5655","title":"やさいカフェ","url":"https://atnd.org/events/5655","shortener_url":null,"started_at":"2010-06-24T10:00:00.000+09:00","ended_at":"2010-06-24T12:00:00.000+09:00","limit_number":30,"address":"大阪市淀川区十三元今里2-5-17","place":"CafeSlowOsaka","lat":34.7195,"lon":135.477,"state":"closed","id":null},{"event_id":"5642","title":"おやつ上映会","url":"https://atnd.org/events/5642","shortener_url":null,"started_at":"2010-06-24T05:00:00.000+09:00","ended_at":"2010-06-24T07:00:00.000+09:00","limit_number":20,"address":"大阪市淀川区十三元今里2-5-17","place":"CafeSlowOsaka","lat":34.7195,"lon":135.477,"state":"closed","id":null},{"event_id":"5372","title":"Crema de Candle Night","url":"https://atnd.org/events/5372","shortener_url":null,"started_at":"2010-06-21T11:00:00.000+09:00","ended_at":"2010-06-23T23:59:59.000+09:00","limit_number":null,"address":"愛媛県松山市湊町4丁目3-7 すがやビル2F","place":"カフェ・クレマ","lat":33.8355,"lon":132.765,"state":"closed","id":null},{"event_id":"4640","title":"TechWaveハッカソン May 2010","url":"https://atnd.org/events/4640","shortener_url":null,"started_at":"2010-06-19T01:00:00.000+09:00","ended_at":"2010-06-19T09:00:00.000+09:00","limit_number":null,"address":"東京都港区南青山5-10-1","place":"株式会社ゴーガ","lat":35.6628,"lon":139.711,"state":"closed","id":null},{"event_id":"5456","title":"nico candle night","url":"https://atnd.org/events/5456","shortener_url":null,"started_at":"2010-06-18T11:00:00.000+09:00","ended_at":"2010-06-20T23:59:59.000+09:00","limit_number":null,"address":"長野県中野市吉田900-1","place":"nico-simply","lat":36.7548,"lon":138.358,"state":"closed","id":null},{"event_id":"4416","title":"Piece Network 3 - Hackathon in Sayo","url":"https://atnd.org/events/4416","shortener_url":null,"started_at":"2010-06-17T15:00:00.000+09:00","ended_at":"2010-06-19T15:00:00.000+09:00","limit_number":10,"address":"兵庫県佐用郡佐用町平福726","place":"河内屋 (宿泊先)","lat":35.0436,"lon":134.37,"state":"closed","id":null},{"event_id":"4423","title":"appengine ja hack-a-thon #4 懇親会","url":"https://atnd.org/events/4423","shortener_url":null,"started_at":"2010-06-12T09:00:00.000+09:00","ended_at":"2010-06-12T11:00:00.000+09:00","limit_number":null,"address":"","place":"the Bar (hackathon会場の上フロアにあるバーです)","lat":null,"lon":null,"state":"closed","id":null},{"event_id":"4422","title":"appengine ja hack-a-thon #4","url":"https://atnd.org/events/4422","shortener_url":null,"started_at":"2010-06-12T01:00:00.000+09:00","ended_at":"2010-06-12T09:00:00.000+09:00","limit_number":36,"address":"東京都江東区青海2-56-4","place":"the Canteen 2F コンベンションセンター（住所はダミーで隣の警察署にしています）","lat":35.6186,"lon":139.775,"state":"closed","id":null},{"event_id":"4869","title":"iPad ハッカソン #3","url":"https://atnd.org/events/4869","shortener_url":null,"started_at":"2010-06-02T10:00:00.000+09:00","ended_at":"2010-06-02T13:00:00.000+09:00","limit_number":15,"address":"東京都渋谷区恵比寿4-17-3","place":"株式会社シリウステクノロジーズ","lat":35.644,"lon":139.712,"state":"closed","id":null},{"event_id":"5920","title":"6/27女子学生無料【大学生による美容パーティー】CAMPUS BEUTY　４大インカレサークル合同美容企画","url":"https://atnd.org/events/5920","shortener_url":null,"started_at":"2010-06-27T07:00:00.000+09:00","ended_at":"2010-06-27T10:00:00.000+09:00","limit_number":300,"address":"六本木","place":"六本木のラウンジ","lat":35.6628,"lon":139.731,"state":"closed","id":null},{"event_id":"5074","title":"【女の子完全無料】　慶應　上智　明治　女子大　【サークル　メンバー募集】バーベキュー","url":"https://atnd.org/events/5074","shortener_url":null,"started_at":"2010-06-20T03:30:00.000+09:00","ended_at":"2010-06-20T06:40:00.000+09:00","limit_number":60,"address":"","place":"葛西臨界公園　バーベキュー広場","lat":null,"lon":null,"state":"closed","id":null}]