[{"event_id":"15233","title":"Windows Phone 7 Hackathon in Osaka","url":"https://atnd.org/events/15233","shortener_url":null,"started_at":"2011-05-31T15:00:00.000+09:00","ended_at":"2011-07-30T15:00:00.000+09:00","limit_number":null,"address":"","place":"","lat":null,"lon":null,"state":"closed","id":null},{"event_id":"15139","title":"日本Androidの会 群馬支部 ハッカソン","url":"https://atnd.org/events/15139","shortener_url":null,"started_at":"2011-05-28T04:00:00.000+09:00","ended_at":"2011-05-28T08:00:00.000+09:00","limit_number":10,"address":"高崎市下之城町936-14","place":"高崎市産業創造館","lat":36.3053,"lon":139.033,"state":"closed","id":null},{"event_id":"15688","title":"Hack For Japan (5/22) 福岡会場 #hack4jp","url":"https://atnd.org/events/15688","shortener_url":null,"started_at":"2011-05-22T01:00:00.000+09:00","ended_at":"2011-05-22T09:00:00.000+09:00","limit_number":20,"address":"福岡県福岡市中央区渡辺通5丁目23−8サンライトビル9F","place":"九州工業大学ネットワークデザイン研究センター福岡オフィス","lat":33.5867,"lon":130.404,"state":"closed","id":null},{"event_id":"15592","title":"第２回 Hack for Japan","url":"https://atnd.org/events/15592","shortener_url":null,"started_at":"2011-05-22T01:00:00.000+09:00","ended_at":"2011-05-22T08:00:00.000+09:00","limit_number":15,"address":"香川県高松市サンポート2番1号","place":"e-とぴあ・かがわ クラスルームC","lat":34.3525,"lon":134.047,"state":"closed","id":null},{"event_id":"15435","title":"Hack For Japan (5/22) 会津若松会場 #hack4jp","url":"https://atnd.org/events/15435","shortener_url":null,"started_at":"2011-05-22T01:00:00.000+09:00","ended_at":"2011-05-22T09:00:00.000+09:00","limit_number":50,"address":"福島県会津若松市一箕町鶴賀","place":"会津大学産学イノベーションセンター","lat":37.5208,"lon":139.938,"state":"closed","id":null},{"event_id":"15407","title":"Hack For Japan (5/22) 東京会場 #hack4jp ","url":"https://atnd.org/events/15407","shortener_url":null,"started_at":"2011-05-22T01:00:00.000+09:00","ended_at":"2011-05-22T09:00:00.000+09:00","limit_number":40,"address":"東京都中央区銀座7-2-6","place":"リクルート　メディアテクノロジーラボ","lat":35.6709,"lon":139.761,"state":"closed","id":null},{"event_id":"15092","title":"トークセッションイベント「85jam / はちごじゃむ！」","url":"https://atnd.org/events/15092","shortener_url":null,"started_at":"2011-05-21T10:00:00.000+09:00","ended_at":"2011-05-21T13:00:00.000+09:00","limit_number":30,"address":"東京都中野区中央5-48-5","place":"Mugs (JR中野駅より徒歩5分程度)","lat":35.7018,"lon":139.665,"state":"closed","id":null},{"event_id":"15137","title":"日本Androidの会 群馬支部 第8回ミーティング\u0026勉強会\u0026アイディアソン","url":"https://atnd.org/events/15137","shortener_url":null,"started_at":"2011-05-21T04:00:00.000+09:00","ended_at":"2011-05-21T08:00:00.000+09:00","limit_number":9,"address":"高崎市下之城町936-14","place":"高崎市産業創造館","lat":36.3053,"lon":139.033,"state":"closed","id":null},{"event_id":"15817","title":"第15回 低レベル勉強会 ~ 普通のやつらの下を行け ~","url":"https://atnd.org/events/15817","shortener_url":null,"started_at":"2011-05-21T01:00:00.000+09:00","ended_at":"2011-05-21T09:00:00.000+09:00","limit_number":6,"address":"東京都江東区青海2-7-4","place":"the SOHO 1階 カフェ the Canteen (から入って2階のコンベンションセンター )","lat":35.6173,"lon":139.776,"state":"closed","id":null},{"event_id":"15684","title":"Hack For Japan (5/21) 福岡会場 #hack4jp","url":"https://atnd.org/events/15684","shortener_url":null,"started_at":"2011-05-21T01:00:00.000+09:00","ended_at":"2011-05-21T09:00:00.000+09:00","limit_number":20,"address":"福岡県福岡市中央区渡辺通5丁目23−8サンライトビル9F","place":"九州工業大学ネットワークデザイン研究センター福岡オフィス","lat":33.5867,"lon":130.404,"state":"closed","id":null},{"event_id":"15434","title":"Hack For Japan (5/21) 会津若松会場 #hack4jp","url":"https://atnd.org/events/15434","shortener_url":null,"started_at":"2011-05-21T01:00:00.000+09:00","ended_at":"2011-05-21T09:00:00.000+09:00","limit_number":50,"address":"福島県会津若松市一箕町鶴賀","place":"会津大学産学イノベーションセンター","lat":37.5208,"lon":139.938,"state":"closed","id":null},{"event_id":"15405","title":"Hack For Japan (5/21) 東京会場 #hack4jp","url":"https://atnd.org/events/15405","shortener_url":null,"started_at":"2011-05-21T01:00:00.000+09:00","ended_at":"2011-05-21T09:00:00.000+09:00","limit_number":50,"address":"東京都中央区銀座7-2-6","place":"リクルート　メディアテクノロジーラボ","lat":35.6709,"lon":139.761,"state":"closed","id":null},{"event_id":"15475","title":"opthon #9","url":"https://atnd.org/events/15475","shortener_url":null,"started_at":"2011-05-21T00:30:00.000+09:00","ended_at":"2011-05-21T09:00:00.000+09:00","limit_number":10,"address":"東京都新宿区新宿1-6-8 新宿鈴木ビルA館7F","place":"株式会社手嶋屋","lat":35.6885,"lon":139.71,"state":"closed","id":null},{"event_id":"15082","title":"第二回RightScale Hackathon","url":"https://atnd.org/events/15082","shortener_url":null,"started_at":"2011-05-21T00:00:00.000+09:00","ended_at":"2011-05-21T09:00:00.000+09:00","limit_number":30,"address":"東京都千代田区平河町1-4-5 平和第一ビル6F","place":"","lat":35.6828,"lon":139.739,"state":"closed","id":null},{"event_id":"15064","title":"【横浜デ部】Android Hack-a-Party! #5 - 初心者向けワークショップ2 + ハッカソン","url":"https://atnd.org/events/15064","shortener_url":null,"started_at":"2011-05-15T04:00:00.000+09:00","ended_at":"2011-05-15T09:00:00.000+09:00","limit_number":36,"address":"神奈川県横浜市西区南幸2丁目20-3 東伸24ビル 5F","place":"株式会社 アットウェア様 ","lat":35.4648,"lon":139.616,"state":"closed","id":null},{"event_id":"15602","title":"Hack-a-Party! #5 腹ごしらえ","url":"https://atnd.org/events/15602","shortener_url":null,"started_at":"2011-05-15T02:10:00.000+09:00","ended_at":"2011-05-15T03:30:00.000+09:00","limit_number":5,"address":"神奈川県横浜市西区南幸2丁目20-3 東伸24ビル","place":"集合 株式会社アットウェアのビル入り口","lat":35.4648,"lon":139.616,"state":"closed","id":null},{"event_id":"15474","title":"opthon #8","url":"https://atnd.org/events/15474","shortener_url":null,"started_at":"2011-05-14T00:30:00.000+09:00","ended_at":"2011-05-14T09:00:00.000+09:00","limit_number":10,"address":"東京都新宿区新宿1-6-8 新宿鈴木ビルA館7F","place":"株式会社手嶋屋","lat":35.6885,"lon":139.71,"state":"closed","id":null},{"event_id":"15482","title":"Scala勉強会第33回 in 秋葉原","url":"https://atnd.org/events/15482","shortener_url":null,"started_at":"2011-05-11T11:00:00.000+09:00","ended_at":"2011-05-11T12:30:00.000+09:00","limit_number":30,"address":"東京都千代田区外神田5-3-1","place":"株式会社シェアリングス","lat":35.7045,"lon":139.772,"state":"closed","id":null},{"event_id":"15473","title":"opthon #7","url":"https://atnd.org/events/15473","shortener_url":null,"started_at":"2011-05-07T00:30:00.000+09:00","ended_at":"2011-05-07T09:00:00.000+09:00","limit_number":10,"address":"東京都新宿区新宿1-6-8 新宿鈴木ビルA館7F","place":"株式会社手嶋屋","lat":35.6885,"lon":139.71,"state":"closed","id":null},{"event_id":"15231","title":"opthon #6","url":"https://atnd.org/events/15231","shortener_url":null,"started_at":"2011-05-05T00:30:00.000+09:00","ended_at":"2011-05-05T10:30:00.000+09:00","limit_number":10,"address":"東京都新宿区新宿1-6-8 新宿鈴木ビルA館7F","place":"株式会社手嶋屋","lat":35.6885,"lon":139.71,"state":"closed","id":null},{"event_id":"15061","title":"Scala勉強会第32回 in 渋谷","url":"https://atnd.org/events/15061","shortener_url":null,"started_at":"2011-05-04T01:00:00.000+09:00","ended_at":"2011-05-04T08:00:00.000+09:00","limit_number":25,"address":"東京都渋谷区桜丘町26番1号 セルリアンタワー","place":"GMOメディア株式会社 11F 大会議室","lat":35.6566,"lon":139.701,"state":"closed","id":null},{"event_id":"15230","title":"opthon #5","url":"https://atnd.org/events/15230","shortener_url":null,"started_at":"2011-05-04T00:30:00.000+09:00","ended_at":"2011-05-04T10:30:00.000+09:00","limit_number":10,"address":"東京都新宿区新宿1-6-8 新宿鈴木ビルA館7F","place":"株式会社手嶋屋","lat":35.6885,"lon":139.71,"state":"closed","id":null},{"event_id":"15262","title":"プロ生勉強会 ぷちハッカソン","url":"https://atnd.org/events/15262","shortener_url":null,"started_at":"2011-05-03T04:00:00.000+09:00","ended_at":"2011-05-03T09:00:00.000+09:00","limit_number":7,"address":"東京都新宿区高田馬場2-14-2 新陽ビル地下1階","place":"喫茶室ルノアール高田馬場早稲田通り店マイスペース 1号室","lat":35.7125,"lon":139.707,"state":"closed","id":null},{"event_id":"15229","title":"opthon #4","url":"https://atnd.org/events/15229","shortener_url":null,"started_at":"2011-05-03T00:30:00.000+09:00","ended_at":"2011-05-03T10:00:00.000+09:00","limit_number":10,"address":"東京都新宿区新宿1-6-8 新宿鈴木ビルA館7F","place":"株式会社手嶋屋","lat":35.6885,"lon":139.71,"state":"closed","id":null},{"event_id":"15228","title":"opthon #3","url":"https://atnd.org/events/15228","shortener_url":null,"started_at":"2011-05-01T00:30:00.000+09:00","ended_at":"2011-05-01T10:30:00.000+09:00","limit_number":10,"address":"東京都新宿区新宿1-6-8 新宿鈴木ビルA館7F","place":"株式会社手嶋屋","lat":35.6885,"lon":139.71,"state":"closed","id":null},{"event_id":"15300","title":"第4回iPhoneアプリ開発合宿 in 府中","url":"https://atnd.org/events/15300","shortener_url":null,"started_at":"2011-05-28T04:00:00.000+09:00","ended_at":"2011-05-29T03:00:00.000+09:00","limit_number":60,"address":"東京都府中市府中町1-5-1","place":"府中コンチネンタルホテル","lat":35.6724,"lon":139.482,"state":"closed","id":null},{"event_id":"14911","title":"a-blog cms Training Camp in KANMON","url":"https://atnd.org/events/14911","shortener_url":null,"started_at":"2011-05-20T04:00:00.000+09:00","ended_at":"2011-05-21T02:30:00.000+09:00","limit_number":25,"address":"福岡県北九州市門司区大字門司3270-8-3","place":"国民宿舎めかり山荘","lat":33.9557,"lon":130.971,"state":"closed","id":null}]