[{"event_id":"19405","title":"次世代型映像共有アプリ：JamCloudご紹介セミナー","url":"https://atnd.org/events/19405","shortener_url":null,"started_at":"2011-08-30T07:30:00.000+09:00","ended_at":"2011-08-30T21:00:00.000+09:00","limit_number":20,"address":"東京都港区西新橋3-15-12 ケミカルビル7階","place":"バスキュール","lat":35.6649,"lon":139.75,"state":"closed","id":null},{"event_id":"19227","title":"エッグプラント　第一回勉強会","url":"https://atnd.org/events/19227","shortener_url":null,"started_at":"2011-08-29T18:30:00.000+09:00","ended_at":"2011-08-29T20:30:00.000+09:00","limit_number":30,"address":"岐阜県大垣市今宿6-52-16","place":"ドリームコア2Fメッセ","lat":35.3679,"lon":136.637,"state":"closed","id":null},{"event_id":"18061","title":"プラスチックの添加剤の使用法・試験法・分析法","url":"https://atnd.org/events/18061","shortener_url":null,"started_at":"2011-08-29T10:30:00.000+09:00","ended_at":"2011-08-29T16:00:00.000+09:00","limit_number":30,"address":"川崎市川崎区富士見2-1-3","place":"川崎市教育文化会館 第2学習室【川崎市】","lat":35.5288,"lon":139.708,"state":"closed","id":null},{"event_id":"17624","title":"テストイベント","url":"https://atnd.org/events/17624","shortener_url":null,"started_at":"2011-08-28T11:00:00.000+09:00","ended_at":"2011-08-28T21:30:00.000+09:00","limit_number":30,"address":"南九州市川辺町本別府3728-2","place":"かわなべ森の学校","lat":31.344,"lon":130.38,"state":"closed","id":null},{"event_id":"19119","title":"日本Androidの会　横浜支部第１０回定例会","url":"https://atnd.org/events/19119","shortener_url":null,"started_at":"2011-08-27T11:00:00.000+09:00","ended_at":"2011-08-27T16:00:00.000+09:00","limit_number":70,"address":"神奈川県横浜市中区寿町1-4","place":"かながわ労働プラザ第３会議室","lat":35.44,"lon":139.641,"state":"closed","id":null},{"event_id":"18222","title":"ハッカソン","url":"https://atnd.org/events/18222","shortener_url":null,"started_at":"2011-08-21T10:00:00.000+09:00","ended_at":"2011-08-21T18:00:00.000+09:00","limit_number":30,"address":"岐阜県大垣市今宿6丁目52番地18","place":"ワークショップ24工房2","lat":35.3671,"lon":136.637,"state":"closed","id":null},{"event_id":"18223","title":"アイデアソン","url":"https://atnd.org/events/18223","shortener_url":null,"started_at":"2011-08-20T13:00:00.000+09:00","ended_at":"2011-08-20T18:00:00.000+09:00","limit_number":70,"address":"岐阜県大垣市今宿6-52-16","place":"ドリーム・コア2Fメッセ、ワークショップ24","lat":35.3679,"lon":136.637,"state":"closed","id":null},{"event_id":"17745","title":"ゲームプログラミング勉強会 札幌 1.0","url":"https://atnd.org/events/17745","shortener_url":null,"started_at":"2011-08-20T13:00:00.000+09:00","ended_at":"2011-08-20T17:00:00.000+09:00","limit_number":80,"address":"札幌市白石区東札幌5条1丁目1-1","place":"札幌市産業振興センター（東札幌） セミナールーム１","lat":43.0562,"lon":141.386,"state":"closed","id":null},{"event_id":"18898","title":"Androidミニカフェ","url":"https://atnd.org/events/18898","shortener_url":null,"started_at":"2011-08-18T19:00:00.000+09:00","ended_at":"2011-08-18T21:00:00.000+09:00","limit_number":20,"address":"八王子市天神町16-1 エイビット天神町ビル","place":"Androidオープンラボ","lat":35.6578,"lon":139.332,"state":"closed","id":null},{"event_id":"18897","title":"Androidミニカフェ","url":"https://atnd.org/events/18897","shortener_url":null,"started_at":"2011-08-18T19:00:00.000+09:00","ended_at":"2011-08-18T21:00:00.000+09:00","limit_number":20,"address":"八王子市天神町16-1 エイビット天神町ビル","place":"Androidオープンラボ","lat":35.6578,"lon":139.332,"state":"closed","id":null},{"event_id":"16253","title":"第1回　Windows 7 Phone（F-07C）分解改造ハッカソン 2011 Summer!","url":"https://atnd.org/events/16253","shortener_url":null,"started_at":"2011-08-15T19:00:00.000+09:00","ended_at":"2011-08-15T23:30:00.000+09:00","limit_number":20,"address":"東京都千代田区永田町二丁目","place":"東京都千代田区永田町二丁目（山王パークタワー付近）","lat":35.675,"lon":139.74,"state":"closed","id":null},{"event_id":"18278","title":"第1回千葉支部企画アイデアソン","url":"https://atnd.org/events/18278","shortener_url":null,"started_at":"2011-08-14T15:30:00.000+09:00","ended_at":"2011-08-14T20:30:00.000+09:00","limit_number":40,"address":"船橋市本町4-19-6","place":"船橋勤労市民センター","lat":35.6988,"lon":139.988,"state":"closed","id":null},{"event_id":"17701","title":"[taws vol.6]Titanium mobileで作るスマートフォンアプリ講座(v)","url":"https://atnd.org/events/17701","shortener_url":null,"started_at":"2011-08-14T10:30:00.000+09:00","ended_at":"2011-08-14T18:00:00.000+09:00","limit_number":10,"address":"東京都新宿区新宿5-17-11","place":"白鳳ビル８F（フロンティア株式会社内）","lat":35.6917,"lon":139.709,"state":"closed","id":null},{"event_id":"18279","title":"第1回Androidリサーチ開発アイデアソン","url":"https://atnd.org/events/18279","shortener_url":null,"started_at":"2011-08-14T09:30:00.000+09:00","ended_at":"2011-08-14T15:30:00.000+09:00","limit_number":40,"address":"船橋市本町4-19-6","place":"：船橋勤労市民センター　第４会議室","lat":35.6988,"lon":139.988,"state":"closed","id":null},{"event_id":"17584","title":"若手IT勉強会#29(Clousure library勉強会＆ハッカソン)","url":"https://atnd.org/events/17584","shortener_url":null,"started_at":"2011-08-13T14:00:00.000+09:00","ended_at":"2011-08-13T19:00:00.000+09:00","limit_number":20,"address":"東京都目黒区目黒1-6-17 目黒プレイスタワー5","place":"株式会社Skeed","lat":0.0,"lon":0.0,"state":"closed","id":null},{"event_id":"18671","title":"梅シロップ試飲会＠こちらべ","url":"https://atnd.org/events/18671","shortener_url":null,"started_at":"2011-08-10T18:00:00.000+09:00","ended_at":"2011-08-10T21:00:00.000+09:00","limit_number":10,"address":"目黒区下目黒3-3-6","place":"こちらべ","lat":35.631,"lon":139.709,"state":"closed","id":null},{"event_id":"18105","title":"埼大夏のハッカソン","url":"https://atnd.org/events/18105","shortener_url":null,"started_at":"2011-08-08T13:00:00.000+09:00","ended_at":"2011-08-12T18:00:00.000+09:00","limit_number":null,"address":"338-8570","place":"埼玉大学総合研究棟一階ロビー","lat":35.8642,"lon":139.608,"state":"closed","id":null},{"event_id":"18573","title":"横浜支部のハッカソンの後の懇親会","url":"https://atnd.org/events/18573","shortener_url":null,"started_at":"2011-08-06T19:00:00.000+09:00","ended_at":"2011-08-06T21:00:00.000+09:00","limit_number":20,"address":"〒220-0005 神奈川県横浜市西区南幸2-5-4 MMビル6F","place":"横浜 個室 リゾートダイニング 楽一","lat":35.463,"lon":139.618,"state":"closed","id":null},{"event_id":"18293","title":"BOWYA JAM \"11","url":"https://atnd.org/events/18293","shortener_url":null,"started_at":"2011-08-06T13:00:00.000+09:00","ended_at":"2011-08-06T19:00:00.000+09:00","limit_number":null,"address":"","place":"SINKIBA PARK","lat":null,"lon":null,"state":"closed","id":null},{"event_id":"17300","title":"横浜支部のハッカソン#1　AppInventorでハッカソンしてみよう♪","url":"https://atnd.org/events/17300","shortener_url":null,"started_at":"2011-08-06T12:00:00.000+09:00","ended_at":"2011-08-06T20:00:00.000+09:00","limit_number":35,"address":"横浜市西区南幸2-20-5 東伸24ビル","place":"株式会社 アットウェア様（5F）","lat":35.4648,"lon":139.616,"state":"closed","id":null},{"event_id":"17299","title":"横浜支部のハッカソン#2　Echoでハッカソンしてみよう♪","url":"https://atnd.org/events/17299","shortener_url":null,"started_at":"2011-08-06T12:00:00.000+09:00","ended_at":"2011-08-06T18:00:00.000+09:00","limit_number":12,"address":"横浜市西区南幸2-20-5 東伸24ビル","place":"株式会社 アットウェア様（5F）","lat":35.4648,"lon":139.616,"state":"closed","id":null},{"event_id":"18424","title":"札幌 \"9leap\" HTML5/enchant.js ゲーム開発ハッカソン","url":"https://atnd.org/events/18424","shortener_url":null,"started_at":"2011-08-06T10:00:00.000+09:00","ended_at":"2011-08-06T16:00:00.000+09:00","limit_number":30,"address":"北海道札幌市中央区南1条西6丁目第2三谷ビル6階","place":"OYOYO","lat":43.0569,"lon":141.34,"state":"closed","id":null},{"event_id":"17697","title":"mixi Girls Hackathon featuring Android 女子部 ♪","url":"https://atnd.org/events/17697","shortener_url":null,"started_at":"2011-08-06T10:00:00.000+09:00","ended_at":"2011-08-06T18:00:00.000+09:00","limit_number":30,"address":"東京都渋谷区東1-2-20 住友不動産渋谷ファーストタワー7F","place":"株式会社ミクシイ　本社 7F 0715 セミナールーム","lat":35.6579,"lon":139.709,"state":"closed","id":null},{"event_id":"18158","title":"85世代が8月5日に集まってなんかやるけどかっこいいタイトルが思いつかない！！","url":"https://atnd.org/events/18158","shortener_url":null,"started_at":"2011-08-05T20:00:00.000+09:00","ended_at":"2011-08-05T23:30:00.000+09:00","limit_number":100,"address":"東京都渋谷区東3-16-6","place":"Time Out cafe","lat":35.6491,"lon":139.711,"state":"closed","id":null},{"event_id":"16730","title":"HTCPCP完全準拠コーヒーポット開発ハッカソン","url":"https://atnd.org/events/16730","shortener_url":null,"started_at":"2011-08-01T00:00:00.000+09:00","ended_at":"2011-08-31T23:00:00.000+09:00","limit_number":null,"address":"","place":"","lat":null,"lon":null,"state":"closed","id":null},{"event_id":"18569","title":"KDDI ∞ Labo open MEETing Vol.1","url":"https://atnd.org/events/18569","shortener_url":null,"started_at":"2011-08-29T18:30:00.000+09:00","ended_at":"2011-08-29T20:00:00.000+09:00","limit_number":100,"address":"東京都渋谷区神宮前4-32-16","place":"KDDIデザイニングスタジオ","lat":35.67,"lon":139.707,"state":"closed","id":null},{"event_id":"18040","title":"MAUCLのＯＢとＯＧでグダる会","url":"https://atnd.org/events/18040","shortener_url":null,"started_at":"2011-08-18T00:00:00.000+09:00","ended_at":"2011-08-28T23:30:00.000+09:00","limit_number":null,"address":"","place":"","lat":null,"lon":null,"state":"closed","id":null},{"event_id":"18313","title":"一般社団法人 ソーシャルビジネス・ネットワーク \u003c第1回ソーシャルビジネス・カフェ\u003e ","url":"https://atnd.org/events/18313","shortener_url":null,"started_at":"2011-08-05T18:00:00.000+09:00","ended_at":"2011-08-05T20:30:00.000+09:00","limit_number":50,"address":"東京都 港区 六本木6-10-1","place":"アカデミーヒルズ49　カンファレンスルーム7","lat":35.6604,"lon":139.729,"state":"closed","id":null}]