[{"event_id":"141","title":"(第14回)Python mini Hack-a-thon","url":"https://pyhack.connpass.com/event/141/","shortener_url":null,"started_at":"2011-12-17T02:00:00.000+09:00","ended_at":"2011-12-17T10:00:00.000+09:00","limit_number":30,"address":"東京都港区虎ノ門3-4-7 虎ノ門36森ビル 7階","place":"アリエル・ネットワーク 会議室","lat":35.6662,"lon":139.747,"state":"active","id":null},{"event_id":"16235","title":"もやしHackathon","url":"https://atnd.org/events/16235","shortener_url":null,"started_at":"2011-12-31T01:00:00.000+09:00","ended_at":"2012-01-02T23:59:59.000+09:00","limit_number":null,"address":"岩手県盛岡市","place":"","lat":39.7021,"lon":141.154,"state":"closed","id":null},{"event_id":"23662","title":"大晦日勉強会","url":"https://atnd.org/events/23662","shortener_url":null,"started_at":"2011-12-31T00:00:00.000+09:00","ended_at":"2011-12-31T13:00:00.000+09:00","limit_number":10,"address":"東京都西東京市中町1丁目5−1","place":"西東京市保谷こもれびホール　会議室","lat":35.7416,"lon":139.559,"state":"closed","id":null},{"event_id":"23773","title":"年末年始自宅監禁ハッカソン","url":"https://atnd.org/events/23773","shortener_url":null,"started_at":"2011-12-28T15:00:00.000+09:00","ended_at":"2012-01-03T15:00:00.000+09:00","limit_number":null,"address":"","place":"↓","lat":null,"lon":null,"state":"closed","id":null},{"event_id":"23034","title":"家でこっそり学生ハッカソン","url":"https://atnd.org/events/23034","shortener_url":null,"started_at":"2011-12-25T01:00:00.000+09:00","ended_at":"2011-12-25T08:30:00.000+09:00","limit_number":7,"address":"岡山県岡山市北区中井町1丁目2−16","place":"あたしんち(集合場所:マルナカ　中井町店)","lat":34.682,"lon":133.929,"state":"closed","id":null},{"event_id":"23026","title":"クリスマスハッカソン2011　ハッカソン","url":"https://atnd.org/events/23026","shortener_url":null,"started_at":"2011-12-25T01:00:00.000+09:00","ended_at":"2011-12-25T10:00:00.000+09:00","limit_number":30,"address":"大阪市中央区北浜東3-14","place":"エル・おおさか（大阪府立労働センター）　6階604","lat":34.6899,"lon":135.513,"state":"closed","id":null},{"event_id":"23576","title":"クリスマス一人ハッカソン","url":"https://atnd.org/events/23576","shortener_url":null,"started_at":"2011-12-24T03:00:00.000+09:00","ended_at":"2011-12-25T13:00:00.000+09:00","limit_number":1,"address":"","place":"秋葉原某所","lat":null,"lon":null,"state":"closed","id":null},{"event_id":"22449","title":"オープンソースカンファレンス2012 Ehime 下見旅行ハッカソン","url":"https://atnd.org/events/22449","shortener_url":null,"started_at":"2011-12-23T19:30:00.000+09:00","ended_at":"2011-12-25T23:59:59.000+09:00","limit_number":null,"address":"東京都北区赤羽一丁目1-1","place":"JR東日本 赤羽駅 北口 改札前","lat":35.7775,"lon":139.721,"state":"closed","id":null},{"event_id":"23588","title":"クリスマスハッカソン","url":"https://atnd.org/events/23588","shortener_url":null,"started_at":"2011-12-23T04:00:00.000+09:00","ended_at":"2011-12-25T11:00:00.000+09:00","limit_number":5,"address":"東京都江東区","place":"natsumesouの部屋","lat":35.6729,"lon":139.817,"state":"closed","id":null},{"event_id":"22527","title":"クリスマスハッカソン2011　アイデアソン","url":"https://atnd.org/events/22527","shortener_url":null,"started_at":"2011-12-23T01:00:00.000+09:00","ended_at":"2011-12-23T08:00:00.000+09:00","limit_number":30,"address":"大阪市中央区北浜東3-14","place":"エル・おおさか（大阪府立労働センター）　6階604","lat":34.6899,"lon":135.513,"state":"closed","id":null},{"event_id":"23351","title":"GameSalad meetup #12","url":"https://atnd.org/events/23351","shortener_url":null,"started_at":"2011-12-22T10:00:00.000+09:00","ended_at":"2011-12-22T12:00:00.000+09:00","limit_number":40,"address":"渋谷区道玄坂2-25-12 道玄坂カブトビル5F","place":"デジタルハリウッド渋谷校","lat":35.6592,"lon":139.698,"state":"closed","id":null},{"event_id":"23189","title":"パブリック娘。ワンマン\u0026smzdskお誕生日会","url":"https://atnd.org/events/23189","shortener_url":null,"started_at":"2011-12-20T14:30:00.000+09:00","ended_at":"2011-12-20T22:00:00.000+09:00","limit_number":150,"address":"東京都新宿区歌舞伎町2ー3ー23","place":"新宿JAM","lat":35.6969,"lon":139.707,"state":"closed","id":null},{"event_id":"22918","title":"第3回学生のためのUnity勉強会","url":"https://atnd.org/events/22918","shortener_url":null,"started_at":"2011-12-18T04:00:00.000+09:00","ended_at":"2011-12-18T07:00:00.000+09:00","limit_number":40,"address":"101-0021 東京都千代田区外神田1-18-13 秋葉原ダイビル7階","place":"デジタルハリウッド大学秋葉原メインキャンパス","lat":35.6992,"lon":139.772,"state":"closed","id":null},{"event_id":"22979","title":"Online Gentoo Hackathon 12月","url":"https://atnd.org/events/22979","shortener_url":null,"started_at":"2011-12-18T00:00:00.000+09:00","ended_at":"2011-12-20T23:59:59.000+09:00","limit_number":null,"address":"","place":"","lat":null,"lon":null,"state":"closed","id":null},{"event_id":"22324","title":"Windows Phone 全国ハッカソン祭り in 福岡 + 初心者向け勉強会 を開催します！","url":"https://atnd.org/events/22324","shortener_url":null,"started_at":"2011-12-17T03:30:00.000+09:00","ended_at":"2011-12-17T09:30:00.000+09:00","limit_number":30,"address":"福岡県福岡市博多区上川端町 12-20 ふくぎん博多ビル10 F","place":"日本マイクロソフトの九州支店のセミナールーム","lat":33.5948,"lon":130.407,"state":"closed","id":null},{"event_id":"23086","title":"Android アプリ hackathon @ 日吉","url":"https://atnd.org/events/23086","shortener_url":null,"started_at":"2011-12-17T01:00:00.000+09:00","ended_at":"2011-12-18T09:00:00.000+09:00","limit_number":10,"address":"横浜市港北区日吉3","place":"日吉スマホラボ（仮）","lat":35.5548,"lon":139.655,"state":"closed","id":null},{"event_id":"22727","title":"Windows Phone 全国ハッカソン祭り ～名古屋～ Windows Phone 7 Hackathon in NAGOYA","url":"https://atnd.org/events/22727","shortener_url":null,"started_at":"2011-12-11T04:00:00.000+09:00","ended_at":"2011-12-11T09:00:00.000+09:00","limit_number":50,"address":"愛知県名古屋市中区錦3丁目24-20","place":"au NAGOYA","lat":35.1691,"lon":136.906,"state":"closed","id":null},{"event_id":"22350","title":"MikuMikuDance for Unity勉強会","url":"https://atnd.org/events/22350","shortener_url":null,"started_at":"2011-12-10T04:30:00.000+09:00","ended_at":"2011-12-10T07:30:00.000+09:00","limit_number":50,"address":"","place":"CRI・ミドルウェア　会議室9F","lat":null,"lon":null,"state":"closed","id":null},{"event_id":"21641","title":"Windows Phone Hackathon in Osaka","url":"https://atnd.org/events/21641","shortener_url":null,"started_at":"2011-12-04T03:30:00.000+09:00","ended_at":"2011-12-04T09:30:00.000+09:00","limit_number":20,"address":"大阪市東淀川区東中島1-13-13","place":"KOKO PLAZA 801号室","lat":34.7321,"lon":135.504,"state":"closed","id":null},{"event_id":"22356","title":"デザイナー×エンジニアハッカソン（デザイナー募集枠）","url":"https://atnd.org/events/22356","shortener_url":null,"started_at":"2011-12-04T01:00:00.000+09:00","ended_at":"2011-12-04T11:00:00.000+09:00","limit_number":2,"address":"東京都渋谷区恵比寿南1-5-5 JR恵比寿ビル 11F サンブリッジGVH","place":"ベンチャー・カフェ 様（http://venturecafe.jp/） （東京都渋谷区恵比寿南1-5-5 JR恵比寿ビル 11F サンブリッジGVH）","lat":35.6466,"lon":139.71,"state":"closed","id":null},{"event_id":"22194","title":"デザイナー×エンジニアハッカソン（前回参加者優先枠）","url":"https://atnd.org/events/22194","shortener_url":null,"started_at":"2011-12-04T01:00:00.000+09:00","ended_at":"2011-12-04T11:00:00.000+09:00","limit_number":1,"address":"東京都渋谷区恵比寿南1-5-5 JR恵比寿ビル 11F サンブリッジGVH","place":"ベンチャー・カフェ 様（http://venturecafe.jp/）","lat":35.6466,"lon":139.71,"state":"closed","id":null},{"event_id":"21574","title":"おジャ魔女どれみ16 発売記念オフ会","url":"https://atnd.org/events/21574","shortener_url":null,"started_at":"2011-12-03T05:00:00.000+09:00","ended_at":"2011-12-03T13:00:00.000+09:00","limit_number":30,"address":"東京都千代田区外神田1-16-10","place":"喫茶室ルノアールニュー秋葉原店マイスペース","lat":35.6973,"lon":139.773,"state":"closed","id":null},{"event_id":"22363","title":"RitsPy","url":"https://atnd.org/events/22363","shortener_url":null,"started_at":"2011-12-03T04:00:00.000+09:00","ended_at":"2011-12-05T23:59:59.000+09:00","limit_number":null,"address":"","place":"立命館大学 びわこ・くさつキャンパス P108教室","lat":null,"lon":null,"state":"closed","id":null},{"event_id":"22453","title":"第18回 低レベル勉強会 ~ 普通のやつらの下を行け ~","url":"https://atnd.org/events/22453","shortener_url":null,"started_at":"2011-12-03T01:00:00.000+09:00","ended_at":"2011-12-03T07:00:00.000+09:00","limit_number":10,"address":"東京都港区芝4丁目5番10号","place":"株式会社筆まめ さん（会場には連絡は行わないでください。）","lat":35.6487,"lon":139.751,"state":"closed","id":null},{"event_id":"21729","title":"kanazawa.js v1.6.5 - もくもく会とたまにLT -","url":"https://atnd.org/events/21729","shortener_url":null,"started_at":"2011-12-17T01:00:00.000+09:00","ended_at":"2011-12-17T08:00:00.000+09:00","limit_number":20,"address":"石川県金沢市武蔵町14番31号","place":"ITビジネスプラザ武蔵 5F 研修室3","lat":36.5713,"lon":136.655,"state":"closed","id":null}]