[{"event_id":"19952","title":"まりも Next Stage パーティ","url":"https://atnd.org/events/19952","shortener_url":null,"started_at":"2011-09-30T10:30:00.000+09:00","ended_at":"2011-09-30T12:30:00.000+09:00","limit_number":11,"address":"新潟市中央区東堀通五番町438 jamesビル1F","place":"LIFE 新潟","lat":37.9192,"lon":139.045,"state":"closed","id":null},{"event_id":"19941","title":"【定員増員！】#MA7 Mashup Caravan in Tokyo Vol.2","url":"https://atnd.org/events/19941","shortener_url":null,"started_at":"2011-09-28T10:00:00.000+09:00","ended_at":"2011-09-28T11:45:00.000+09:00","limit_number":80,"address":"東京都中央区銀座7-2-6 リクルートアネックス1ビル B1F","place":"リクルート メディアテクノロジーラボ（MTL）Cafe","lat":35.6709,"lon":139.761,"state":"closed","id":null},{"event_id":"19014","title":"[taws vol.8]Titanium mobileで作るスマートフォンアプリハッカソン(vol.4)","url":"https://atnd.org/events/19014","shortener_url":null,"started_at":"2011-09-25T01:30:00.000+09:00","ended_at":"2011-09-25T09:00:00.000+09:00","limit_number":20,"address":"東京都新宿区新宿5-17-11","place":"白鳳ビル８F（フロンティア株式会社内）","lat":35.6917,"lon":139.709,"state":"closed","id":null},{"event_id":"19521","title":"#MA7 Mashup Camp in Kyoto","url":"https://atnd.org/events/19521","shortener_url":null,"started_at":"2011-09-25T01:00:00.000+09:00","ended_at":"2011-09-25T09:00:00.000+09:00","limit_number":30,"address":"京都市下京区中堂寺南町134番地","place":"京都リサーチパーク東地区　京都高度技術研究所(ASTEM)　10F","lat":34.9947,"lon":135.74,"state":"closed","id":null},{"event_id":"19697","title":"新潟フォトウォーク　第13回 / Niigata Photowalk #13 : 新潟古町　懇親会","url":"https://atnd.org/events/19697","shortener_url":null,"started_at":"2011-09-24T08:00:00.000+09:00","ended_at":"2011-09-24T10:00:00.000+09:00","limit_number":16,"address":"新潟県新潟市中央区 古町通5-596-1","place":"モルゲンロート","lat":37.9196,"lon":139.044,"state":"closed","id":null},{"event_id":"19520","title":"#MA7 Mashup Caravan \u0026 Meetup in Kyoto","url":"https://atnd.org/events/19520","shortener_url":null,"started_at":"2011-09-24T04:00:00.000+09:00","ended_at":"2011-09-24T08:00:00.000+09:00","limit_number":30,"address":"京都市下京区中堂寺南町134番地","place":"京都リサーチパーク東地区　京都高度技術研究所(ASTEM)　8F","lat":34.9947,"lon":135.74,"state":"closed","id":null},{"event_id":"19184","title":"好奇心展 ","url":"https://atnd.org/events/19184","shortener_url":null,"started_at":"2011-09-23T08:00:00.000+09:00","ended_at":"2011-09-26T09:00:00.000+09:00","limit_number":null,"address":"東京都品川区上大崎2-9-25","place":"ギャラリー やさしい予感 ","lat":35.6369,"lon":139.716,"state":"closed","id":null},{"event_id":"19013","title":"[taws vol.7]Titanium mobileで作るスマートフォンアプリ講座(vi)","url":"https://atnd.org/events/19013","shortener_url":null,"started_at":"2011-09-18T01:30:00.000+09:00","ended_at":"2011-09-18T09:00:00.000+09:00","limit_number":10,"address":"東京都新宿区新宿5-17-11","place":"白鳳ビル８F（フロンティア株式会社内）","lat":35.6917,"lon":139.709,"state":"closed","id":null},{"event_id":"17896","title":"(第11回)Python mini Hack-a-thon","url":"https://atnd.org/events/17896","shortener_url":null,"started_at":"2011-09-17T02:00:00.000+09:00","ended_at":"2011-09-17T10:00:00.000+09:00","limit_number":30,"address":"東京都新宿区西新宿4丁目15番7号","place":"株式会社gumi gumeeting room(パシフィックマークス新宿パークサイド7階)","lat":35.6889,"lon":139.688,"state":"closed","id":null},{"event_id":"19340","title":"日本Andoroidの会　浜松支部　第五回ミーティング #jaghama","url":"https://atnd.org/events/19340","shortener_url":null,"started_at":"2011-09-17T01:00:00.000+09:00","ended_at":"2011-09-17T08:00:00.000+09:00","limit_number":20,"address":"静岡県浜松市中区鍛冶町100-1 ザザシティ浜松中央館5階","place":"静岡県西部地域交流プラザパレット　ミーティングルーム　B ","lat":34.7056,"lon":137.731,"state":"closed","id":null},{"event_id":"19905","title":"GameSalad meetup #7","url":"https://atnd.org/events/19905","shortener_url":null,"started_at":"2011-09-16T10:00:00.000+09:00","ended_at":"2011-09-16T12:00:00.000+09:00","limit_number":40,"address":"渋谷区道玄坂2-25-12 道玄坂カブトビル","place":"デジハリ渋谷校","lat":35.6601,"lon":139.697,"state":"closed","id":null},{"event_id":"19449","title":"【定員増員！】#MA7 Mashup Caravan in Tokyo Vol.1","url":"https://atnd.org/events/19449","shortener_url":null,"started_at":"2011-09-14T10:00:00.000+09:00","ended_at":"2011-09-14T11:40:00.000+09:00","limit_number":80,"address":"東京都中央区銀座7-2-6 リクルートアネックス1ビル B1F","place":"リクルート メディアテクノロジーラボ（MTL）Cafe","lat":35.6709,"lon":139.761,"state":"closed","id":null},{"event_id":"19324","title":"【横浜デ部】Android Hack-a-Party! #8 - もくもく＋結果発表","url":"https://atnd.org/events/19324","shortener_url":null,"started_at":"2011-09-11T04:00:00.000+09:00","ended_at":"2011-09-11T09:00:00.000+09:00","limit_number":36,"address":"神奈川県横浜市西区南幸2丁目20-3 東伸24ビル 5F","place":"株式会社アットウェア様　会議室（5F）","lat":35.4648,"lon":139.616,"state":"closed","id":null},{"event_id":"19410","title":"魔法魔術学校入学試験","url":"https://atnd.org/events/19410","shortener_url":null,"started_at":"2011-09-10T04:00:00.000+09:00","ended_at":"2011-09-12T23:59:59.000+09:00","limit_number":null,"address":"東京都港区台場1丁目6番1号","place":"東京ジョイポリス　５F特設ブース","lat":35.629,"lon":139.776,"state":"closed","id":null},{"event_id":"18942","title":"#MA7 Mashup Camp in Tokyo Vol.1","url":"https://atnd.org/events/18942","shortener_url":null,"started_at":"2011-09-10T01:00:00.000+09:00","ended_at":"2011-09-10T11:00:00.000+09:00","limit_number":30,"address":"東京都中央区銀座7-2-6 リクルートアネックス1ビル B1F","place":"リクルート メディアテクノロジーラボ（MTL）Cafe","lat":35.6709,"lon":139.761,"state":"closed","id":null},{"event_id":"19555","title":"GameSalad Hackathon#5","url":"https://atnd.org/events/19555","shortener_url":null,"started_at":"2011-09-09T10:00:00.000+09:00","ended_at":"2011-09-09T12:00:00.000+09:00","limit_number":30,"address":"渋谷区道玄坂2-25-12 道玄坂カブトビル","place":"デジハリ渋谷校","lat":35.6601,"lon":139.697,"state":"closed","id":null},{"event_id":"18926","title":"【定員増員！】#MA7 Mashup Meetup in Tokyo Vol.1","url":"https://atnd.org/events/18926","shortener_url":null,"started_at":"2011-09-08T09:30:00.000+09:00","ended_at":"2011-09-08T12:30:00.000+09:00","limit_number":40,"address":"東京都中央区銀座7-2-6 リクルートアネックス1ビル B1F","place":"リクルート メディアテクノロジーラボ（MTL）Cafe","lat":35.6709,"lon":139.761,"state":"closed","id":null},{"event_id":"18999","title":"RightScaleユーザ会(RightScale勉強会) - 第4回","url":"https://atnd.org/events/18999","shortener_url":null,"started_at":"2011-09-07T10:00:00.000+09:00","ended_at":"2011-09-07T12:00:00.000+09:00","limit_number":70,"address":"東京都新宿区西新宿1丁目5-11 新宿三葉ビル6階","place":"ハロー貸会議室新宿 D室","lat":35.6928,"lon":139.698,"state":"closed","id":null},{"event_id":"19462","title":"エッグプラント　第二回勉強会","url":"https://atnd.org/events/19462","shortener_url":null,"started_at":"2011-09-05T09:30:00.000+09:00","ended_at":"2011-09-05T12:00:00.000+09:00","limit_number":30,"address":"岐阜県大垣市今宿6-52-16","place":"ドリームコア2Fメッセ","lat":35.3679,"lon":136.637,"state":"closed","id":null},{"event_id":"19036","title":"第３回スマドラソン（スマートドライブメーター製作委員会・会合）","url":"https://atnd.org/events/19036","shortener_url":null,"started_at":"2011-09-04T00:30:00.000+09:00","ended_at":"2011-09-04T08:00:00.000+09:00","limit_number":24,"address":"東京都北区西ヶ原1-23-3","place":"滝野川会館","lat":35.7435,"lon":139.747,"state":"closed","id":null},{"event_id":"18541","title":"STDIO.S #4","url":"https://atnd.org/events/18541","shortener_url":null,"started_at":"2011-09-03T13:30:00.000+09:00","ended_at":"2011-09-03T17:00:00.000+09:00","limit_number":20,"address":"宮城県仙台市青葉区桜ケ岡公園4-1","place":"仙台市民会館 第5会議室","lat":38.2653,"lon":140.863,"state":"closed","id":null},{"event_id":"19584","title":"日本Androidの会　神戸支部　合宿","url":"https://atnd.org/events/19584","shortener_url":null,"started_at":"2011-09-18T02:00:00.000+09:00","ended_at":"2011-09-19T01:00:00.000+09:00","limit_number":6,"address":"京都市左京区大原草生町17","place":"大原温泉　湯元のお宿　民宿大原山荘","lat":35.1238,"lon":135.822,"state":"closed","id":null},{"event_id":"12706","title":"Debian 合宿/温泉 2011","url":"https://atnd.org/events/12706","shortener_url":null,"started_at":"2011-09-17T06:00:00.000+09:00","ended_at":"2011-09-18T01:00:00.000+09:00","limit_number":null,"address":"","place":"山喜旅館","lat":null,"lon":null,"state":"closed","id":null},{"event_id":"16601","title":"Gentoo/合宿","url":"https://atnd.org/events/16601","shortener_url":null,"started_at":"2011-09-17T02:00:00.000+09:00","ended_at":"2011-09-19T05:00:00.000+09:00","limit_number":30,"address":"","place":"つくば","lat":null,"lon":null,"state":"closed","id":null},{"event_id":"19474","title":"Ogaki Developer Day 2011 fall (ODD2011f)","url":"https://atnd.org/events/19474","shortener_url":null,"started_at":"2011-09-17T01:00:00.000+09:00","ended_at":"2011-09-17T09:00:00.000+09:00","limit_number":null,"address":"大垣市加賀野4-1-7","place":"ソフトピアジャパン　センタービル11F　研修室","lat":35.3676,"lon":136.639,"state":"closed","id":null},{"event_id":"19199","title":"夢合宿","url":"https://atnd.org/events/19199","shortener_url":null,"started_at":"2011-09-09T23:00:00.000+09:00","ended_at":"2011-09-11T09:00:00.000+09:00","limit_number":10,"address":"","place":"","lat":null,"lon":null,"state":"closed","id":null}]