[{"event_id":"16730","title":"HTCPCP完全準拠コーヒーポット開発ハッカソン","url":"https://atnd.org/events/16730","shortener_url":null,"started_at":"2011-07-31T15:00:00.000+09:00","ended_at":"2011-08-31T14:00:00.000+09:00","limit_number":null,"address":"","place":"","lat":null,"lon":null,"state":"closed","id":null},{"event_id":"16915","title":"NFCハッカソン2011","url":"https://atnd.org/events/16915","shortener_url":null,"started_at":"2011-07-31T10:00:00.000+09:00","ended_at":"2011-08-02T23:59:59.000+09:00","limit_number":12,"address":"東京都北区王子","place":"北とぴあ　（JR京浜東北線、東京メトロ南北線王子駅下車徒歩2分）","lat":35.7606,"lon":139.736,"state":"closed","id":null},{"event_id":"17999","title":"アルコール駆動開発ハッカソン","url":"https://atnd.org/events/17999","shortener_url":null,"started_at":"2011-07-31T01:30:00.000+09:00","ended_at":"2011-07-31T13:00:00.000+09:00","limit_number":20,"address":"静岡大学浜松キャンパス","place":"静岡大学1号間6階","lat":34.7249,"lon":137.718,"state":"closed","id":null},{"event_id":"17133","title":"[taws vol.5]Titanium mobileで作るスマートフォンアプリハッカソン(vol.3)","url":"https://atnd.org/events/17133","shortener_url":null,"started_at":"2011-07-31T01:30:00.000+09:00","ended_at":"2011-07-31T09:00:00.000+09:00","limit_number":20,"address":"東京都新宿区新宿5-17-11","place":"白鳳ビル８F（フロンティア株式会社内）","lat":35.6917,"lon":139.709,"state":"closed","id":null},{"event_id":"17872","title":"Androidアプリ：スマート・ドライブ・メーター製作委員会　第２回会合","url":"https://atnd.org/events/17872","shortener_url":null,"started_at":"2011-07-31T00:30:00.000+09:00","ended_at":"2011-07-31T08:00:00.000+09:00","limit_number":45,"address":"東京都豊島区千早2-35-12","place":"千早地域文化創造館　第２会議室","lat":35.7353,"lon":139.689,"state":"closed","id":null},{"event_id":"17711","title":"Hack For Japan ハッカソン 7/30 仙台会場 懇親会 #hack4jp","url":"https://atnd.org/events/17711","shortener_url":null,"started_at":"2011-07-30T09:30:00.000+09:00","ended_at":"2011-07-30T11:30:00.000+09:00","limit_number":20,"address":"","place":"","lat":null,"lon":null,"state":"closed","id":null},{"event_id":"18307","title":"第３回 Hack for Japan","url":"https://atnd.org/events/18307","shortener_url":null,"started_at":"2011-07-30T01:00:00.000+09:00","ended_at":"2011-07-30T09:00:00.000+09:00","limit_number":20,"address":"愛媛県松山市文京町3","place":"愛媛大学 総合情報メディアセンター 2F メディア掲示室","lat":33.8507,"lon":132.772,"state":"closed","id":null},{"event_id":"18188","title":"第17回 低レベル勉強会 ~ 普通のやつらの下を行け ~","url":"https://atnd.org/events/18188","shortener_url":null,"started_at":"2011-07-30T01:00:00.000+09:00","ended_at":"2011-07-30T09:30:00.000+09:00","limit_number":10,"address":"東京都江東区青海2-7-4","place":"the SOHO 1階 カフェ the Canteen (から入って2階のコンベンションセンター )","lat":35.6173,"lon":139.776,"state":"closed","id":null},{"event_id":"17686","title":"Hack 4 Japan [ ハッカソン 7/30] 会津若松会場","url":"https://atnd.org/events/17686","shortener_url":null,"started_at":"2011-07-30T01:00:00.000+09:00","ended_at":"2011-07-30T09:00:00.000+09:00","limit_number":30,"address":"会津若松市一箕町鶴賀字上居合90","place":"会津大学UBIC","lat":37.5238,"lon":139.939,"state":"closed","id":null},{"event_id":"17557","title":"Hack For Japan (7/30) 東京会場 #hack4jp","url":"https://atnd.org/events/17557","shortener_url":null,"started_at":"2011-07-30T01:00:00.000+09:00","ended_at":"2011-07-30T09:00:00.000+09:00","limit_number":100,"address":"東京都品川区東品川4-13-9 楽天タワー2号館","place":"楽天タワー2号館","lat":35.6101,"lon":139.75,"state":"closed","id":null},{"event_id":"17485","title":"Hack For Japan ハッカソン 7/30 仙台会場 #hack4jp","url":"https://atnd.org/events/17485","shortener_url":null,"started_at":"2011-07-30T01:00:00.000+09:00","ended_at":"2011-07-30T09:00:00.000+09:00","limit_number":20,"address":"宮城県仙台市青葉区中央1丁目3−1","place":"AER 8F 会議室","lat":38.2626,"lon":140.881,"state":"closed","id":null},{"event_id":"18316","title":"GameSalad Hackathon#3","url":"https://atnd.org/events/18316","shortener_url":null,"started_at":"2011-07-29T10:00:00.000+09:00","ended_at":"2011-07-29T12:00:00.000+09:00","limit_number":40,"address":"東京都渋谷区道玄坂2-25-12","place":"デジタルハリウッド渋谷校","lat":35.6601,"lon":139.697,"state":"closed","id":null},{"event_id":"17933","title":"「Gifu・Android ネットワーク」第１2回勉強会","url":"https://atnd.org/events/17933","shortener_url":null,"started_at":"2011-07-28T10:00:00.000+09:00","ended_at":"2011-07-28T12:00:00.000+09:00","limit_number":32,"address":"大垣市加賀野4-1-7","place":"ソフトピアジャパン　センタービル１１F　研修室 ","lat":35.3676,"lon":136.639,"state":"closed","id":null},{"event_id":"18267","title":"第2回ラスチッカソン","url":"https://atnd.org/events/18267","shortener_url":null,"started_at":"2011-07-25T11:00:00.000+09:00","ended_at":"2011-07-25T14:00:00.000+09:00","limit_number":20,"address":"東京都渋谷区神宮前5-47-6","place":"ラスチカス","lat":35.6638,"lon":139.708,"state":"closed","id":null},{"event_id":"17131","title":"[taws vol.4]Titanium mobileで作るスマートフォンアプリ講座(iv)","url":"https://atnd.org/events/17131","shortener_url":null,"started_at":"2011-07-24T01:30:00.000+09:00","ended_at":"2011-07-24T09:00:00.000+09:00","limit_number":15,"address":"東京都新宿区新宿5-17-11","place":"白鳳ビル８F（フロンティア株式会社内）","lat":35.6917,"lon":139.709,"state":"closed","id":null},{"event_id":"17846","title":"Hack For Japan (7/24) 岩手会場＠遠野まごころネット #hack4jp","url":"https://atnd.org/events/17846","shortener_url":null,"started_at":"2011-07-24T00:00:00.000+09:00","ended_at":"2011-07-24T08:00:00.000+09:00","limit_number":25,"address":"岩手県遠野市松崎町白岩字薬研淵1-3","place":"遠野まごころネット ","lat":39.3434,"lon":141.537,"state":"closed","id":null},{"event_id":"17710","title":"Hack For Japan アイディアソン 7/23 仙台会場 懇親会 #hack4jp","url":"https://atnd.org/events/17710","shortener_url":null,"started_at":"2011-07-23T09:30:00.000+09:00","ended_at":"2011-07-23T11:30:00.000+09:00","limit_number":20,"address":"","place":"","lat":null,"lon":null,"state":"closed","id":null},{"event_id":"17845","title":"Hack For Japan (7/23) 岩手会場＠遠野まごころネット #hack4jp","url":"https://atnd.org/events/17845","shortener_url":null,"started_at":"2011-07-23T01:00:00.000+09:00","ended_at":"2011-07-23T10:00:00.000+09:00","limit_number":25,"address":"岩手県遠野市松崎町白岩字薬研淵1-3","place":"遠野まごころネット ","lat":39.3434,"lon":141.537,"state":"closed","id":null},{"event_id":"17727","title":"第１回 Android ハッカソン in 山梨","url":"https://atnd.org/events/17727","shortener_url":null,"started_at":"2011-07-23T01:00:00.000+09:00","ended_at":"2011-07-23T09:00:00.000+09:00","limit_number":30,"address":"山梨県甲府市武田4-3-11","place":"山梨大学工学部 A1号館3F実験室","lat":35.6776,"lon":138.574,"state":"closed","id":null},{"event_id":"17684","title":"Hack 4 Japan [ アイディアソン ] 会津若松会場","url":"https://atnd.org/events/17684","shortener_url":null,"started_at":"2011-07-23T01:00:00.000+09:00","ended_at":"2011-07-23T09:00:00.000+09:00","limit_number":30,"address":"福島県会津若松市一箕町鶴賀","place":"会津大学UBIC","lat":37.5208,"lon":139.938,"state":"closed","id":null},{"event_id":"17556","title":"Hack For Japan (7/23) 東京会場 #hack4jp","url":"https://atnd.org/events/17556","shortener_url":null,"started_at":"2011-07-23T01:00:00.000+09:00","ended_at":"2011-07-23T10:00:00.000+09:00","limit_number":100,"address":"東京都品川区東品川4-13-9 楽天タワー2号館","place":"楽天タワー2号館","lat":35.6101,"lon":139.75,"state":"closed","id":null},{"event_id":"17484","title":"Hack For Japan アイディアソン 7/23 仙台会場 #hack4jp","url":"https://atnd.org/events/17484","shortener_url":null,"started_at":"2011-07-23T01:00:00.000+09:00","ended_at":"2011-07-23T09:00:00.000+09:00","limit_number":22,"address":"宮城県仙台市青葉区中央1丁目3−1","place":"AER 8F 会議室","lat":38.2626,"lon":140.881,"state":"closed","id":null},{"event_id":"17260","title":"Androidアプリケーション、デザイナとプログラマのハッカソン","url":"https://atnd.org/events/17260","shortener_url":null,"started_at":"2011-07-23T01:00:00.000+09:00","ended_at":"2011-07-23T10:00:00.000+09:00","limit_number":20,"address":"東京都渋谷区宇田川町33番6号","place":"T's 渋谷フラッグ Room7H","lat":35.6608,"lon":139.697,"state":"closed","id":null},{"event_id":"17259","title":"Androidアプリケーション、デザイナとプログラマのハッカソン（未経験者歓迎！）","url":"https://atnd.org/events/17259","shortener_url":null,"started_at":"2011-07-23T01:00:00.000+09:00","ended_at":"2011-07-23T10:00:00.000+09:00","limit_number":10,"address":"東京都渋谷区宇田川町33番6号","place":"T's 渋谷フラッグ Room7H","lat":35.6608,"lon":139.697,"state":"closed","id":null},{"event_id":"18102","title":"GameSalad Hackathon#2","url":"https://atnd.org/events/18102","shortener_url":null,"started_at":"2011-07-22T10:00:00.000+09:00","ended_at":"2011-07-22T12:00:00.000+09:00","limit_number":40,"address":"東京都渋谷区道玄坂2-25-12","place":"デジタルハリウッド渋谷校","lat":35.6601,"lon":139.697,"state":"closed","id":null},{"event_id":"16561","title":"デカ盛りハッカソン2011","url":"https://atnd.org/events/16561","shortener_url":null,"started_at":"2011-07-15T09:00:00.000+09:00","ended_at":"2011-07-15T12:00:00.000+09:00","limit_number":20,"address":"","place":"東京２３区","lat":null,"lon":null,"state":"closed","id":null},{"event_id":"17376","title":"【横浜デ部】Android Hack-a-Party! #7 - もくもく＋中間発表","url":"https://atnd.org/events/17376","shortener_url":null,"started_at":"2011-07-10T04:00:00.000+09:00","ended_at":"2011-07-10T09:00:00.000+09:00","limit_number":36,"address":"神奈川県横浜市西区南幸2丁目20-3 東伸24ビル 5F","place":"株式会社アットウェア様　会議室（5F）","lat":35.4648,"lon":139.616,"state":"closed","id":null},{"event_id":"17363","title":"日本Andoroidの会　浜松支部　第三回定例会","url":"https://atnd.org/events/17363","shortener_url":null,"started_at":"2011-07-09T04:05:00.000+09:00","ended_at":"2011-07-09T07:50:00.000+09:00","limit_number":20,"address":"静岡県浜松市中区鍛冶町100-1 ザザシティ浜松中央館5階","place":"静岡県西部地域交流プラザパレット　ミーティングルーム　B ","lat":34.7056,"lon":137.731,"state":"closed","id":null},{"event_id":"15396","title":"【中止】IT勉強会の勉強会 in fukui","url":"https://atnd.org/events/15396","shortener_url":null,"started_at":"2011-07-08T10:00:00.000+09:00","ended_at":"2011-07-08T12:00:00.000+09:00","limit_number":20,"address":"【中止】福井県鯖江市新横江2-3-4","place":"【中止】めがね会館7F 株式会社jig.jp 会議室","lat":0.0,"lon":0.0,"state":"closed","id":null},{"event_id":"17181","title":"[taws vol.3]Titanium mobileで作るスマートフォンアプリ講座(iii)","url":"https://atnd.org/events/17181","shortener_url":null,"started_at":"2011-07-03T01:30:00.000+09:00","ended_at":"2011-07-03T09:00:00.000+09:00","limit_number":10,"address":"東京都新宿区新宿5-17-11","place":"白鳳ビル８F（フロンティア株式会社内）","lat":35.6917,"lon":139.709,"state":"closed","id":null},{"event_id":"17386","title":"きらきら系スマフォアプリハッカソンfeat.梅チョコ","url":"https://atnd.org/events/17386","shortener_url":null,"started_at":"2011-07-03T01:00:00.000+09:00","ended_at":"2011-07-05T23:59:59.000+09:00","limit_number":20,"address":"静岡大学浜松キャンパス","place":"J2706（静岡大学浜松キャンパス情報棟２号館７階）","lat":34.7249,"lon":137.718,"state":"closed","id":null},{"event_id":"17099","title":"twijam","url":"https://atnd.org/events/17099","shortener_url":null,"started_at":"2011-07-02T10:00:00.000+09:00","ended_at":"2011-07-04T23:59:59.000+09:00","limit_number":80,"address":"東京都国立市中1-9-19 カクトラビル1F","place":"SQUALL cafe　国立店","lat":35.6975,"lon":139.445,"state":"closed","id":null},{"event_id":"17157","title":"Smiley Hackathon#10","url":"https://atnd.org/events/17157","shortener_url":null,"started_at":"2011-07-02T04:00:00.000+09:00","ended_at":"2011-07-02T11:00:00.000+09:00","limit_number":18,"address":"東京都品川区西五反田1-21-8 KSS五反田ビル","place":"株式会社ガイアックス 五反田本社 6F セミナールーム ","lat":35.623,"lon":139.723,"state":"closed","id":null},{"event_id":"16560","title":"デコ電ハッカソン2011","url":"https://atnd.org/events/16560","shortener_url":null,"started_at":"2011-07-01T09:00:00.000+09:00","ended_at":"2011-07-01T12:00:00.000+09:00","limit_number":30,"address":"","place":"未定（東京23区内を予定）","lat":null,"lon":null,"state":"closed","id":null},{"event_id":"17766","title":"World Summer Camp","url":"https://atnd.org/events/17766","shortener_url":null,"started_at":"2011-07-31T09:00:00.000+09:00","ended_at":"2011-08-03T03:30:00.000+09:00","limit_number":null,"address":"","place":"中京大学など","lat":null,"lon":null,"state":"closed","id":null},{"event_id":"18032","title":"第1回『PHPで何か作ろうかい(会)』","url":"https://atnd.org/events/18032","shortener_url":null,"started_at":"2011-07-30T02:00:00.000+09:00","ended_at":"2011-07-30T10:00:00.000+09:00","limit_number":15,"address":"東京都港区新橋6-9-4 新橋6丁目ビル8F","place":"株式会社アイアンドシー・クルーズ","lat":35.6616,"lon":139.756,"state":"closed","id":null},{"event_id":"18041","title":"コンティニュアム練習会☆7月","url":"https://atnd.org/events/18041","shortener_url":null,"started_at":"2011-07-22T09:00:00.000+09:00","ended_at":"2011-07-22T12:00:00.000+09:00","limit_number":20,"address":"東京都世田谷区代田4-14-3","place":"代田地区会館","lat":35.6624,"lon":139.658,"state":"closed","id":null},{"event_id":"17216","title":"この夏、大人合宿に出かけよう","url":"https://atnd.org/events/17216","shortener_url":null,"started_at":"2011-07-09T08:00:00.000+09:00","ended_at":"2011-07-09T10:30:00.000+09:00","limit_number":25,"address":"千葉県松戸市本町7-9","place":"MAD City Gallary","lat":35.7847,"lon":139.898,"state":"closed","id":null}]