[{"event_id":"17058","title":"#47app 福井ご当地アプリ - アイデアソン","url":"https://atnd.org/events/17058","shortener_url":null,"started_at":"2011-06-24T19:00:00.000+09:00","ended_at":"2011-06-24T21:00:00.000+09:00","limit_number":10,"address":"福井県越前市塚町306","place":"某もやし社","lat":35.9141,"lon":136.192,"state":"closed","id":null},{"event_id":"16754","title":"mixi Hackathon in Kyoto (ここでは受け付けていません)","url":"https://atnd.org/events/16754","shortener_url":null,"started_at":"2011-06-24T18:30:00.000+09:00","ended_at":"2011-06-25T18:00:00.000+09:00","limit_number":1,"address":"京都市下京区中堂寺南町134","place":"京都リサーチパーク","lat":34.9947,"lon":135.74,"state":"closed","id":null},{"event_id":"12834","title":"鉄(美味しい名物)ハッカソン","url":"https://atnd.org/events/12834","shortener_url":null,"started_at":"2011-06-24T00:00:00.000+09:00","ended_at":"2011-06-26T08:59:59.000+09:00","limit_number":null,"address":"","place":"電車","lat":null,"lon":null,"state":"closed","id":null},{"event_id":"16731","title":"エキpy読書会 梅.py出張所？（仮）","url":"https://atnd.org/events/16731","shortener_url":null,"started_at":"2011-06-19T10:30:00.000+09:00","ended_at":"2011-06-19T15:30:00.000+09:00","limit_number":14,"address":"大阪市中央区北浜2-1-21 北浜ゲイトビル402","place":"株式会社アクセンス・テクノロジー 大阪オフィス","lat":34.6923,"lon":135.504,"state":"closed","id":null},{"event_id":"16130","title":"[taws vol.2]Titanium mobileで作るスマートフォンアプリ講座(ii)","url":"https://atnd.org/events/16130","shortener_url":null,"started_at":"2011-06-19T10:00:00.000+09:00","ended_at":"2011-06-26T19:00:00.000+09:00","limit_number":20,"address":"東京都新宿区新宿5-17-11","place":"白鳳ビル８F（フロンティア株式会社内）","lat":35.6917,"lon":139.709,"state":"closed","id":null},{"event_id":"16782","title":"日本Androidの会埼玉支部　第６回定例会","url":"https://atnd.org/events/16782","shortener_url":null,"started_at":"2011-06-18T18:30:00.000+09:00","ended_at":"2011-06-18T21:00:00.000+09:00","limit_number":60,"address":"埼玉県川口市川口3-1-1","place":"川口リリア  11F 大会議室","lat":35.8011,"lon":139.717,"state":"closed","id":null},{"event_id":"16810","title":"第16回 低レベル勉強会 ~ 普通のやつらの下を行け ~","url":"https://atnd.org/events/16810","shortener_url":null,"started_at":"2011-06-18T10:00:00.000+09:00","ended_at":"2011-06-18T18:00:00.000+09:00","limit_number":10,"address":"東京都港区芝4丁目5番10号","place":"株式会社筆まめ さん（会場には連絡は行わないでください。）","lat":35.6487,"lon":139.751,"state":"closed","id":null},{"event_id":"16930","title":"医療情報よろずオフ会 JAMISympo2011千葉","url":"https://atnd.org/events/16930","shortener_url":null,"started_at":"2011-06-17T20:00:00.000+09:00","ended_at":"2011-06-17T22:00:00.000+09:00","limit_number":100,"address":"千葉県千葉市美浜区ひび野2-4 プレナ幕張5F","place":"Irish Pub Always","lat":35.6497,"lon":140.044,"state":"closed","id":null},{"event_id":"16606","title":"【横浜デ部】Android Hack-a-Party! #6 - ハッカソン＆コンテスト","url":"https://atnd.org/events/16606","shortener_url":null,"started_at":"2011-06-12T13:00:00.000+09:00","ended_at":"2011-06-12T18:00:00.000+09:00","limit_number":36,"address":"神奈川県横浜市西区南幸2丁目20-5 東伸24ビル 5F","place":"株式会社 アットウェア様 ","lat":35.4648,"lon":139.616,"state":"closed","id":null},{"event_id":"16767","title":"高まるWWDC熱 2011","url":"https://atnd.org/events/16767","shortener_url":null,"started_at":"2011-06-11T10:00:00.000+09:00","ended_at":"2011-06-11T13:00:00.000+09:00","limit_number":20,"address":"San Francisco, CA","place":"@niwの自宅","lat":37.7749,"lon":-122.419,"state":"closed","id":null},{"event_id":"16298","title":"札幌×ネットを盛り上げるブレストの会","url":"https://atnd.org/events/16298","shortener_url":null,"started_at":"2011-06-10T18:00:00.000+09:00","ended_at":"2011-06-10T21:00:00.000+09:00","limit_number":23,"address":"札幌市中央区大通西10丁目ダンロップSKビル8F","place":"クリプトン•フューチャー•メディア株式会社","lat":43.0577,"lon":141.33,"state":"closed","id":null},{"event_id":"15437","title":"横浜Androidプラットフォーム部第9回勉強会","url":"https://atnd.org/events/15437","shortener_url":null,"started_at":"2011-06-05T14:00:00.000+09:00","ended_at":"2011-06-05T18:00:00.000+09:00","limit_number":36,"address":"神奈川県横浜市中区寿町1-4","place":"かながわ労働プラザ第１、２会議室","lat":35.44,"lon":139.641,"state":"closed","id":null},{"event_id":"15268","title":"唐揚げハッカソン 2011","url":"https://atnd.org/events/15268","shortener_url":null,"started_at":"2011-06-04T18:00:00.000+09:00","ended_at":"2011-06-04T21:00:00.000+09:00","limit_number":38,"address":"東京都品川区東大井5-18-1","place":"きゅりあん調理室","lat":35.6062,"lon":139.736,"state":"closed","id":null},{"event_id":"16047","title":"Yokohama.rb 第9回","url":"https://atnd.org/events/16047","shortener_url":null,"started_at":"2011-06-04T17:00:00.000+09:00","ended_at":"2011-06-04T21:00:00.000+09:00","limit_number":25,"address":"神奈川区神奈川本町8-1","place":"横浜市神奈川地区センター情報（和室）","lat":35.4747,"lon":139.633,"state":"closed","id":null},{"event_id":"15884","title":"みんなでピクニック☆","url":"https://atnd.org/events/15884","shortener_url":null,"started_at":"2011-06-04T12:00:00.000+09:00","ended_at":"2011-06-04T18:00:00.000+09:00","limit_number":100,"address":"東京都渋谷区代々木神園町2−1","place":"代々木公園","lat":35.6715,"lon":139.692,"state":"closed","id":null},{"event_id":"15233","title":"Windows Phone 7 Hackathon in Osaka","url":"https://atnd.org/events/15233","shortener_url":null,"started_at":"2011-06-01T00:00:00.000+09:00","ended_at":"2011-07-31T00:00:00.000+09:00","limit_number":null,"address":"","place":"","lat":null,"lon":null,"state":"closed","id":null},{"event_id":"16317","title":"IPU IS(旧船生）研究室 OB/OG合宿（仮）","url":"https://atnd.org/events/16317","shortener_url":null,"started_at":"2011-06-11T10:00:00.000+09:00","ended_at":"2011-06-12T17:00:00.000+09:00","limit_number":null,"address":"","place":"","lat":null,"lon":null,"state":"closed","id":null},{"event_id":"14362","title":"ツイバド部チャリティー合宿","url":"https://atnd.org/events/14362","shortener_url":null,"started_at":"2011-06-04T13:00:00.000+09:00","ended_at":"2011-06-05T12:00:00.000+09:00","limit_number":40,"address":"静岡県伊東市大原2丁目2−6","place":"伊東市立東小学校体育館 6面~8面","lat":34.9645,"lon":139.102,"state":"closed","id":null}]