[{"event_id":"15119","title":"日本Androidの会 中国支部 第２０回勉強会","url":"https://atnd.org/events/15119","shortener_url":null,"started_at":"2011-04-29T13:00:00.000+09:00","ended_at":"2011-04-29T17:30:00.000+09:00","limit_number":40,"address":"広島県広島市中区大手町2-8-4","place":"広島国際学院大学　袋町キャンバス","lat":34.3912,"lon":132.456,"state":"closed","id":null},{"event_id":"15062","title":"RelaxCafe@CouchDB","url":"https://atnd.org/events/15062","shortener_url":null,"started_at":"2011-04-29T11:00:00.000+09:00","ended_at":"2011-04-29T16:00:00.000+09:00","limit_number":10,"address":"東京都千代田区神田錦町3‐21","place":"千代田プラットフォームスクエア ミーティングルーム003","lat":35.6914,"lon":139.762,"state":"closed","id":null},{"event_id":"15175","title":"Unity Game Jam in GW","url":"https://atnd.org/events/15175","shortener_url":null,"started_at":"2011-04-29T10:00:00.000+09:00","ended_at":"2011-05-01T10:00:00.000+09:00","limit_number":6,"address":"東京都内(詳細未定)","place":"未定","lat":0.0,"lon":0.0,"state":"closed","id":null},{"event_id":"15131","title":"opthon #1","url":"https://atnd.org/events/15131","shortener_url":null,"started_at":"2011-04-29T09:30:00.000+09:00","ended_at":"2011-04-29T19:30:00.000+09:00","limit_number":10,"address":"東京都新宿区新宿1-6-8 新宿鈴木ビルA館7F","place":"株式会社手嶋屋","lat":35.6885,"lon":139.71,"state":"closed","id":null},{"event_id":"15010","title":"日本Androidの会福祉部　第二回会合","url":"https://atnd.org/events/15010","shortener_url":null,"started_at":"2011-04-24T13:00:00.000+09:00","ended_at":"2011-04-24T17:00:00.000+09:00","limit_number":20,"address":"東京都墨田区石原2-12-3","place":"シャープ株式会社　江東ビル","lat":35.7002,"lon":139.801,"state":"closed","id":null},{"event_id":"14615","title":"BaLiJAM β 0.5 in 足羽河原","url":"https://atnd.org/events/14615","shortener_url":null,"started_at":"2011-04-17T11:00:00.000+09:00","ended_at":"2011-04-17T17:00:00.000+09:00","limit_number":100,"address":"","place":"足羽河原","lat":null,"lon":null,"state":"closed","id":null},{"event_id":"13781","title":"MTDDC Meetup Nagoya(MovableType5のカスタマイズ勉強会)","url":"https://atnd.org/events/13781","shortener_url":null,"started_at":"2011-04-16T13:30:00.000+09:00","ended_at":"2011-04-16T18:00:00.000+09:00","limit_number":20,"address":"愛知県名古屋市東区葵3丁目22-8 ニューザックビル6F","place":"ニューキャスト","lat":35.1698,"lon":136.928,"state":"closed","id":null},{"event_id":"14881","title":"ハッカソン for 災害ボランティア @ 横浜","url":"https://atnd.org/events/14881","shortener_url":null,"started_at":"2011-04-16T11:00:00.000+09:00","ended_at":"2011-04-16T18:00:00.000+09:00","limit_number":10,"address":"〒221-0835 神奈川県横浜市神奈川区鶴屋町2-24-2","place":"かながわ東日本大震災ボランティアステーション","lat":35.4685,"lon":139.621,"state":"closed","id":null},{"event_id":"14521","title":"ギークハウス水道橋.location = new Location(花のある場所)","url":"https://atnd.org/events/14521","shortener_url":null,"started_at":"2011-04-15T13:00:00.000+09:00","ended_at":"2011-04-18T08:59:59.000+09:00","limit_number":100,"address":"","place":"川越の近く","lat":null,"lon":null,"state":"closed","id":null},{"event_id":"13930","title":"Asia Startup Summit Vol.1 in Seoul","url":"https://atnd.org/events/13930","shortener_url":null,"started_at":"2011-04-06T19:00:00.000+09:00","ended_at":"2011-04-06T21:00:00.000+09:00","limit_number":10,"address":"Seoul Gangnam-gu Yeoksam 1(il)-dong 819-10","place":"Spaceplus ＠韓国ソウル ※日本から行く人はご案内します。","lat":37.4989,"lon":127.028,"state":"closed","id":null},{"event_id":"14538","title":"きまぐれハッカソン基金訓練一日目","url":"https://atnd.org/events/14538","shortener_url":null,"started_at":"2011-04-06T17:30:00.000+09:00","ended_at":"2011-04-09T08:59:59.000+09:00","limit_number":null,"address":"東京都中央区日本橋室町2-1-1 日本橋三井タワー2F","place":"WIRED CAFE NEWS 日本橋三井タワー店","lat":0.0,"lon":0.0,"state":"closed","id":null},{"event_id":"14106","title":"4月3日（日）　一二三　Live @ nico-simply  長野県中野市","url":"https://atnd.org/events/14106","shortener_url":null,"started_at":"2011-04-03T19:00:00.000+09:00","ended_at":"2011-04-06T08:59:59.000+09:00","limit_number":null,"address":"長野県中野市吉田900-1","place":"nico-simply","lat":36.7548,"lon":138.358,"state":"closed","id":null},{"event_id":"13874","title":"第3回MessagePackハッカソン（春）","url":"https://atnd.org/events/13874","shortener_url":null,"started_at":"2011-04-03T14:00:00.000+09:00","ended_at":"2011-04-03T17:00:00.000+09:00","limit_number":20,"address":"東京都文京区本郷 2-40-1 本郷東急ビル 4F","place":"株式会社 プリファードインフラストラクチャー","lat":35.7069,"lon":139.76,"state":"closed","id":null},{"event_id":"13903","title":"Piece Network 8","url":"https://atnd.org/events/13903","shortener_url":null,"started_at":"2011-04-02T21:00:00.000+09:00","ended_at":"2011-04-03T12:00:00.000+09:00","limit_number":10,"address":"","place":"iteman自宅","lat":null,"lon":null,"state":"closed","id":null},{"event_id":"14283","title":"第0回 node.jsハッカソン","url":"https://atnd.org/events/14283","shortener_url":null,"started_at":"2011-04-02T14:30:00.000+09:00","ended_at":"2011-04-02T19:30:00.000+09:00","limit_number":16,"address":"神奈川県横浜市港北区日吉3-14-1","place":"慶応義塾大学矢上キャンパス 24-618号室","lat":35.5558,"lon":139.654,"state":"closed","id":null},{"event_id":"13859","title":"第二回ken_b4uの家ハッカソン","url":"https://atnd.org/events/13859","shortener_url":null,"started_at":"2011-04-02T10:00:00.000+09:00","ended_at":"2011-04-05T08:59:59.000+09:00","limit_number":6,"address":"東京都足立区江北5-2-1 メゾン・ド・フルリール303","place":"俺んち","lat":35.7762,"lon":139.77,"state":"closed","id":null},{"event_id":"14799","title":"4/24 4/29 5/28インカレサークル　新歓・ダンス・テニスインカレサークル合同イベント  LOVE　CAMPUS　2011　produced by pixi","url":"https://atnd.org/events/14799","shortener_url":null,"started_at":"2011-04-24T14:00:00.000+09:00","ended_at":"2011-05-28T18:00:00.000+09:00","limit_number":null,"address":"","place":"","lat":null,"lon":null,"state":"closed","id":null},{"event_id":"14022","title":"a-blog cms Training Camp 2011 Spring","url":"https://atnd.org/events/14022","shortener_url":null,"started_at":"2011-04-21T13:00:00.000+09:00","ended_at":"2011-04-22T12:00:00.000+09:00","limit_number":28,"address":"愛知県知多郡南知多町大字師崎字高岩57","place":"師崎荘","lat":34.7012,"lon":136.967,"state":"closed","id":null},{"event_id":"13038","title":"春の漫喫合宿","url":"https://atnd.org/events/13038","shortener_url":null,"started_at":"2011-04-09T13:00:00.000+09:00","ended_at":"2011-04-09T22:00:00.000+09:00","limit_number":12,"address":"東京都新宿区歌舞伎町2-44-1","place":"新宿アプレシオ→新大久保 梁の家 （韓国料理）","lat":35.6969,"lon":139.701,"state":"closed","id":null}]