[{"event_id":"50","title":"ルノアールで誰となくハッカソン","url":"https://connpass.com/event/50/","shortener_url":null,"started_at":"2011-10-28T23:00:41.000+09:00","ended_at":"2011-10-29T05:00:41.000+09:00","limit_number":10,"address":"いろんなルノアールで各々勝手にハッカソン","place":"ルノアール","lat":null,"lon":null,"state":"active","id":null},{"event_id":"19711","title":"Q\u0026A形式で学ぶソフト開発プロジェクトにおけるアジャイル開発の入門講座","url":"https://atnd.org/events/19711","shortener_url":null,"started_at":"2011-10-31T13:30:00.000+09:00","ended_at":"2011-10-31T16:30:00.000+09:00","limit_number":30,"address":"川崎市川崎区富士見2-1-3","place":"川崎市教育文化会館 第2学習室【神奈川・川崎】","lat":35.5288,"lon":139.708,"state":"closed","id":null},{"event_id":"20519","title":"第3回 RightScale Hackathon","url":"https://atnd.org/events/20519","shortener_url":null,"started_at":"2011-10-29T13:00:00.000+09:00","ended_at":"2011-10-29T17:00:00.000+09:00","limit_number":25,"address":"東京都千代田区大手町2-6-4","place":"パソナグループ本部ビル(呉服町)","lat":35.6841,"lon":139.771,"state":"closed","id":null},{"event_id":"21176","title":"#MUP48【MUP48×広瀬香美さん×Tech総研】IT女子会イベント（女性限定）","url":"https://atnd.org/events/21176","shortener_url":null,"started_at":"2011-10-27T19:00:00.000+09:00","ended_at":"2011-10-27T21:30:00.000+09:00","limit_number":80,"address":"東京都中央区銀座7-2-6 リクルートアネックス1ビル B1F","place":"リクルート メディアテクノロジーラボ（MTL）Cafe","lat":35.6707,"lon":139.769,"state":"closed","id":null},{"event_id":"21269","title":"第一回HIT-TIN勉強会","url":"https://atnd.org/events/21269","shortener_url":null,"started_at":"2011-10-24T17:00:00.000+09:00","ended_at":"2011-10-27T08:59:59.000+09:00","limit_number":5,"address":"","place":"うちの研究室","lat":null,"lon":null,"state":"closed","id":null},{"event_id":"20353","title":"#MA7 Mashup Caravan \u0026 Meetup in 札幌","url":"https://atnd.org/events/20353","shortener_url":null,"started_at":"2011-10-22T13:30:00.000+09:00","ended_at":"2011-10-22T17:00:00.000+09:00","limit_number":30,"address":"札幌市西区宮の沢1条1丁目1-10","place":"ちえりあ【札幌市生涯学習センター】","lat":43.0883,"lon":141.274,"state":"closed","id":null},{"event_id":"20902","title":"GameSalad meetup #8","url":"https://atnd.org/events/20902","shortener_url":null,"started_at":"2011-10-21T19:00:00.000+09:00","ended_at":"2011-10-21T21:00:00.000+09:00","limit_number":40,"address":"渋谷区道玄坂2-25-12 道玄坂カブトビル","place":"デジハリ渋谷校","lat":35.6601,"lon":139.697,"state":"closed","id":null},{"event_id":"20623","title":"#MA7 Mashup Meetup in Nagoya(非公式)","url":"https://atnd.org/events/20623","shortener_url":null,"started_at":"2011-10-17T18:30:00.000+09:00","ended_at":"2011-10-17T22:30:00.000+09:00","limit_number":50,"address":"愛知県名古屋市中区栄3-6-1 栄三丁目ビルディング(ラシック)11階","place":"株式会社リクルートエージェント 名古屋支社11階 セミナールーム","lat":35.1675,"lon":136.908,"state":"closed","id":null},{"event_id":"20376","title":"日本Androidの会 沖縄支部 workshop@Naha Vol.12","url":"https://atnd.org/events/20376","shortener_url":null,"started_at":"2011-10-15T13:00:00.000+09:00","ended_at":"2011-10-15T17:00:00.000+09:00","limit_number":40,"address":"沖縄県那覇市樋川 1-1-77","place":"専門学校 IT カレッジ沖縄 ","lat":26.2108,"lon":127.686,"state":"closed","id":null},{"event_id":"20314","title":"#MA7 Mashup Camp in Tokyo Vol.2","url":"https://atnd.org/events/20314","shortener_url":null,"started_at":"2011-10-15T10:00:00.000+09:00","ended_at":"2011-10-15T18:00:00.000+09:00","limit_number":40,"address":"東京都中央区銀座7-2-6 リクルートアネックス1ビル B1F","place":"リクルート メディアテクノロジーラボ（MTL）Cafe","lat":35.6709,"lon":139.761,"state":"closed","id":null},{"event_id":"20738","title":"Hack For Iwate 2","url":"https://atnd.org/events/20738","shortener_url":null,"started_at":"2011-10-15T09:30:00.000+09:00","ended_at":"2011-10-16T16:00:00.000+09:00","limit_number":25,"address":"岩手県遠野市松崎町白岩字薬研淵1-3","place":"遠野まごころネット","lat":39.3434,"lon":141.537,"state":"closed","id":null},{"event_id":"20860","title":"福島ガイガーカウンター勉強会 高電圧回路ハッカソン","url":"https://atnd.org/events/20860","shortener_url":null,"started_at":"2011-10-12T21:00:00.000+09:00","ended_at":"2011-10-13T23:30:00.000+09:00","limit_number":5,"address":"徳島県徳島市城東4-2-5-206","place":"オープンフォース秘密基地","lat":34.0743,"lon":134.578,"state":"closed","id":null},{"event_id":"20311","title":"#MA7 Mashup Meetup in Tokyo Vol.2","url":"https://atnd.org/events/20311","shortener_url":null,"started_at":"2011-10-12T18:30:00.000+09:00","ended_at":"2011-10-12T21:30:00.000+09:00","limit_number":40,"address":"東京都中央区銀座7-2-6 リクルートアネックス1ビル B1F","place":"リクルート メディアテクノロジーラボ（MTL）Cafe","lat":35.6709,"lon":139.761,"state":"closed","id":null},{"event_id":"20207","title":"#MA7 Mashup Caravan \u0026 Meetup in Fukuoka","url":"https://atnd.org/events/20207","shortener_url":null,"started_at":"2011-10-09T13:00:00.000+09:00","ended_at":"2011-10-09T17:00:00.000+09:00","limit_number":30,"address":"福岡県福岡市博多区中洲5丁目5-13","place":"KDC福岡ビル7F","lat":33.5943,"lon":130.404,"state":"closed","id":null},{"event_id":"20481","title":"日本Andoroidの会　浜松支部　第六回ミーティング #jaghama","url":"https://atnd.org/events/20481","shortener_url":null,"started_at":"2011-10-08T09:30:00.000+09:00","ended_at":"2011-10-08T17:00:00.000+09:00","limit_number":20,"address":"静岡県浜松市中区鍛冶町100-1 ザザシティ浜松中央館5階","place":"静岡県西部地域交流プラザパレット　ミーティングルーム　A","lat":34.7056,"lon":137.731,"state":"closed","id":null},{"event_id":"20090","title":"SocialGameJam","url":"https://atnd.org/events/20090","shortener_url":null,"started_at":"2011-10-08T09:30:00.000+09:00","ended_at":"2011-10-09T21:00:00.000+09:00","limit_number":20,"address":"東京都文京区本郷7-3-1 東京大学アントレプレナープラザ","place":"東京大学アントレプレナープラザ","lat":35.7127,"lon":139.763,"state":"closed","id":null},{"event_id":"19923","title":"参加者募集「相乗りで朝霧ジャムへ行かないか。2011」","url":"https://atnd.org/events/19923","shortener_url":null,"started_at":"2011-10-08T07:30:00.000+09:00","ended_at":"2011-10-09T23:30:00.000+09:00","limit_number":13,"address":"","place":"静岡県 富士宮市 朝霧アリーナ ","lat":null,"lon":null,"state":"closed","id":null},{"event_id":"20192","title":"【定員増員！】#MA7 Mashup Caravan in Tokyo Vol.3","url":"https://atnd.org/events/20192","shortener_url":null,"started_at":"2011-10-05T19:00:00.000+09:00","ended_at":"2011-10-05T20:40:00.000+09:00","limit_number":80,"address":"東京都中央区銀座7-2-6 リクルートアネックス1ビル B1F","place":"リクルート メディアテクノロジーラボ（MTL）Cafe","lat":35.6709,"lon":139.761,"state":"closed","id":null},{"event_id":"19117","title":"若手IT勉強会#30(Clousure library勉強会＆ハッカソン2)","url":"https://atnd.org/events/19117","shortener_url":null,"started_at":"2011-10-02T14:00:00.000+09:00","ended_at":"2011-10-02T19:00:00.000+09:00","limit_number":20,"address":"東京都目黒区目黒1-6-17 目黒プレイスタワー5","place":"株式会社Skeed","lat":0.0,"lon":0.0,"state":"closed","id":null},{"event_id":"19458","title":"Aizu.js v0.0.1","url":"https://atnd.org/events/19458","shortener_url":null,"started_at":"2011-10-02T13:00:00.000+09:00","ended_at":"2011-10-02T18:00:00.000+09:00","limit_number":20,"address":"会津大学","place":"会津大学 S12(研究棟3階)","lat":37.5238,"lon":139.939,"state":"closed","id":null},{"event_id":"20492","title":"a-blog cms 北九州勉強会＜AKB∞（仮）＞","url":"https://atnd.org/events/20492","shortener_url":null,"started_at":"2011-10-21T19:00:00.000+09:00","ended_at":"2011-10-21T22:00:00.000+09:00","limit_number":20,"address":"福岡県北九州市小倉北区馬借1-3-9クエスト第二ビル5F・6F","place":"TKP小倉シティセンター","lat":33.8811,"lon":130.879,"state":"closed","id":null},{"event_id":"18971","title":"河口湖アニソンカラオケ温泉ツアー2011 #ytour","url":"https://atnd.org/events/18971","shortener_url":null,"started_at":"2011-10-08T12:00:00.000+09:00","ended_at":"2011-10-10T18:00:00.000+09:00","limit_number":15,"address":"山梨県南都留郡富士河口湖町河口2092","place":"河口湖カントリーコテージBan","lat":35.5316,"lon":138.764,"state":"closed","id":null},{"event_id":"20258","title":"DTプログラミングキャンプ @太平洋","url":"https://atnd.org/events/20258","shortener_url":null,"started_at":"2011-10-07T18:45:00.000+09:00","ended_at":"2011-10-08T14:00:00.000+09:00","limit_number":null,"address":"太平洋(日本国領海内)","place":"商船三井フェリー さんふらわあ","lat":0.0,"lon":0.0,"state":"closed","id":null}]