[{"event_id":"12004","title":"第一回ken_b4uの家ハッカソン","url":"https://atnd.org/events/12004","shortener_url":null,"started_at":"2011-01-23T01:00:00.000+09:00","ended_at":"2011-01-25T23:59:59.000+09:00","limit_number":5,"address":"足立区江北5-2-1 メゾン・ド・フルリール303","place":"http://maps.google.co.jp/maps?hl=ja\u0026q=%E8%B6%B3%E7%AB%8B%E5%8C%BA%E6%B1%9F%E5%8C%975-2-1%20%E3%83%A1%E3%82%BE%E3%83%B3%E3%83%BB%E3%83%89%E3%83%BB%E3%83%95%E3%83%AB%E3%83%BC%E3%83%AB303\u0026um=1\u0026ie=UTF-8\u0026sa=N\u0026tab=wl","lat":35.7762,"lon":139.77,"state":"closed","id":null},{"event_id":"12176","title":"おめ大 アニthon","url":"https://atnd.org/events/12176","shortener_url":null,"started_at":"2011-01-22T04:00:00.000+09:00","ended_at":"2011-01-23T10:00:00.000+09:00","limit_number":10,"address":"静岡大学浜松キャンパス","place":"佐藤研究室付近","lat":34.7249,"lon":137.718,"state":"closed","id":null},{"event_id":"11233","title":"誰でもARアプリが作れる、ウキウキViewハッカソン！","url":"https://atnd.org/events/11233","shortener_url":null,"started_at":"2011-01-22T01:00:00.000+09:00","ended_at":"2011-01-22T09:00:00.000+09:00","limit_number":10,"address":"大阪府大阪市北区西天満2-6-8 堂島ビルヂング4F","place":"堂島ビルヂング","lat":34.6956,"lon":135.502,"state":"closed","id":null},{"event_id":"10470","title":"Social \u0026 Smartphone app school第１期生募集【先着20名】  ","url":"https://atnd.org/events/10470","shortener_url":null,"started_at":"2011-01-17T10:30:00.000+09:00","ended_at":"2011-01-19T23:59:59.000+09:00","limit_number":20,"address":"","place":"都内調整中 　※詳細決まり次第ご連絡いたします","lat":null,"lon":null,"state":"closed","id":null},{"event_id":"11464","title":"横浜Androidプラットフォーム部第5回勉強会","url":"https://atnd.org/events/11464","shortener_url":null,"started_at":"2011-01-16T05:00:00.000+09:00","ended_at":"2011-01-16T08:00:00.000+09:00","limit_number":30,"address":"神奈川県横浜市中区寿町1-4","place":"かながわ労働プラザ第7会議室","lat":35.44,"lon":139.641,"state":"closed","id":null},{"event_id":"10869","title":"第2回 Symfony2勉強会 (1/15)","url":"https://atnd.org/events/10869","shortener_url":null,"started_at":"2011-01-15T05:00:00.000+09:00","ended_at":"2011-01-15T09:00:00.000+09:00","limit_number":48,"address":"東京都渋谷区桜丘町22-14 N.E.S.ビル2F","place":"ジンガジャパン株式会社 会議室","lat":35.6546,"lon":139.7,"state":"closed","id":null},{"event_id":"11747","title":"Andronjo♪Night Vol.3","url":"https://atnd.org/events/11747","shortener_url":null,"started_at":"2011-01-15T04:00:00.000+09:00","ended_at":"2011-01-15T08:00:00.000+09:00","limit_number":10,"address":"福岡市中央区大名1-14-28","place":"AIPCafe(第1松村ビル302号室) ","lat":33.5876,"lon":130.396,"state":"closed","id":null},{"event_id":"10977","title":"Tokyo.clj#8","url":"https://atnd.org/events/10977","shortener_url":null,"started_at":"2011-01-15T01:30:00.000+09:00","ended_at":"2011-01-17T23:59:59.000+09:00","limit_number":18,"address":"新宿区坂町26-27","place":"株式会社タイムインターメディア大会議室","lat":35.6912,"lon":139.727,"state":"closed","id":null},{"event_id":"11697","title":"Android Hackaton vol.4 In Fukuoka","url":"https://atnd.org/events/11697","shortener_url":null,"started_at":"2011-01-15T01:00:00.000+09:00","ended_at":"2011-01-15T13:00:00.000+09:00","limit_number":10,"address":"福岡市中央区大名1-14-28","place":"AIPCafe(第1松村ビル302号室)","lat":33.5876,"lon":130.396,"state":"closed","id":null},{"event_id":"10239","title":"第５回勉強会＠岡山","url":"https://atnd.org/events/10239","shortener_url":null,"started_at":"2011-01-07T09:00:00.000+09:00","ended_at":"2011-01-08T08:00:00.000+09:00","limit_number":30,"address":"岡山県岡山市北区丸の内2-6-30","place":"岡山県立図書館　サークル活動室2","lat":34.6626,"lon":133.935,"state":"closed","id":null},{"event_id":"12192","title":"【ソーシャルゲームについて：㈱ドリコム】デジタルネイティブナイトvol.9～次世代は創るのはデジタルネイティブ世代！～","url":"https://atnd.org/events/12192","shortener_url":null,"started_at":"2011-01-29T11:00:00.000+09:00","ended_at":"2011-01-29T13:00:00.000+09:00","limit_number":40,"address":"渋谷区神泉町8-16","place":"ajito 渋谷区神泉町8-16 渋谷ファーストプレイス8F","lat":35.6553,"lon":139.694,"state":"closed","id":null},{"event_id":"11024","title":"日本Androidの会 四国支部 第７回勉強会 in えひめ","url":"https://atnd.org/events/11024","shortener_url":null,"started_at":"2011-01-22T12:00:00.000+09:00","ended_at":"2011-01-23T02:00:00.000+09:00","limit_number":15,"address":"松山市下難波1377-2","place":"コスタ北条","lat":33.9892,"lon":132.775,"state":"closed","id":null},{"event_id":"11367","title":"東京カーネルパニック新年会＜はたらく＞","url":"https://atnd.org/events/11367","shortener_url":null,"started_at":"2011-01-15T07:00:00.000+09:00","ended_at":"2011-01-15T14:55:00.000+09:00","limit_number":30,"address":"東京都港区虎ノ門4-1-11","place":"東京カーネルパニック　http://tokyokernelpanic.com","lat":35.6646,"lon":139.745,"state":"closed","id":null},{"event_id":"11532","title":"神保町不健康倶楽部・冬季強化合宿2","url":"https://atnd.org/events/11532","shortener_url":null,"started_at":"2011-01-08T15:00:00.000+09:00","ended_at":"2011-01-10T23:59:59.000+09:00","limit_number":null,"address":"","place":"","lat":null,"lon":null,"state":"closed","id":null},{"event_id":"10724","title":"kanazawa.js v0.0.2 勉強会","url":"https://atnd.org/events/10724","shortener_url":null,"started_at":"2011-01-08T01:00:00.000+09:00","ended_at":"2011-01-08T08:00:00.000+09:00","limit_number":24,"address":"石川県金沢市武蔵町14番31号","place":"ITビジネスプラザ武蔵 5F 研修室3","lat":36.5713,"lon":136.655,"state":"closed","id":null}]