[{"event_id":"12957","title":"日本Androidの会 群馬支部 第8回ミーティング\u0026勉強会|アイディアソン","url":"https://atnd.org/events/12957","shortener_url":null,"started_at":"2011-03-19T13:00:00.000+09:00","ended_at":"2011-03-19T18:00:00.000+09:00","limit_number":10,"address":"高崎市下之城町936-14","place":"高崎市産業創造館","lat":36.3053,"lon":139.033,"state":"closed","id":null},{"event_id":"13826","title":"Sphinx + 翻訳 Hack-a-thon 2011.03","url":"https://atnd.org/events/13826","shortener_url":null,"started_at":"2011-03-19T11:00:00.000+09:00","ended_at":"2011-03-19T19:00:00.000+09:00","limit_number":null,"address":"http://lingr.com/signup?letmein=sphinxjp","place":"Lingr","lat":0.0,"lon":0.0,"state":"closed","id":null},{"event_id":"13906","title":"日本Androidの会　東北\u0026関西支部　チャリティーハッカソン　","url":"https://atnd.org/events/13906","shortener_url":null,"started_at":"2011-03-19T10:30:00.000+09:00","ended_at":"2011-03-19T19:30:00.000+09:00","limit_number":20,"address":"大阪府大阪市北区梅田2-1-18","place":"ユーズツウ","lat":34.6994,"lon":135.495,"state":"closed","id":null},{"event_id":"13941","title":"第3回 浜松ハッカソン: 2011.03.19(土)","url":"https://atnd.org/events/13941","shortener_url":null,"started_at":"2011-03-19T10:00:00.000+09:00","ended_at":"2011-03-19T18:00:00.000+09:00","limit_number":25,"address":"静岡県浜松市中区和地山3-1-7","place":"静岡県浜松市インキュベーション施設 HI-Cube(ハイキューブ)2階会議室","lat":34.7277,"lon":137.715,"state":"closed","id":null},{"event_id":"13907","title":"日本Androidの会 東北\u0026関西支部　チャリティーアイディアソン","url":"https://atnd.org/events/13907","shortener_url":null,"started_at":"2011-03-18T19:00:00.000+09:00","ended_at":"2011-03-18T21:30:00.000+09:00","limit_number":30,"address":"大阪府大阪市北区梅田2-1-18","place":"ユーズツウ","lat":34.6994,"lon":135.495,"state":"closed","id":null},{"event_id":"13505","title":"筑波大学 ベンチャービジネスラボラトリー","url":"https://atnd.org/events/13505","shortener_url":null,"started_at":"2011-03-08T11:00:00.000+09:00","ended_at":"2011-03-09T15:00:00.000+09:00","limit_number":80,"address":"筑波大学","place":"生物農林学系G棟（旧バイシス棟）G501 ","lat":36.1114,"lon":140.104,"state":"closed","id":null},{"event_id":"13332","title":"第0回 RightScale Server Template hackathon","url":"https://atnd.org/events/13332","shortener_url":null,"started_at":"2011-03-06T11:00:00.000+09:00","ended_at":"2011-03-06T17:00:00.000+09:00","limit_number":25,"address":"神奈川県横浜市西区南幸2-20-5","place":"株式会社 アットウェア 会議室","lat":35.4648,"lon":139.616,"state":"closed","id":null},{"event_id":"13188","title":"東京カーネルパニックパーティー【ディスコミュニケーション・ナイト】","url":"https://atnd.org/events/13188","shortener_url":null,"started_at":"2011-03-05T17:00:00.000+09:00","ended_at":"2011-03-08T08:59:59.000+09:00","limit_number":50,"address":"東京都港区虎ノ門4-1-11","place":"東京カーネルパニック","lat":35.6646,"lon":139.745,"state":"closed","id":null},{"event_id":"13600","title":"突発大将オフ！ at LOCAL Students","url":"https://atnd.org/events/13600","shortener_url":null,"started_at":"2011-03-05T12:00:00.000+09:00","ended_at":"2011-03-05T14:00:00.000+09:00","limit_number":10,"address":"札幌市北区北18条西5丁目","place":"ラーメン大将","lat":43.0819,"lon":141.344,"state":"closed","id":null},{"event_id":"11762","title":"LOCAL学生部 春合宿プレ募集","url":"https://atnd.org/events/11762","shortener_url":null,"started_at":"2011-03-05T12:00:00.000+09:00","ended_at":"2011-03-06T12:00:00.000+09:00","limit_number":null,"address":"北海道札幌市豊平区豊平6条6丁目5-35","place":"札幌国際ハウスYH","lat":43.0476,"lon":141.37,"state":"closed","id":null},{"event_id":"13596","title":"第9回 つ部 ミーティング with Corona SDK 2011.3.26","url":"https://atnd.org/events/13596","shortener_url":null,"started_at":"2011-03-26T13:00:00.000+09:00","ended_at":"2011-03-26T18:00:00.000+09:00","limit_number":50,"address":"名古屋市西区牛島町6番1号 名古屋ルーセントタワー32F","place":"株式会社エイチーム","lat":35.1749,"lon":136.881,"state":"closed","id":null},{"event_id":"13254","title":"Android温泉 in 別府","url":"https://atnd.org/events/13254","shortener_url":null,"started_at":"2011-03-20T13:00:00.000+09:00","ended_at":"2011-03-21T13:00:00.000+09:00","limit_number":10,"address":"大分県別府市御幸3組","place":"瑞光寺大谷会館","lat":33.3145,"lon":131.475,"state":"closed","id":null},{"event_id":"12994","title":"Android温泉 in 別府（仮受付）","url":"https://atnd.org/events/12994","shortener_url":null,"started_at":"2011-03-20T13:00:00.000+09:00","ended_at":"2011-03-21T13:00:00.000+09:00","limit_number":null,"address":"","place":"大分県の別府のどこか","lat":null,"lon":null,"state":"closed","id":null},{"event_id":"12521","title":"kanazawa.js v1.0.1 勉強会","url":"https://atnd.org/events/12521","shortener_url":null,"started_at":"2011-03-06T10:00:00.000+09:00","ended_at":"2011-03-06T18:00:00.000+09:00","limit_number":24,"address":"石川県金沢市武蔵町14番31号","place":"ITビジネスプラザ武蔵 5F 研修室3","lat":36.5713,"lon":136.655,"state":"closed","id":null}]