[{"event_id":"12761","title":"クラウド \u0026 GAE Hackathon 事前事前勉強会","url":"https://atnd.org/events/12761","shortener_url":null,"started_at":"2011-02-23T10:30:00.000+09:00","ended_at":"2011-02-23T12:30:00.000+09:00","limit_number":8,"address":"福井県福井市中央1-21-40","place":"BaseLine","lat":36.0605,"lon":136.22,"state":"closed","id":null},{"event_id":"11769","title":"Hokkaido.pm#4","url":"https://atnd.org/events/11769","shortener_url":null,"started_at":"2011-02-19T04:30:00.000+09:00","ended_at":"2011-02-19T07:30:00.000+09:00","limit_number":33,"address":"北海道札幌市東札幌5条1丁目1-1","place":"札幌産業振興センター ルームＣ","lat":43.0562,"lon":141.386,"state":"closed","id":null},{"event_id":"12918","title":"PaKTeacher～ゲイ学生が教えるケーキ教室","url":"https://atnd.org/events/12918","shortener_url":null,"started_at":"2011-02-19T02:00:00.000+09:00","ended_at":"2011-02-19T08:00:00.000+09:00","limit_number":14,"address":"〒603-8165 京都市北区紫野西御所田町56番地 北区総合庁舎西庁舎内","place":"北青少年活動センター　（地下鉄北大路駅徒歩10分）","lat":35.041,"lon":135.753,"state":"closed","id":null},{"event_id":"12002","title":"Tokyo.clj#9","url":"https://atnd.org/events/12002","shortener_url":null,"started_at":"2011-02-19T01:30:00.000+09:00","ended_at":"2011-02-19T10:00:00.000+09:00","limit_number":18,"address":"新宿区坂町26-27","place":"株式会社タイムインターメディア大会議室","lat":35.6912,"lon":139.727,"state":"closed","id":null},{"event_id":"12607","title":"日本コロナの会 キックオフMeetup","url":"https://atnd.org/events/12607","shortener_url":null,"started_at":"2011-02-17T10:00:00.000+09:00","ended_at":"2011-02-17T12:00:00.000+09:00","limit_number":50,"address":"東京都台東区寿3-16-10 PRINCE 3F","place":"株式会社C.D.UNITEDオフィス会議室","lat":35.7074,"lon":139.793,"state":"closed","id":null},{"event_id":"12542","title":"日本Androidの会 町田支部勉強会","url":"https://atnd.org/events/12542","shortener_url":null,"started_at":"2011-02-13T04:30:00.000+09:00","ended_at":"2011-02-13T08:00:00.000+09:00","limit_number":24,"address":"町田市原町田4-9-8","place":"町田市民フォーラム　第２学習室　第２学習室Ａ","lat":35.5418,"lon":139.45,"state":"closed","id":null},{"event_id":"12681","title":"静岡大学LT大会","url":"https://atnd.org/events/12681","shortener_url":null,"started_at":"2011-02-13T01:00:00.000+09:00","ended_at":"2011-02-13T10:00:00.000+09:00","limit_number":20,"address":"静岡県浜松市中区城北3-5-1","place":"静岡大学佐藤哲也研究室付近","lat":34.7248,"lon":137.719,"state":"closed","id":null},{"event_id":"12589","title":"ワッカソン 第0b1.11回","url":"https://atnd.org/events/12589","shortener_url":null,"started_at":"2011-02-13T01:00:00.000+09:00","ended_at":"2011-02-13T09:00:00.000+09:00","limit_number":8,"address":"東京都文京区 湯島4-1-13 ルネ湯島ビル3F","place":"トップゲート応接間あたり","lat":35.7084,"lon":139.771,"state":"closed","id":null},{"event_id":"12450","title":"Sphinx + 翻訳 Hack-a-thon 2011.02","url":"https://atnd.org/events/12450","shortener_url":null,"started_at":"2011-02-12T02:00:00.000+09:00","ended_at":"2011-02-12T10:00:00.000+09:00","limit_number":30,"address":"東京都港区北青山2-5-8","place":"オラクル青山センター 13F","lat":35.6712,"lon":139.719,"state":"closed","id":null},{"event_id":"10214","title":"LDD冬:プレ募集","url":"https://atnd.org/events/10214","shortener_url":null,"started_at":"2011-02-11T01:00:00.000+09:00","ended_at":"2011-02-12T11:00:00.000+09:00","limit_number":50,"address":"北海道札幌市南区定山渓温泉東2丁目","place":"定山渓ビューホテル","lat":42.9686,"lon":141.172,"state":"closed","id":null},{"event_id":"12829","title":"3月27日【女子大生無料】慶応早稲田インカレサークル・医大生・女子大生・テニス…6大インカレサークルイベント","url":"https://atnd.org/events/12829","shortener_url":null,"started_at":"2011-02-27T05:00:00.000+09:00","ended_at":"2011-03-01T23:59:59.000+09:00","limit_number":null,"address":"","place":"","lat":null,"lon":null,"state":"closed","id":null},{"event_id":"12828","title":"2月27日・3月27日【女子大生無料】慶応早稲田サークル・医大生・女子大生・テニス…6大サークルイベント","url":"https://atnd.org/events/12828","shortener_url":null,"started_at":"2011-02-27T05:00:00.000+09:00","ended_at":"2011-03-01T23:59:59.000+09:00","limit_number":null,"address":"","place":"","lat":null,"lon":null,"state":"closed","id":null},{"event_id":"12008","title":"2011年02月26日（土）園部ぼたん鍋、ボドゲ合宿","url":"https://atnd.org/events/12008","shortener_url":null,"started_at":"2011-02-26T05:00:00.000+09:00","ended_at":"2011-02-27T01:00:00.000+09:00","limit_number":10,"address":"京都府南丹市園部町新町51-1","place":"『かいちや』","lat":35.1071,"lon":135.479,"state":"closed","id":null},{"event_id":"11947","title":"(第5回)Python mini Hack-a-thon(雪山合宿バージョン)","url":"https://atnd.org/events/11947","shortener_url":null,"started_at":"2011-02-25T03:00:00.000+09:00","ended_at":"2011-02-27T03:00:00.000+09:00","limit_number":10,"address":"長野県須坂市大字仁礼峰の原高原3153-720","place":"菅平(峰の原) マウンテンパパ(無線LANあり) ","lat":36.5531,"lon":138.35,"state":"closed","id":null},{"event_id":"9147","title":"【女子限定】GWクラスタ積みガンプラ消化合宿","url":"https://atnd.org/events/9147","shortener_url":null,"started_at":"2011-02-11T03:00:00.000+09:00","ended_at":"2011-02-13T08:00:00.000+09:00","limit_number":12,"address":"神戸市北区山田町下谷上字中一里山14‐1","place":"しあわせの村","lat":34.7075,"lon":135.115,"state":"closed","id":null}]