[{"event_id":"51","title":"(第13回)Python mini Hack-a-thon","url":"https://pyhack.connpass.com/event/51/","shortener_url":null,"started_at":"2011-11-26T11:00:57.000+09:00","ended_at":"2011-11-26T19:00:57.000+09:00","limit_number":30,"address":"東京都港区虎ノ門3-4-7 虎ノ門36森ビル 7階","place":"アリエル・ネットワーク 会議室","lat":35.6662,"lon":139.747,"state":"active","id":null},{"event_id":"10","title":"Pyramid/Pylonsはっかそん","url":"https://connpass.com/event/10/","shortener_url":null,"started_at":"2011-11-05T13:00:25.000+09:00","ended_at":"2011-11-05T18:00:25.000+09:00","limit_number":5,"address":"東京都渋谷区代々木1-2-9　森京ビル2F","place":"Be Proud. 会議室","lat":35.6802,"lon":139.701,"state":"active","id":null},{"event_id":"19","title":"Pyramid/Pylonsはっかそん","url":"https://pylons.connpass.com/event/19/","shortener_url":null,"started_at":"2011-11-05T13:00:25.000+09:00","ended_at":"2011-11-05T18:00:25.000+09:00","limit_number":8,"address":"東京都渋谷区代々木1-2-9　森京ビル2F","place":"Be Proud. 会議室","lat":35.6802,"lon":139.701,"state":"active","id":null},{"event_id":"21982","title":"Emacs Advent Calendar jp: 2011","url":"https://atnd.org/events/21982","shortener_url":null,"started_at":"2011-11-30T15:00:00.000+09:00","ended_at":"2012-02-29T14:59:00.000+09:00","limit_number":null,"address":"","place":"","lat":null,"lon":null,"state":"closed","id":null},{"event_id":"20321","title":"bjam Advent Calendar jp 2011","url":"https://atnd.org/events/20321","shortener_url":null,"started_at":"2011-11-30T15:00:00.000+09:00","ended_at":"2011-12-25T15:00:00.000+09:00","limit_number":25,"address":"/usr/local/bin/bjam","place":"bjam","lat":0.0,"lon":0.0,"state":"closed","id":null},{"event_id":"21834","title":"enchant.js meetup! \u0026 交流会 大阪","url":"https://atnd.org/events/21834","shortener_url":null,"started_at":"2011-11-26T04:00:00.000+09:00","ended_at":"2011-11-26T09:00:00.000+09:00","limit_number":50,"address":"〒541-0053 大阪府大阪市中央区本町2-3-4","place":"TKP大阪本町ビジネスセンター カンファレンスルーム6A","lat":34.6833,"lon":135.505,"state":"closed","id":null},{"event_id":"21923","title":"#MUP48 第2回IT女子会★MUP48×勝間和代さん×Tech総研★","url":"https://atnd.org/events/21923","shortener_url":null,"started_at":"2011-11-24T10:00:00.000+09:00","ended_at":"2011-11-24T12:30:00.000+09:00","limit_number":70,"address":"","place":"リクルート メディアテクノロジーラボ（MTL）Cafe ［住所：東京都中央区銀座7-2-6 リクルートアネックス1ビル B1F］","lat":null,"lon":null,"state":"closed","id":null},{"event_id":"21610","title":"第一回　WEB勉強会 for オープンラボ備後","url":"https://atnd.org/events/21610","shortener_url":null,"started_at":"2011-11-23T04:00:00.000+09:00","ended_at":"2011-11-23T09:00:00.000+09:00","limit_number":5,"address":"広島県福山市2丁目 福山駅","place":"そーだい邸","lat":34.4859,"lon":133.362,"state":"closed","id":null},{"event_id":"21770","title":"HTML5ハッカソン\u0026GDD報告会","url":"https://atnd.org/events/21770","shortener_url":null,"started_at":"2011-11-23T01:00:00.000+09:00","ended_at":"2011-11-23T08:00:00.000+09:00","limit_number":16,"address":"高松市サンポート2-1","place":"e-とぴあ・かがわ","lat":34.3525,"lon":134.047,"state":"closed","id":null},{"event_id":"21129","title":"SocialGameJam MeetUP!","url":"https://atnd.org/events/21129","shortener_url":null,"started_at":"2011-11-23T01:00:00.000+09:00","ended_at":"2011-11-23T11:00:00.000+09:00","limit_number":50,"address":"東京大学アントレプレナープラザ","place":"東京大学アントレプレナープラザ","lat":35.7127,"lon":139.763,"state":"closed","id":null},{"event_id":"21968","title":"Facebookモバイルアプリ on AWSクラウド ～ハンズオン＆ハッカソン～","url":"https://atnd.org/events/21968","shortener_url":null,"started_at":"2011-11-20T02:00:00.000+09:00","ended_at":"2011-11-20T10:00:00.000+09:00","limit_number":15,"address":"東京都千代田区大手町2-6-4","place":"パソナグループ本部　9階　研修室A","lat":35.6841,"lon":139.771,"state":"closed","id":null},{"event_id":"22310","title":"Online Gentoo Hackathon 11月","url":"https://atnd.org/events/22310","shortener_url":null,"started_at":"2011-11-19T15:00:00.000+09:00","ended_at":"2011-11-20T15:00:00.000+09:00","limit_number":null,"address":"","place":"","lat":null,"lon":null,"state":"closed","id":null},{"event_id":"21491","title":"横浜Androidプラットフォーム部第15回勉強会","url":"https://atnd.org/events/21491","shortener_url":null,"started_at":"2011-11-19T04:15:00.000+09:00","ended_at":"2011-11-19T08:00:00.000+09:00","limit_number":40,"address":"横浜市神奈川区神之木町7-1","place":"横浜市神ノ木地区センター","lat":35.494,"lon":139.648,"state":"closed","id":null},{"event_id":"21424","title":"中止になりました。　学生限定　アイディアソン＆ハッカソン","url":"https://atnd.org/events/21424","shortener_url":null,"started_at":"2011-11-19T01:00:00.000+09:00","ended_at":"2011-11-19T08:00:00.000+09:00","limit_number":20,"address":"福井県福井市和田東2-1401","place":"株式会社ユーエヌアイ研究所　会議室","lat":36.0517,"lon":136.25,"state":"closed","id":null},{"event_id":"20933","title":"gwt ja night #2","url":"https://atnd.org/events/20933","shortener_url":null,"started_at":"2011-11-13T04:00:00.000+09:00","ended_at":"2011-11-13T10:00:00.000+09:00","limit_number":12,"address":"東京都文京区湯島1-1-6","place":"株式会社あゆた 開発室（望田ビル4F)","lat":35.7001,"lon":139.768,"state":"closed","id":null},{"event_id":"22053","title":"エンジニア@リング@ハッカソン","url":"https://atnd.org/events/22053","shortener_url":null,"started_at":"2011-11-13T03:30:00.000+09:00","ended_at":"2011-11-13T07:00:00.000+09:00","limit_number":6,"address":"静岡市葵区鷹匠2丁目10-25","place":"oniwa","lat":34.978,"lon":138.389,"state":"closed","id":null},{"event_id":"21229","title":"Android Make DaysのLT参加者募集","url":"https://atnd.org/events/21229","shortener_url":null,"started_at":"2011-11-12T07:00:00.000+09:00","ended_at":"2011-11-12T09:00:00.000+09:00","limit_number":15,"address":"福岡市博多区博多駅東1丁目17-1","place":"福岡県Ruby・コンテンツ産業振興センター","lat":33.5904,"lon":130.424,"state":"closed","id":null},{"event_id":"19444","title":"ソーシャルメディアの効果測定","url":"https://atnd.org/events/19444","shortener_url":null,"started_at":"2011-11-12T05:00:00.000+09:00","ended_at":"2011-11-12T08:00:00.000+09:00","limit_number":50,"address":"〒180-8633 東京都武蔵野市吉祥寺北町3-3-1","place":"成蹊大学 8号館404教室","lat":35.7116,"lon":139.573,"state":"closed","id":null},{"event_id":"20475","title":"学生ゲーム業界勉強会","url":"https://atnd.org/events/20475","shortener_url":null,"started_at":"2011-11-12T01:00:00.000+09:00","ended_at":"2011-11-12T09:30:00.000+09:00","limit_number":130,"address":"東京都千代田区一ツ橋2丁目1−2","place":"情報システム研究機構国立情報学研究所","lat":35.6924,"lon":139.758,"state":"closed","id":null},{"event_id":"21425","title":"GameSalad meetup #9","url":"https://atnd.org/events/21425","shortener_url":null,"started_at":"2011-11-11T10:00:00.000+09:00","ended_at":"2011-11-11T12:00:00.000+09:00","limit_number":40,"address":"東京都港区港南 2-16-3 品川グランドセントラルタワー","place":"マイクロソフト品川本社","lat":35.6292,"lon":139.743,"state":"closed","id":null},{"event_id":"20741","title":"Android Make Days in 明星和楽","url":"https://atnd.org/events/20741","shortener_url":null,"started_at":"2011-11-11T10:00:00.000+09:00","ended_at":"2011-11-12T10:00:00.000+09:00","limit_number":200,"address":"福岡市博多区博多駅東1丁目17-1","place":"福岡県Ruby・コンテンツ産業振興センター","lat":33.5904,"lon":130.424,"state":"closed","id":null},{"event_id":"21167","title":"#MA7 Mashup Camp 締切直前36時間耐久ハッカソン","url":"https://atnd.org/events/21167","shortener_url":null,"started_at":"2011-11-05T01:00:00.000+09:00","ended_at":"2011-11-06T13:00:00.000+09:00","limit_number":80,"address":"東京都中央区銀座7-2-6 リクルートアネックス1ビル B1F","place":"リクルート メディアテクノロジーラボ（MTL）Cafe","lat":35.6707,"lon":139.769,"state":"closed","id":null},{"event_id":"21510","title":"Okinawa SuperHappyDevHouse #2","url":"https://atnd.org/events/21510","shortener_url":null,"started_at":"2011-11-05T00:30:00.000+09:00","ended_at":"2011-11-05T08:30:00.000+09:00","limit_number":25,"address":"(26.342063,127.859728)","place":"(株)レキサス内会議室","lat":26.342,"lon":127.86,"state":"closed","id":null},{"event_id":"20629","title":"C++ハッカソン @寝台特急カシオペア","url":"https://atnd.org/events/20629","shortener_url":null,"started_at":"2011-11-04T07:20:00.000+09:00","ended_at":"2011-11-05T00:32:00.000+09:00","limit_number":null,"address":"","place":"寝台特急カシオペア内のどこか","lat":null,"lon":null,"state":"closed","id":null},{"event_id":"20234","title":"C++ハッカソン @日本海","url":"https://atnd.org/events/20234","shortener_url":null,"started_at":"2011-11-03T16:00:00.000+09:00","ended_at":"2011-11-04T11:30:00.000+09:00","limit_number":null,"address":"","place":"敦賀港（福井）","lat":null,"lon":null,"state":"closed","id":null},{"event_id":"20106","title":"虎の穴”TNA”セッション合宿","url":"https://atnd.org/events/20106","shortener_url":null,"started_at":"2011-11-25T03:00:00.000+09:00","ended_at":"2011-11-26T04:00:00.000+09:00","limit_number":null,"address":"神奈川県相模原市緑区牧野4819","place":"藤野芸術の家","lat":35.5949,"lon":139.152,"state":"closed","id":null},{"event_id":"20079","title":"a-blog cms Training Camp 2011 Autumn","url":"https://atnd.org/events/20079","shortener_url":null,"started_at":"2011-11-17T04:00:00.000+09:00","ended_at":"2011-11-18T03:00:00.000+09:00","limit_number":28,"address":"愛知県知多郡南知多町大字師崎字高岩57","place":"師崎荘","lat":34.7012,"lon":136.967,"state":"closed","id":null},{"event_id":"21648","title":"9LISP - 037","url":"https://atnd.org/events/21648","shortener_url":null,"started_at":"2011-11-05T01:00:00.000+09:00","ended_at":"2011-11-07T23:59:59.000+09:00","limit_number":9,"address":"熊本県熊本市渡鹿9丁目1−1","place":"東海大学 熊本キャンパス 新１号館6階 N1603号室","lat":32.8115,"lon":130.743,"state":"closed","id":null}]