[{"event_id":"32689","title":"第4回 Anti Censorship Hackathon #hackACTA","url":"https://atnd.org/events/32689","shortener_url":null,"started_at":"2012-09-30T18:00:00.000+09:00","ended_at":"2012-09-30T22:00:00.000+09:00","limit_number":10,"address":"東京都千代田区外神田3-2-13 山口ビルB1F","place":"JAM Akihabara","lat":35.7004,"lon":139.77,"state":"closed","id":null},{"event_id":"32549","title":"第５回 Webアプリハッカソン@ドリコム","url":"https://atnd.org/events/32549","shortener_url":null,"started_at":"2012-09-30T10:30:00.000+09:00","ended_at":"2012-09-30T20:00:00.000+09:00","limit_number":40,"address":"東京都目黒区下目黒1丁目8-1 アルコタワー17F","place":"ドリコム","lat":35.6274,"lon":139.709,"state":"closed","id":null},{"event_id":"32585","title":"元住吉ハッカソン #8","url":"https://atnd.org/events/32585","shortener_url":null,"started_at":"2012-09-30T10:00:00.000+09:00","ended_at":"2012-09-30T22:00:00.000+09:00","limit_number":8,"address":"神奈川県川崎市中原区木月住吉町3-21","place":"ギークハウス元住吉 もくもく部屋","lat":35.5669,"lon":139.656,"state":"closed","id":null},{"event_id":"32579","title":"第69回よちよちAndroid開発ミーティング","url":"https://atnd.org/events/32579","shortener_url":null,"started_at":"2012-09-30T09:00:00.000+09:00","ended_at":"2012-09-30T12:00:00.000+09:00","limit_number":null,"address":"東京都品川区大崎1-11-1","place":"ゲートシティ大崎B1アトリウムフリー座席","lat":35.6194,"lon":139.731,"state":"closed","id":null},{"event_id":"30524","title":"合同Smalltalk勉強会@名古屋 #2","url":"https://atnd.org/events/30524","shortener_url":null,"started_at":"2012-09-29T13:30:00.000+09:00","ended_at":"2012-09-29T18:00:00.000+09:00","limit_number":50,"address":"名古屋市西区牛島町6番1号 名古屋ルーセントタワー32F","place":"エイチーム様","lat":35.1749,"lon":136.881,"state":"closed","id":null},{"event_id":"32344","title":"Windows Phone Hackathon in Tokyo#4","url":"https://atnd.org/events/32344","shortener_url":null,"started_at":"2012-09-29T12:30:00.000+09:00","ended_at":"2012-09-29T18:00:00.000+09:00","limit_number":12,"address":"東京都千代田区三崎町3-10-5 原島第三ビル202","place":"ネコワーキング","lat":35.7011,"lon":139.751,"state":"closed","id":null},{"event_id":"32272","title":"iOS Dev ハッカソン 関西 Vol.01 #iosdevthon_kansai","url":"https://atnd.org/events/32272","shortener_url":null,"started_at":"2012-09-29T11:00:00.000+09:00","ended_at":"2012-09-30T12:00:00.000+09:00","limit_number":7,"address":"堺市東区/最寄り駅:南海高野線 萩原天神駅","place":"ギークハウス","lat":0.0,"lon":0.0,"state":"closed","id":null},{"event_id":"32085","title":"【UEC】Android道ハッカソン【Android】 #AndroidTao","url":"https://atnd.org/events/32085","shortener_url":null,"started_at":"2012-09-29T10:30:00.000+09:00","ended_at":"2012-09-29T18:00:00.000+09:00","limit_number":25,"address":"東京都調布市調布ケ丘1丁目5−1","place":"電気通信大学 西2-106","lat":35.6557,"lon":139.544,"state":"closed","id":null},{"event_id":"31541","title":"DesignersHack in Okinawa #3","url":"https://atnd.org/events/31541","shortener_url":null,"started_at":"2012-09-29T10:00:00.000+09:00","ended_at":"2012-09-29T17:30:00.000+09:00","limit_number":15,"address":"沖縄県那覇市樋川+1-1-77","place":"専門学校 IT カレッジ沖縄","lat":26.2108,"lon":127.686,"state":"closed","id":null},{"event_id":"32283","title":"e-ZUKA Tech Night Vol.4","url":"https://atnd.org/events/32283","shortener_url":null,"started_at":"2012-09-27T19:00:00.000+09:00","ended_at":"2012-09-27T22:00:00.000+09:00","limit_number":50,"address":"福岡県飯塚市吉原町7-5","place":"Rudies Cafe","lat":33.6411,"lon":130.687,"state":"closed","id":null},{"event_id":"32510","title":"第3回 Anti Censorship Hackathon #hackACTA","url":"https://atnd.org/events/32510","shortener_url":null,"started_at":"2012-09-23T18:00:00.000+09:00","ended_at":"2012-09-23T22:00:00.000+09:00","limit_number":10,"address":"東京都千代田区外神田3-2-13 山口ビルB1F","place":"JAM Akihabara","lat":35.7004,"lon":139.77,"state":"closed","id":null},{"event_id":"32444","title":"第68回よちよちAndroid開発ミーティング","url":"https://atnd.org/events/32444","shortener_url":null,"started_at":"2012-09-23T09:00:00.000+09:00","ended_at":"2012-09-23T12:00:00.000+09:00","limit_number":null,"address":"東京都品川区大崎1-11-1","place":"ゲートシティ大崎B1アトリウムフリー座席","lat":35.6194,"lon":139.731,"state":"closed","id":null},{"event_id":"31181","title":"がじぇっとるねさす（GR-SAKURA）によるアプリ開発勉強会（初心者向け）","url":"https://atnd.org/events/31181","shortener_url":null,"started_at":"2012-09-22T13:00:00.000+09:00","ended_at":"2012-09-22T17:00:00.000+09:00","limit_number":30,"address":"横浜市中区寿町1-4","place":"かながわ労働プラザ 第4会議室","lat":35.44,"lon":139.641,"state":"closed","id":null},{"event_id":"32187","title":"#MA8 京都サミット","url":"https://atnd.org/events/32187","shortener_url":null,"started_at":"2012-09-17T14:00:00.000+09:00","ended_at":"2012-09-17T18:30:00.000+09:00","limit_number":20,"address":"京都市下京区中堂寺南町134番地","place":"京都リサーチパーク東地区　京都高度技術研究所(ASTEM)　","lat":34.9947,"lon":135.74,"state":"closed","id":null},{"event_id":"32210","title":"Anti Censorship Hackathon #hackACTA","url":"https://atnd.org/events/32210","shortener_url":null,"started_at":"2012-09-16T18:00:00.000+09:00","ended_at":"2012-09-16T22:00:00.000+09:00","limit_number":10,"address":"東京都千代田区外神田3-2-13 山口ビルB1F","place":"JAM Akihabara","lat":35.7004,"lon":139.77,"state":"closed","id":null},{"event_id":"32168","title":"【初心者向け】JavaScript、Python、PHP、Rubyハッカソン　～時々チェス～","url":"https://atnd.org/events/32168","shortener_url":null,"started_at":"2012-09-16T11:00:00.000+09:00","ended_at":"2012-09-16T17:30:00.000+09:00","limit_number":6,"address":"東京都渋谷区神宮前3-22-12","place":"THE TERMINAL","lat":35.6705,"lon":139.707,"state":"closed","id":null},{"event_id":"32305","title":"元住吉ハッカソン #6","url":"https://atnd.org/events/32305","shortener_url":null,"started_at":"2012-09-16T10:00:00.000+09:00","ended_at":"2012-09-16T22:00:00.000+09:00","limit_number":5,"address":"神奈川県川崎市中原区木月住吉町3-21","place":"ギークハウス元住吉 もくもく部屋","lat":35.5669,"lon":139.656,"state":"closed","id":null},{"event_id":"31960","title":"techGarage福岡 x Microsoft モバイルアプリ構築実践ワークショップ","url":"https://atnd.org/events/31960","shortener_url":null,"started_at":"2012-09-16T10:00:00.000+09:00","ended_at":"2012-09-17T19:00:00.000+09:00","limit_number":36,"address":"福岡県福岡市東区 和白東3-30-1","place":"福岡工業大学短期大学部","lat":33.6952,"lon":130.441,"state":"closed","id":null},{"event_id":"31347","title":"長崎 ITCamp2012","url":"https://atnd.org/events/31347","shortener_url":null,"started_at":"2012-09-15T09:00:00.000+09:00","ended_at":"2012-09-16T18:00:00.000+09:00","limit_number":10,"address":"長崎県長崎市出島町2−11","place":"出島交流会館","lat":32.7421,"lon":129.872,"state":"closed","id":null},{"event_id":"32052","title":"第１回 Androidアプリ開発でつまづいてるところを助け合おう会","url":"https://atnd.org/events/32052","shortener_url":null,"started_at":"2012-09-08T13:00:00.000+09:00","ended_at":"2012-09-08T15:00:00.000+09:00","limit_number":5,"address":"宮崎県都城市蔵原町11街区25号","place":"ウェルネス交流プラザ　ミーティングコーナー","lat":31.7216,"lon":131.067,"state":"closed","id":null},{"event_id":"31285","title":"スマートフォンアプリ　Creator's　PARK　＠Jam Garage  by Goodia","url":"https://atnd.org/events/31285","shortener_url":null,"started_at":"2012-09-08T10:00:00.000+09:00","ended_at":"2012-09-08T13:00:00.000+09:00","limit_number":40,"address":"愛知県名古屋市中区錦2丁目17-28","place":"JamGarage （CK15伏見ビル4階）","lat":35.1689,"lon":136.898,"state":"closed","id":null},{"event_id":"31724","title":"エンジニアサミット ～5年後に成功するエンジニアとは？～","url":"https://atnd.org/events/31724","shortener_url":null,"started_at":"2012-09-04T19:00:00.000+09:00","ended_at":"2012-09-07T08:59:59.000+09:00","limit_number":50,"address":"東京都港区赤坂8丁目5番26号","place":"Startup Base Camp","lat":35.671,"lon":139.727,"state":"closed","id":null},{"event_id":"31021","title":"Qiita/Kobito Meetup #3 Nagoya","url":"https://atnd.org/events/31021","shortener_url":null,"started_at":"2012-09-02T18:30:00.000+09:00","ended_at":"2012-09-05T08:59:59.000+09:00","limit_number":20,"address":"愛知県名古屋市中区錦二丁目17-28","place":"JAM GARAGE","lat":35.1707,"lon":136.899,"state":"closed","id":null},{"event_id":"31756","title":"日本Androidの会 秋葉原支部 ロボット部 第6回 勉強会","url":"https://atnd.org/events/31756","shortener_url":null,"started_at":"2012-09-02T12:00:00.000+09:00","ended_at":"2012-09-02T18:00:00.000+09:00","limit_number":15,"address":"東京都千代田区外神田4-7-3","place":"若松通商　アキバNET館","lat":35.7027,"lon":139.772,"state":"closed","id":null},{"event_id":"31019","title":"Qiita/Kobito Meetup #2 Kyoto","url":"https://atnd.org/events/31019","shortener_url":null,"started_at":"2012-09-01T18:30:00.000+09:00","ended_at":"2012-09-04T08:59:59.000+09:00","limit_number":20,"address":"","place":"株式会社はてな 京都本社 (京都府京都市中京区御池通間之町東入高宮町206 御池ビル8F)","lat":null,"lon":null,"state":"closed","id":null},{"event_id":"31697","title":"Hachioji.pm #21","url":"https://atnd.org/events/31697","shortener_url":null,"started_at":"2012-09-01T18:00:00.000+09:00","ended_at":"2012-09-04T08:59:59.000+09:00","limit_number":12,"address":"東京都八王子市子安町1-1-8 アーバンホテル 1F","place":"ウラニワ 八王子店","lat":35.653,"lon":139.339,"state":"closed","id":null},{"event_id":"31698","title":"Like a ハッカソン #4 (pre Hachioji.pm #21)","url":"https://atnd.org/events/31698","shortener_url":null,"started_at":"2012-09-01T11:00:00.000+09:00","ended_at":"2012-09-01T17:30:00.000+09:00","limit_number":16,"address":"東京都八王子市","place":"いしださんち","lat":35.6663,"lon":139.316,"state":"closed","id":null}]