[{"event_id":"807","title":"Jenkins ハッカソン","url":"https://jenkins.connpass.com/event/807/","shortener_url":null,"started_at":"2012-07-30T19:00:00.000+09:00","ended_at":"2012-07-31T02:00:00.000+09:00","limit_number":7,"address":"東京都港区赤坂2-17-22 (赤坂ツインタワー東館18F)","place":"株式会社SHIFT","lat":35.6698,"lon":139.74,"state":"active","id":null},{"event_id":"30656","title":"【KINECT Hackathon １st round】アイデアソン＆オリエン ","url":"https://atnd.org/events/30656","shortener_url":null,"started_at":"2012-07-30T19:00:00.000+09:00","ended_at":"2012-07-30T21:00:00.000+09:00","limit_number":30,"address":"東京都品川区東品川2-2-28-2F","place":"Samurai Startup Island - サムライスタートアップアイラン","lat":35.6218,"lon":139.749,"state":"closed","id":null},{"event_id":"30017","title":"HTML5ハッカソン","url":"https://atnd.org/events/30017","shortener_url":null,"started_at":"2012-07-28T10:00:00.000+09:00","ended_at":"2012-07-28T17:30:00.000+09:00","limit_number":10,"address":"香川県高松市塩上町1丁目2−26","place":"クリエイトスペース","lat":34.3386,"lon":134.053,"state":"closed","id":null},{"event_id":"31089","title":"無人偵察機ハッカソン","url":"https://atnd.org/events/31089","shortener_url":null,"started_at":"2012-07-27T20:00:00.000+09:00","ended_at":"2012-07-28T08:00:00.000+09:00","limit_number":3,"address":"徳島県徳島市城東2-4-5-206","place":"秘密結社オープンフォース　秘密基地","lat":34.0743,"lon":134.578,"state":"closed","id":null},{"event_id":"30347","title":"ネットワークハッカソン in 鈴鹿高専","url":"https://atnd.org/events/30347","shortener_url":null,"started_at":"2012-07-22T09:00:00.000+09:00","ended_at":"2012-07-22T17:00:00.000+09:00","limit_number":10,"address":"鈴鹿工業高等専門学校","place":"鈴鹿工業高等専門学校情報処理センター","lat":34.8502,"lon":136.581,"state":"closed","id":null},{"event_id":"29949","title":"MetroStyleハッカソン 2Days","url":"https://atnd.org/events/29949","shortener_url":null,"started_at":"2012-07-21T10:10:00.000+09:00","ended_at":"2012-07-21T17:45:00.000+09:00","limit_number":36,"address":"大阪府大阪市中央区北浜4-7-28 住友ビルディング第2号館","place":"IIJ関西支社 様","lat":34.6912,"lon":135.498,"state":"closed","id":null},{"event_id":"30454","title":"Qiita/Kobito Meetup #1","url":"https://atnd.org/events/30454","shortener_url":null,"started_at":"2012-07-20T19:00:00.000+09:00","ended_at":"2012-07-20T21:00:00.000+09:00","limit_number":45,"address":"東京都渋谷区恵比寿南3丁目5番7号","place":"Open Network Lab(代官山DGビル11F)","lat":35.6462,"lon":139.704,"state":"closed","id":null},{"event_id":"30533","title":"dotcloudユーザ会（仮称） 第0.2回","url":"https://atnd.org/events/30533","shortener_url":null,"started_at":"2012-07-15T22:00:00.000+09:00","ended_at":"2012-07-16T05:00:00.000+09:00","limit_number":8,"address":"東京都新宿区新宿2-3-8","place":"bar 16SHOTS (新宿) http://16shots.jp/i/ http://www.google.co.jp/maps/ms?msa=0\u0026msid=208718692733063252317.0004bd7dd2f2d98515578 https://ja.foursquare.com/v/16shots/4b55a444f964a52021ea27e3　googlemapはずれていますのでご注意ください。 ","lat":35.6901,"lon":139.708,"state":"closed","id":null},{"event_id":"30741","title":"週末enchant.jsハッカソン","url":"https://atnd.org/events/30741","shortener_url":null,"started_at":"2012-07-15T18:00:00.000+09:00","ended_at":"2012-07-18T08:59:59.000+09:00","limit_number":null,"address":"","place":"マクドナルド秋葉原駅前店","lat":null,"lon":null,"state":"closed","id":null},{"event_id":"29994","title":"HTML5勉強会","url":"https://atnd.org/events/29994","shortener_url":null,"started_at":"2012-07-07T16:00:00.000+09:00","ended_at":"2012-07-07T18:00:00.000+09:00","limit_number":10,"address":"香川県高松市塩上町1丁目2−26","place":"クリエイトスペース","lat":34.3386,"lon":134.053,"state":"closed","id":null},{"event_id":"29673","title":"[中止] Ogaki Developer Day 2012 Summer (ODD2012s)","url":"https://atnd.org/events/29673","shortener_url":null,"started_at":"2012-07-07T13:00:00.000+09:00","ended_at":"2012-07-08T15:00:00.000+09:00","limit_number":60,"address":"大垣市加賀野4丁目1番地7","place":"ソフトピアジャパン・センタービル11F 研修室","lat":35.3676,"lon":136.639,"state":"closed","id":null},{"event_id":"30243","title":"Android Hackathon in Fukuoka","url":"https://atnd.org/events/30243","shortener_url":null,"started_at":"2012-07-01T10:00:00.000+09:00","ended_at":"2012-07-01T20:00:00.000+09:00","limit_number":20,"address":"福岡市中央区大名1-14-28","place":"AIPCafe(第1松村ビル302号室)","lat":33.5876,"lon":130.395,"state":"closed","id":null},{"event_id":"30807","title":"7/27(金)親子でできる！スポーツ障害予防に役立つクールダウンストレッチ","url":"https://atnd.org/events/30807","shortener_url":null,"started_at":"2012-07-27T10:30:00.000+09:00","ended_at":"2012-07-27T12:30:00.000+09:00","limit_number":10,"address":"東京都品川区大井4-4-2","place":"品川スタジオ（ＡＫＡＮＯＮサロン内）","lat":35.6037,"lon":139.734,"state":"closed","id":null},{"event_id":"672","title":"(第21回)Python mini Hack-a-thon","url":"https://pyhack.connpass.com/event/672/","shortener_url":null,"started_at":"2012-07-14T11:00:00.000+09:00","ended_at":"2012-07-14T19:00:00.000+09:00","limit_number":30,"address":"東京都港区六本木4-1-4","place":"アリエル・ネットワーク 会議室(黒崎ビル6階)","lat":35.6655,"lon":139.736,"state":"active","id":null},{"event_id":"721","title":"2012年夏 第1回八ヶ岳山小屋合宿","url":"https://connpass.com/event/721/","shortener_url":null,"started_at":"2012-07-14T12:00:00.000+09:00","ended_at":"2012-07-16T14:00:00.000+09:00","limit_number":8,"address":"長野県南佐久郡南牧村海ノ口2244","place":"山小屋","lat":35.9894,"lon":138.438,"state":"active","id":null}]