[{"event_id":"786","title":"emacs-lisp ハッカソン","url":"https://connpass.com/event/786/","shortener_url":null,"started_at":"2012-08-25T11:00:00.000+09:00","ended_at":"2012-08-25T19:00:00.000+09:00","limit_number":20,"address":"東京都港区六本木4-1-4","place":"アリエル・ネットワーク会議室","lat":35.6655,"lon":139.736,"state":"active","id":null},{"event_id":"844","title":"pylons/pyramidはっかそん2012.08","url":"https://pylons.connpass.com/event/844/","shortener_url":null,"started_at":"2012-08-18T13:00:00.000+09:00","ended_at":"2012-08-18T19:00:00.000+09:00","limit_number":12,"address":"東京都渋谷区代々木4-29-3 西参道梅村ビル4F","place":"トライアックス株式会社 会議室","lat":35.6825,"lon":139.69,"state":"active","id":null},{"event_id":"31127","title":"エンジニア×デザイナーで講師密着型ハッカソン合宿！！","url":"https://atnd.org/events/31127","shortener_url":null,"started_at":"2012-08-31T10:00:00.000+09:00","ended_at":"2012-09-01T12:00:00.000+09:00","limit_number":40,"address":"東京都品川区東品川2-2-28-2F","place":"Samurai Startup Island","lat":35.6218,"lon":139.749,"state":"closed","id":null},{"event_id":"31493","title":"【名古屋】8/25（土）第7回iPhoneアプリ開発勉強会","url":"https://atnd.org/events/31493","shortener_url":null,"started_at":"2012-08-25T08:30:00.000+09:00","ended_at":"2012-08-25T11:50:00.000+09:00","limit_number":30,"address":"愛知県名古屋市中区錦二丁目17-28 CK15伏見ビル 4F","place":"JAM GARAGE（ジャムガレージ）","lat":35.1707,"lon":136.899,"state":"closed","id":null},{"event_id":"31603","title":"秋葉原iPhoneアプリ開発勉強会 #44","url":"https://atnd.org/events/31603","shortener_url":null,"started_at":"2012-08-25T03:00:00.000+09:00","ended_at":"2012-08-25T09:00:00.000+09:00","limit_number":1,"address":"東京都千代田区岩本町2-10-9","place":"株式会社あゆた 開発室（手塚ビル7F)","lat":35.6935,"lon":139.778,"state":"closed","id":null},{"event_id":"31704","title":"iphone_dev_jp東京 iPhone/Mac Hackathon","url":"https://atnd.org/events/31704","shortener_url":null,"started_at":"2012-08-25T01:00:00.000+09:00","ended_at":"2012-08-25T11:00:00.000+09:00","limit_number":40,"address":"〒169-8333 東京都新宿区北新宿2-21-1 新宿フロントタワー","place":"ニフティ株式会社","lat":35.6961,"lon":139.689,"state":"closed","id":null},{"event_id":"31335","title":"一歩先のケータイを作ってみる会","url":"https://atnd.org/events/31335","shortener_url":null,"started_at":"2012-08-25T01:00:00.000+09:00","ended_at":"2012-08-25T08:30:00.000+09:00","limit_number":25,"address":"東京都渋谷区桜丘町26-1 セルリアンタワー 11階 GMOインターネットグループ内","place":"シナジーカフェ GMO Yours","lat":35.6566,"lon":139.701,"state":"closed","id":null},{"event_id":"31469","title":"Hackathon for SamurAI Coding 2012 @ 関西","url":"https://atnd.org/events/31469","shortener_url":null,"started_at":"2012-08-18T05:00:00.000+09:00","ended_at":"2012-08-18T09:00:00.000+09:00","limit_number":18,"address":"京都市上京区油小路中立売下ル甲斐守町97番地","place":"京都西陣 IT路地","lat":35.0296,"lon":135.757,"state":"closed","id":null},{"event_id":"31214","title":"Hackathon for SamurAI Coding 2012 @ 関東 （関東・関西同時開催）","url":"https://atnd.org/events/31214","shortener_url":null,"started_at":"2012-08-18T05:00:00.000+09:00","ended_at":"2012-08-18T09:00:00.000+09:00","limit_number":20,"address":"〒162-0042 東京都新宿区早稲田町27","place":"早稲田大学　グリーン・コンピューティング・システム研究機構","lat":35.7056,"lon":139.721,"state":"closed","id":null},{"event_id":"31029","title":"VSハッカソン倶楽部 東京 　第１回 　","url":"https://atnd.org/events/31029","shortener_url":null,"started_at":"2012-08-18T01:00:00.000+09:00","ended_at":"2012-08-18T09:00:00.000+09:00","limit_number":30,"address":"東京都千代田区丸の内2-6-1  丸の内パークビルディング19F","place":"パソナテック本社","lat":35.6791,"lon":139.763,"state":"closed","id":null},{"event_id":"30903","title":"第二回関西キネクト勉強会","url":"https://atnd.org/events/30903","shortener_url":null,"started_at":"2012-08-11T05:00:00.000+09:00","ended_at":"2012-08-11T08:00:00.000+09:00","limit_number":21,"address":"〒541-0048 大阪府大阪市中央区瓦町4-3-7","place":"株式会社スペースソルバ MID御堂筋瓦町ビル4Ｆ","lat":34.6859,"lon":135.499,"state":"closed","id":null},{"event_id":"30834","title":"私立・プログラミングキャンプ 2012 京都大会 - #upcamp #upcampKansai","url":"https://atnd.org/events/30834","shortener_url":null,"started_at":"2012-08-11T05:00:00.000+09:00","ended_at":"2012-08-12T03:00:00.000+09:00","limit_number":20,"address":"京都市上京区油小路中立売下ル甲斐守町97番地","place":"京都西陣IT路地","lat":35.0324,"lon":135.75,"state":"closed","id":null},{"event_id":"30833","title":"私立・プログラミングキャンプ 2012 東京大会 - #upcamp","url":"https://atnd.org/events/30833","shortener_url":null,"started_at":"2012-08-11T05:00:00.000+09:00","ended_at":"2012-08-12T03:00:00.000+09:00","limit_number":50,"address":"東京都港区港南1丁目6番34号 品川イースト1F","place":"株式会社オプティム　東京本社","lat":35.6304,"lon":139.746,"state":"closed","id":null},{"event_id":"30943","title":"Metro Style ハッカソン in Nagoya","url":"https://atnd.org/events/30943","shortener_url":null,"started_at":"2012-08-11T04:00:00.000+09:00","ended_at":"2012-08-11T09:00:00.000+09:00","limit_number":30,"address":"名古屋市中区金山5丁目11-6","place":"名古屋ソフトウェアセンター","lat":35.1449,"lon":136.911,"state":"closed","id":null},{"event_id":"30357","title":"【追記あり】Androidアプリ開発Hackathon？【九段下】","url":"https://atnd.org/events/30357","shortener_url":null,"started_at":"2012-08-04T04:00:00.000+09:00","ended_at":"2012-08-04T07:00:00.000+09:00","limit_number":6,"address":"九段下駅","place":"東京都千代田区　九段下駅　徒歩5分","lat":35.6956,"lon":139.752,"state":"closed","id":null},{"event_id":"31072","title":"AppConアイデアソンin会津","url":"https://atnd.org/events/31072","shortener_url":null,"started_at":"2012-08-04T02:00:00.000+09:00","ended_at":"2012-08-04T07:00:00.000+09:00","limit_number":20,"address":"会津若松市一箕町鶴賀上居合90","place":"会津大学産学イノベーションセンター（※変更の可能性あり）","lat":37.5238,"lon":139.939,"state":"closed","id":null},{"event_id":"30959","title":"Jam Party vol.1『iPhone Apps 勉強会』","url":"https://atnd.org/events/30959","shortener_url":null,"started_at":"2012-08-03T09:30:00.000+09:00","ended_at":"2012-08-03T12:00:00.000+09:00","limit_number":30,"address":"愛知県名古屋市中区錦2丁目17-28 CK15伏見ビル 4F","place":"Jam Garage(ジャムガレージ)","lat":35.1707,"lon":136.899,"state":"closed","id":null},{"event_id":"30826","title":"アプリケーション開発合宿","url":"https://atnd.org/events/30826","shortener_url":null,"started_at":"2012-08-25T00:00:00.000+09:00","ended_at":"2012-08-26T12:00:00.000+09:00","limit_number":50,"address":"沖縄県中頭郡西原町千原1","place":"琉球大学工学部一号棟321教室 （琉球大学）","lat":26.2476,"lon":127.765,"state":"closed","id":null},{"event_id":"30509","title":"ヘビーメイン #20.5","url":"https://atnd.org/events/30509","shortener_url":null,"started_at":"2012-08-19T04:00:00.000+09:00","ended_at":"2012-08-19T12:45:00.000+09:00","limit_number":10,"address":"東京都新宿区高田馬場2丁目18番1号","place":"東京都 戸塚地域センター 調理・手工芸室","lat":35.7144,"lon":139.705,"state":"closed","id":null},{"event_id":"29449","title":"第１６回オープンＣＡＥ初心者勉強会","url":"https://atnd.org/events/29449","shortener_url":null,"started_at":"2012-08-18T03:00:00.000+09:00","ended_at":"2012-08-19T04:00:00.000+09:00","limit_number":20,"address":"岐阜県大垣市加賀野4丁目1番地の7","place":"　ソフトピアジャパン　ドリームコア２階　岐阜イノベーションセンター研修室","lat":35.3676,"lon":136.639,"state":"closed","id":null},{"event_id":"30824","title":"Webサーバ環境構築","url":"https://atnd.org/events/30824","shortener_url":null,"started_at":"2012-08-14T00:00:00.000+09:00","ended_at":"2012-08-14T06:00:00.000+09:00","limit_number":50,"address":"沖縄県中頭郡西原町千原1","place":"琉球大学工学部一号棟321教室 （琉球大学）","lat":26.2476,"lon":127.765,"state":"closed","id":null},{"event_id":"30936","title":"NPCA 2012年夏合宿","url":"https://atnd.org/events/30936","shortener_url":null,"started_at":"2012-08-09T03:00:00.000+09:00","ended_at":"2012-08-11T03:00:00.000+09:00","limit_number":null,"address":"神戸市灘区山田町3-1-1","place":"神戸学生青年センター","lat":34.7213,"lon":135.233,"state":"closed","id":null},{"event_id":"30197","title":"ヘビーメイン #20","url":"https://atnd.org/events/30197","shortener_url":null,"started_at":"2012-08-03T11:00:00.000+09:00","ended_at":"2012-08-05T11:00:00.000+09:00","limit_number":8,"address":"","place":"遠く","lat":null,"lon":null,"state":"closed","id":null},{"event_id":"509","title":"Python mini hack-a-thon 夏山合宿 2012","url":"https://pyhack.connpass.com/event/509/","shortener_url":null,"started_at":"2012-08-31T04:00:00.000+09:00","ended_at":"2012-09-02T05:00:00.000+09:00","limit_number":22,"address":"長野県須坂市大字仁礼峰の原高原3153-720","place":"ペンション マウンテンパパ","lat":36.5531,"lon":138.35,"state":"active","id":null},{"event_id":"788","title":"(第22回)Python mini Hack-a-thon","url":"https://pyhack.connpass.com/event/788/","shortener_url":null,"started_at":"2012-08-11T02:00:00.000+09:00","ended_at":"2012-08-11T10:00:00.000+09:00","limit_number":30,"address":"東京都港区六本木4-1-4","place":"アリエル・ネットワーク 会議室(黒崎ビル6階)","lat":35.6655,"lon":139.736,"state":"active","id":null}]