[{"event_id":"274","title":"pylons/pyramidはっかそん2012.02","url":"https://pylons.connpass.com/event/274/","shortener_url":null,"started_at":"2012-02-25T11:00:00.000+09:00","ended_at":"2012-02-25T19:00:00.000+09:00","limit_number":18,"address":"東京都渋谷区代々木4-29-3 西参道梅村ビル4F","place":"トライアックス株式会社 会議室","lat":35.6825,"lon":139.69,"state":"active","id":null},{"event_id":"280","title":"東京Node学園 4時限目","url":"https://nodejs.connpass.com/event/280/","shortener_url":null,"started_at":"2012-02-26T13:00:00.000+09:00","ended_at":"2012-02-26T22:00:00.000+09:00","limit_number":60,"address":"東京都新宿区北新宿2-21-1","place":"ニフティ株式会社 セミナールーム（新宿フロントタワー内）","lat":35.6961,"lon":139.689,"state":"active","id":null},{"event_id":"24879","title":"fc jamaous 定例フットサル","url":"https://atnd.org/events/24879","shortener_url":null,"started_at":"2012-02-26T08:00:00.000+09:00","ended_at":"2012-02-26T10:00:00.000+09:00","limit_number":50,"address":"東京都江東区東雲2丁目11−2","place":"ラモスフットサル　東雲コート","lat":35.6398,"lon":139.803,"state":"closed","id":null},{"event_id":"25509","title":"第5回 デザイナー向けプログラム部（エンジニア枠）","url":"https://atnd.org/events/25509","shortener_url":null,"started_at":"2012-02-26T05:00:00.000+09:00","ended_at":"2012-02-26T09:00:00.000+09:00","limit_number":15,"address":"東京都千代田区麹町三丁目6番地 住友不動産麹町ビル3号 6Fセミナールーム","place":"株式会社KDDIウェブコミュニケーションズ様 セミナールーム","lat":35.685,"lon":139.738,"state":"closed","id":null},{"event_id":"25508","title":"第5回 デザイナー向けプログラム部（デザイナー枠）","url":"https://atnd.org/events/25508","shortener_url":null,"started_at":"2012-02-26T05:00:00.000+09:00","ended_at":"2012-02-26T09:00:00.000+09:00","limit_number":15,"address":"東京都千代田区麹町三丁目6番地 住友不動産麹町ビル3号 6Fセミナールーム","place":"株式会社KDDIウェブコミュニケーションズ様 セミナールーム","lat":35.685,"lon":139.738,"state":"closed","id":null},{"event_id":"25052","title":"Hachioji.pm #14","url":"https://atnd.org/events/25052","shortener_url":null,"started_at":"2012-02-25T09:00:00.000+09:00","ended_at":"2012-02-27T23:59:59.000+09:00","limit_number":15,"address":"東京都八王子市子安町1-1-3","place":"金太郎　八王子南口店","lat":35.6542,"lon":139.34,"state":"closed","id":null},{"event_id":"24928","title":"第14回日本Androidの会埼玉支部ワークショップ ","url":"https://atnd.org/events/24928","shortener_url":null,"started_at":"2012-02-25T09:00:00.000+09:00","ended_at":"2012-02-25T13:00:00.000+09:00","limit_number":20,"address":"東京都北区王子1丁目11−1","place":"北とぴあ（８階８０２Ｂ会議室）","lat":35.755,"lon":139.737,"state":"closed","id":null},{"event_id":"25410","title":"Twitterのつぶやきから街を見るアイデアソン","url":"https://atnd.org/events/25410","shortener_url":null,"started_at":"2012-02-25T04:00:00.000+09:00","ended_at":"2012-02-25T08:00:00.000+09:00","limit_number":30,"address":"東京都港区芝公園2-6-8 日本女子会館ビル3F","place":"ITS Japan","lat":35.6556,"lon":139.751,"state":"closed","id":null},{"event_id":"25131","title":"Windows Phone 全国ハッカソン祭り ～名古屋～ Windows Phone 7 Hackathon in NAGOYA　第3回","url":"https://atnd.org/events/25131","shortener_url":null,"started_at":"2012-02-25T04:00:00.000+09:00","ended_at":"2012-02-25T09:00:00.000+09:00","limit_number":20,"address":"愛知県名古屋市中区錦3丁目24-20","place":"au NAGOYA","lat":35.1691,"lon":136.906,"state":"closed","id":null},{"event_id":"24833","title":"第19回コンピュータビジョン勉強会＠関東","url":"https://atnd.org/events/24833","shortener_url":null,"started_at":"2012-02-25T04:00:00.000+09:00","ended_at":"2012-02-25T11:00:00.000+09:00","limit_number":20,"address":"神奈川県横浜市港北区日吉3-14-1","place":"慶応大学矢上キャンパス","lat":35.5558,"lon":139.654,"state":"closed","id":null},{"event_id":"24281","title":"新酒んハッカソン？","url":"https://atnd.org/events/24281","shortener_url":null,"started_at":"2012-02-25T04:00:00.000+09:00","ended_at":"2012-02-25T08:00:00.000+09:00","limit_number":18,"address":"新潟市中央区東万代町9番1号 新潟市万代市民会館2F","place":"東新潟コミュニティセンター","lat":37.9163,"lon":139.063,"state":"closed","id":null},{"event_id":"24255","title":"東京 OpenSolaris 勉強会 2012.02","url":"https://atnd.org/events/24255","shortener_url":null,"started_at":"2012-02-25T04:00:00.000+09:00","ended_at":"2012-02-27T23:59:59.000+09:00","limit_number":16,"address":"静岡県熱海市伊豆山1065−1","place":"静岡県熱海 伊豆山研修センター","lat":35.1169,"lon":139.073,"state":"closed","id":null},{"event_id":"24610","title":"HTML5\u0026JavaScript Hackathon in Fukui 2012","url":"https://atnd.org/events/24610","shortener_url":null,"started_at":"2012-02-25T01:00:00.000+09:00","ended_at":"2012-03-04T09:00:00.000+09:00","limit_number":30,"address":"福井県鯖江市新横江2-3-4","place":"株式会社jig.jp","lat":35.9428,"lon":136.199,"state":"closed","id":null},{"event_id":"25054","title":"pre Hachioji.pm #14","url":"https://atnd.org/events/25054","shortener_url":null,"started_at":"2012-02-25T00:00:00.000+09:00","ended_at":"2012-02-25T08:00:00.000+09:00","limit_number":19,"address":"東京都八王子市子安町4-9","place":"八王子南口ＭＴビル時間貸し会議室","lat":35.6535,"lon":139.338,"state":"closed","id":null},{"event_id":"24852","title":"【満員御礼／増員60名】【社会人枠/代々木系】世界を変えるサービスは学生が（社会人と）つくる！ - tetol / trippiece / DECOPIC / LOUNGE / Shakring  -","url":"https://atnd.org/events/24852","shortener_url":null,"started_at":"2012-02-24T10:00:00.000+09:00","ended_at":"2012-02-24T12:30:00.000+09:00","limit_number":60,"address":"東京都渋谷区代々木1-36-4 全理連ビル9F","place":"全理連ビル9F(JR代々木駅徒歩1分)","lat":35.6839,"lon":139.701,"state":"closed","id":null},{"event_id":"24771","title":"【満員御礼/定員60名】【学生枠/代々木系】世界を変えるサービスは学生が（社会人と）つくる！ - tetol / trippiece / DECOPIC / LOUNGE / Shakring  -","url":"https://atnd.org/events/24771","shortener_url":null,"started_at":"2012-02-24T10:00:00.000+09:00","ended_at":"2012-02-24T12:30:00.000+09:00","limit_number":60,"address":"東京都渋谷区代々木1-36-4 全理連ビル9F","place":"全理連ビル9F(JR代々木駅徒歩1分)","lat":35.6839,"lon":139.701,"state":"closed","id":null},{"event_id":"25117","title":"YANO YANO SUPER BIRTHDAY PARTY NIGHT vo.9","url":"https://atnd.org/events/25117","shortener_url":null,"started_at":"2012-02-23T14:30:00.000+09:00","ended_at":"2012-02-23T22:00:00.000+09:00","limit_number":150,"address":"東京都新宿区歌舞伎町2ー3ー23","place":"新宿JAM","lat":35.6969,"lon":139.707,"state":"closed","id":null},{"event_id":"25061","title":"Tokyu.rbハッカソン/もくもく会第2回","url":"https://atnd.org/events/25061","shortener_url":null,"started_at":"2012-02-19T01:00:00.000+09:00","ended_at":"2012-02-19T09:00:00.000+09:00","limit_number":12,"address":"東京都文京区小石川1-2-1","place":"株式会社フィードフォース","lat":35.7087,"lon":139.752,"state":"closed","id":null},{"event_id":"24354","title":"Androidアプリ開発者のためのADKハッカソン","url":"https://atnd.org/events/24354","shortener_url":null,"started_at":"2012-02-19T01:00:00.000+09:00","ended_at":"2012-02-19T09:00:00.000+09:00","limit_number":20,"address":"東京都千代田区麹町3-6","place":"","lat":35.685,"lon":139.738,"state":"closed","id":null},{"event_id":"24857","title":"日本Androidの会 沖縄支部 workshop@Naha Vol.16","url":"https://atnd.org/events/24857","shortener_url":null,"started_at":"2012-02-18T05:30:00.000+09:00","ended_at":"2012-02-25T08:30:00.000+09:00","limit_number":40,"address":"沖縄県那覇市樋川+1-1-77","place":"専門学校 IT カレッジ沖縄 ","lat":26.2108,"lon":127.686,"state":"closed","id":null},{"event_id":"25491","title":"【緊急募集！！明日開催！】GameSalad meetup","url":"https://atnd.org/events/25491","shortener_url":null,"started_at":"2012-02-18T04:00:00.000+09:00","ended_at":"2012-02-18T06:00:00.000+09:00","limit_number":5,"address":"渋谷区千駄ヶ谷4-27-1","place":"株式会社HatchUp　代々木オフィス","lat":35.6806,"lon":139.704,"state":"closed","id":null},{"event_id":"24586","title":"【満員御礼／増員60名】【スマホアプリデザインアワード2012】season1- 美大系デザイナ meets アプリ系スタートアップ -","url":"https://atnd.org/events/24586","shortener_url":null,"started_at":"2012-02-13T10:00:00.000+09:00","ended_at":"2012-02-13T14:00:00.000+09:00","limit_number":69,"address":"東京都渋谷区桜丘町26-1","place":"GMO Yours","lat":35.6565,"lon":139.699,"state":"closed","id":null},{"event_id":"24536","title":"第ニ回 作曲ハッカソン","url":"https://atnd.org/events/24536","shortener_url":null,"started_at":"2012-02-11T06:00:00.000+09:00","ended_at":"2012-02-11T09:00:00.000+09:00","limit_number":6,"address":"180-0004 東京都武蔵野市吉祥寺本町1-25-3","place":"スタジオペンタ吉祥寺ノースサイド","lat":35.7038,"lon":139.582,"state":"closed","id":null},{"event_id":"24765","title":"BeagleBoard をこねくりまわすかい","url":"https://atnd.org/events/24765","shortener_url":null,"started_at":"2012-02-11T02:00:00.000+09:00","ended_at":"2012-02-11T08:00:00.000+09:00","limit_number":9,"address":"大阪市北区中崎西2丁目3番35号","place":"ECCコンピュータ専門学校ECCコンピュータ専門学校3号館4階 3403号室","lat":34.7065,"lon":135.503,"state":"closed","id":null},{"event_id":"24600","title":"日本Androidの会 神戸支部　A3ハッカソン 2012","url":"https://atnd.org/events/24600","shortener_url":null,"started_at":"2012-02-11T02:00:00.000+09:00","ended_at":"2012-02-11T08:00:00.000+09:00","limit_number":40,"address":"大阪市北区中崎西2丁目3番35号","place":"ECCコンピュータ専門学校３号館４階　３４０２号室","lat":34.7065,"lon":135.503,"state":"closed","id":null},{"event_id":"23473","title":"SocialGameJam 第3回目 Unity3DとかHTML5とかFlashで新しいソーシャルゲームを作ろう！","url":"https://atnd.org/events/23473","shortener_url":null,"started_at":"2012-02-11T01:00:00.000+09:00","ended_at":"2012-02-12T09:00:00.000+09:00","limit_number":60,"address":"東京都千代田区神田駿河台2丁目3","place":"デジタルハリウッド大学 御茶ノ水キャンパス","lat":35.7007,"lon":139.761,"state":"closed","id":null},{"event_id":"24301","title":"第８回 Android読書＆開発部 勉強会 2012.2.11","url":"https://atnd.org/events/24301","shortener_url":null,"started_at":"2012-02-11T00:00:00.000+09:00","ended_at":"2012-02-11T03:00:00.000+09:00","limit_number":16,"address":"","place":"各自自宅(オンライン)","lat":null,"lon":null,"state":"closed","id":null},{"event_id":"25103","title":"カーナビ連携アプリ NaviCon タッチ＆トライ、アイデアソン","url":"https://atnd.org/events/25103","shortener_url":null,"started_at":"2012-02-08T04:00:00.000+09:00","ended_at":"2012-02-08T08:30:00.000+09:00","limit_number":30,"address":"東京都港区芝公園2-6-8 日本女子会館ビル3F","place":"ITS Japan","lat":35.6556,"lon":139.751,"state":"closed","id":null},{"event_id":"24340","title":"【即日満員/増員247名】学生スタートアップカンファレンスVo.1 -tetol / facematch / creatty / hhhungry /ヒルカツ -","url":"https://atnd.org/events/24340","shortener_url":null,"started_at":"2012-02-06T10:30:00.000+09:00","ended_at":"2012-02-06T13:00:00.000+09:00","limit_number":247,"address":"東京都渋谷区桜丘町26-1","place":"GMO Yours","lat":35.6565,"lon":139.699,"state":"closed","id":null},{"event_id":"24760","title":"【今回はアプリの発表会です】御徒町から世界へ！スマホアプリで200万円見えてきました！！","url":"https://atnd.org/events/24760","shortener_url":null,"started_at":"2012-02-05T01:00:00.000+09:00","ended_at":"2012-02-05T08:00:00.000+09:00","limit_number":10,"address":"東京都新宿区市谷仲之町4-39","place":"市ヶ谷健保会館会議室","lat":35.6954,"lon":139.724,"state":"closed","id":null},{"event_id":"24617","title":"横浜 Android 勉強会 Hack-a-Party! #10 - A3に向けたアイディアソン＋もくもく","url":"https://atnd.org/events/24617","shortener_url":null,"started_at":"2012-02-04T04:00:00.000+09:00","ended_at":"2012-02-04T09:00:00.000+09:00","limit_number":36,"address":"神奈川県横浜市西区南幸2丁目20-3 東伸24ビル 5F","place":"株式会社アットウェア様　会議室（5F）","lat":35.4648,"lon":139.616,"state":"closed","id":null},{"event_id":"24612","title":"Android アプリ hackathon2 @ 日吉","url":"https://atnd.org/events/24612","shortener_url":null,"started_at":"2012-02-04T01:00:00.000+09:00","ended_at":"2012-02-05T09:00:00.000+09:00","limit_number":6,"address":"横浜市港北区日吉3","place":"日吉スマホ研（仮）","lat":35.5548,"lon":139.655,"state":"closed","id":null},{"event_id":"23788","title":"Androidアプリケーション、デザイナとプログラマのハッカソン vol.2","url":"https://atnd.org/events/23788","shortener_url":null,"started_at":"2012-02-04T01:00:00.000+09:00","ended_at":"2012-02-04T10:00:00.000+09:00","limit_number":10,"address":"東京都渋谷区宇田川町33-6","place":"T's渋谷フラッグ 7階","lat":35.6608,"lon":139.697,"state":"closed","id":null},{"event_id":"23787","title":"Androidアプリケーション、デザイナとプログラマのハッカソン vol.2","url":"https://atnd.org/events/23787","shortener_url":null,"started_at":"2012-02-04T01:00:00.000+09:00","ended_at":"2012-02-04T10:00:00.000+09:00","limit_number":20,"address":"東京都渋谷区宇田川町33-6","place":"T's渋谷フラッグ 7階","lat":35.6608,"lon":139.697,"state":"closed","id":null},{"event_id":"24795","title":"jQueryで作るChrome Extension","url":"https://atnd.org/events/24795","shortener_url":null,"started_at":"2012-02-02T10:00:00.000+09:00","ended_at":"2012-02-04T23:59:59.000+09:00","limit_number":6,"address":"東京都港区北青山3-6-18 共同ビル青山6F","place":"株式会社ゴーガ ","lat":35.6647,"lon":139.712,"state":"closed","id":null},{"event_id":"24970","title":"ボッチソン in ギークハウス沖縄","url":"https://atnd.org/events/24970","shortener_url":null,"started_at":"2012-02-01T15:00:00.000+09:00","ended_at":"2012-02-03T23:59:59.000+09:00","limit_number":1,"address":"沖縄県那覇市古波蔵2丁目18−14","place":"ギークハウス沖縄","lat":26.2001,"lon":127.688,"state":"closed","id":null},{"event_id":"25012","title":"裏と非と反の集合体（合宿仮）。","url":"https://atnd.org/events/25012","shortener_url":null,"started_at":"2012-02-25T10:00:00.000+09:00","ended_at":"2012-02-26T02:00:00.000+09:00","limit_number":10,"address":"東松原辺り","place":"マリコの館","lat":0.0,"lon":0.0,"state":"closed","id":null},{"event_id":"23829","title":"a-blog cms Training Camp in KANMON 2012 Winter","url":"https://atnd.org/events/23829","shortener_url":null,"started_at":"2012-02-10T04:00:00.000+09:00","ended_at":"2012-02-11T03:00:00.000+09:00","limit_number":25,"address":"福岡県北九州市門司区門司3270-8-3","place":"国民宿舎めかり山荘","lat":33.9557,"lon":130.971,"state":"closed","id":null},{"event_id":"23003","title":"高専カンファレンス in 岐阜","url":"https://atnd.org/events/23003","shortener_url":null,"started_at":"2012-02-04T04:00:00.000+09:00","ended_at":"2012-02-04T09:30:00.000+09:00","limit_number":150,"address":"岐阜県大垣市今宿6-52-16","place":"ソフトピアジャパン・ドリームコア 2F メッセ","lat":35.3679,"lon":136.637,"state":"closed","id":null},{"event_id":"23001","title":"Ogaki Developer Day 2012 Winter (ODD2012w)","url":"https://atnd.org/events/23001","shortener_url":null,"started_at":"2012-02-04T04:00:00.000+09:00","ended_at":"2012-02-05T06:00:00.000+09:00","limit_number":60,"address":"岐阜県大垣市今宿6-52-16","place":"ソフトピアジャパン・ドリームコア３F研修室","lat":35.3679,"lon":136.637,"state":"closed","id":null},{"event_id":"24939","title":"世界に通用するスキルを身につけよ！」","url":"https://atnd.org/events/24939","shortener_url":null,"started_at":"2012-02-03T09:30:00.000+09:00","ended_at":"2012-02-14T11:30:00.000+09:00","limit_number":null,"address":"東京都目黒区目黒1-24-12 オリックス目黒ビル 1F","place":"オリックス目黒ビル","lat":35.6344,"lon":139.711,"state":"closed","id":null},{"event_id":"23984","title":"Play, WebSocket and CakePHP mini hack-a-thon 雪山合宿","url":"https://atnd.org/events/23984","shortener_url":null,"started_at":"2012-02-03T04:00:00.000+09:00","ended_at":"2012-02-05T07:00:00.000+09:00","limit_number":4,"address":"長野県須坂市大字仁礼峰の原高原3153-720","place":"ペンション マウンテンパパ","lat":36.5531,"lon":138.35,"state":"closed","id":null},{"event_id":"74","title":"Python mini hack-a-thon 雪山合宿 2012","url":"https://pyhack.connpass.com/event/74/","shortener_url":null,"started_at":"2012-02-03T04:00:40.000+09:00","ended_at":"2012-02-05T02:00:40.000+09:00","limit_number":13,"address":"長野県須坂市大字仁礼峰の原高原3153-720","place":"ペンション マウンテンパパ","lat":36.5531,"lon":138.35,"state":"active","id":null}]