[{"event_id":"421","title":"ありえるえりあミニ勉強会#1 ～Sencha Touch～","url":"https://connpass.com/event/421/","shortener_url":null,"started_at":"2012-04-26T04:00:00.000+09:00","ended_at":"2012-04-26T05:30:00.000+09:00","limit_number":30,"address":"東京都港区六本木4-1-4","place":"アリエル・ネットワーク 会議室(黒崎ビル6階)","lat":35.6655,"lon":139.736,"state":"active","id":null},{"event_id":"392","title":"MOHIKAN NIGHT","url":"https://connpass.com/event/392/","shortener_url":null,"started_at":"2012-04-16T03:00:00.000+09:00","ended_at":"2012-04-16T07:30:00.000+09:00","limit_number":null,"address":"大阪市中央区東心斎橋1-18-11 ＬＩＢＥＲＴＹ心斎橋ビル B1F","place":"心斎橋club☆jungle","lat":34.6738,"lon":135.503,"state":"active","id":null},{"event_id":"28284","title":"[初心者歓迎]4/30に#Bar Androidでもくもくコーディング","url":"https://atnd.org/events/28284","shortener_url":null,"started_at":"2012-04-30T12:00:00.000+09:00","ended_at":"2012-04-30T18:30:00.000+09:00","limit_number":20,"address":"","place":"Bar Android","lat":null,"lon":null,"state":"closed","id":null},{"event_id":"28192","title":"第2回デザイナー x エンジニアハッカソン 発表と懇親会だけの参加枠","url":"https://atnd.org/events/28192","shortener_url":null,"started_at":"2012-04-29T18:00:00.000+09:00","ended_at":"2012-04-29T20:00:00.000+09:00","limit_number":12,"address":"〒102-0083 東京都千代田区麹町三丁目6番地 住友不動産麹町ビル3号館","place":"KDDIウェブコミュニケーションズ様 6Fセミナールーム","lat":35.685,"lon":139.738,"state":"closed","id":null},{"event_id":"26984","title":"第2回デザイナー x エンジニアハッカソン エンジニア枠","url":"https://atnd.org/events/26984","shortener_url":null,"started_at":"2012-04-29T09:30:00.000+09:00","ended_at":"2012-04-29T20:00:00.000+09:00","limit_number":15,"address":"〒102-0083 東京都千代田区麹町三丁目6番地 住友不動産麹町ビル3号館","place":"KDDIウェブコミュニケーションズ様 6Fセミナールーム","lat":35.685,"lon":139.738,"state":"closed","id":null},{"event_id":"26983","title":"第2回デザイナー x エンジニアハッカソン デザイナー枠","url":"https://atnd.org/events/26983","shortener_url":null,"started_at":"2012-04-29T09:30:00.000+09:00","ended_at":"2012-04-29T20:00:00.000+09:00","limit_number":15,"address":"〒102-0083 東京都千代田区麹町三丁目6番地 住友不動産麹町ビル3号館","place":"KDDIウェブコミュニケーションズ様 6Fセミナールーム","lat":35.685,"lon":139.738,"state":"closed","id":null},{"event_id":"26709","title":"Visual Studioハッカソン(ゆるめ)焼肉懇親会","url":"https://atnd.org/events/26709","shortener_url":null,"started_at":"2012-04-28T18:30:00.000+09:00","ended_at":"2012-04-28T20:30:00.000+09:00","limit_number":30,"address":"大阪府大阪市北区小松原町1−16 梅田モコビル 1F","place":"焼肉酒家 牛角 梅田阪急東通り店","lat":34.7026,"lon":135.501,"state":"closed","id":null},{"event_id":"26970","title":"Hachioji.pm #16","url":"https://atnd.org/events/26970","shortener_url":null,"started_at":"2012-04-28T18:00:00.000+09:00","ended_at":"2012-05-01T08:59:59.000+09:00","limit_number":16,"address":"東京都八王子市中町10-14町田ビル2F","place":"タイラーンナー","lat":35.6584,"lon":139.335,"state":"closed","id":null},{"event_id":"27569","title":"STEPPALIFE","url":"https://atnd.org/events/27569","shortener_url":null,"started_at":"2012-04-28T16:00:00.000+09:00","ended_at":"2012-05-01T08:59:59.000+09:00","limit_number":null,"address":"大阪市中央区西心斎橋2-17-3 アーク心斎橋WEST B1F","place":"club AZURE","lat":34.671,"lon":135.497,"state":"closed","id":null},{"event_id":"26853","title":"Windows Phone Hackathon in Tokyo#1","url":"https://atnd.org/events/26853","shortener_url":null,"started_at":"2012-04-28T12:30:00.000+09:00","ended_at":"2012-04-28T18:00:00.000+09:00","limit_number":22,"address":"東京都千代田区三崎町3-10-5 原島第三ビル202","place":"ネコワーキング","lat":35.7011,"lon":139.751,"state":"closed","id":null},{"event_id":"26792","title":"Visual Studioハッカソン(ゆるめ)","url":"https://atnd.org/events/26792","shortener_url":null,"started_at":"2012-04-28T10:15:00.000+09:00","ended_at":"2012-04-28T17:45:00.000+09:00","limit_number":30,"address":"大阪府大阪市中央区北浜4-7-28 住友ビルディング第2号館","place":" IIJ関西支社 ","lat":34.6912,"lon":135.498,"state":"closed","id":null},{"event_id":"27833","title":"第6回 UnityのためのCGとか勉強会","url":"https://atnd.org/events/27833","shortener_url":null,"started_at":"2012-04-28T10:00:00.000+09:00","ended_at":"2012-04-28T23:00:00.000+09:00","limit_number":30,"address":"東京都渋谷区千駄ヶ谷4丁目23 ピクシブ株式会社","place":"ピクシブ株式会社","lat":35.6807,"lon":139.707,"state":"closed","id":null},{"event_id":"26969","title":"Like a ハッカソン #2 (pre Hachioji.pm #16) ","url":"https://atnd.org/events/26969","shortener_url":null,"started_at":"2012-04-28T10:00:00.000+09:00","ended_at":"2012-04-28T17:30:00.000+09:00","limit_number":16,"address":"東京都八王子市子安町4-9","place":"八王子南口ＭＴビル時間貸し会議室","lat":35.6535,"lon":139.338,"state":"closed","id":null},{"event_id":"28214","title":"Webデベロッパーハッカソン","url":"https://atnd.org/events/28214","shortener_url":null,"started_at":"2012-04-27T19:00:00.000+09:00","ended_at":"2012-04-28T15:00:00.000+09:00","limit_number":15,"address":"","place":"PoRTAL Shibuya","lat":null,"lon":null,"state":"closed","id":null},{"event_id":"26105","title":"画像形成機器における紙搬送の基礎とトラブル対策","url":"https://atnd.org/events/26105","shortener_url":null,"started_at":"2012-04-26T12:30:00.000+09:00","ended_at":"2012-04-26T16:30:00.000+09:00","limit_number":30,"address":"東京都江東区亀戸2-19-1","place":"商工情報センター　カメリアプラザ　9F　会議室　【東京・江東区】","lat":35.6976,"lon":139.825,"state":"closed","id":null},{"event_id":"26656","title":"【満員御礼/増員22名】【第4回】yoyogi.rb - Ruby経験のないwebエンジニア向け -","url":"https://atnd.org/events/26656","shortener_url":null,"started_at":"2012-04-25T19:30:00.000+09:00","ended_at":"2012-04-25T21:00:00.000+09:00","limit_number":22,"address":"東京都渋谷区千駄ヶ谷4-27-1 神宮外苑ビル4F","place":"株式会社HatchUp","lat":35.6806,"lon":139.704,"state":"closed","id":null},{"event_id":"27741","title":"ザッカーバーグが大絶賛したあの若きゲームクリエイター集団【forif】によるHackathon For Students 学生向けJavaScript勉強会","url":"https://atnd.org/events/27741","shortener_url":null,"started_at":"2012-04-25T17:00:00.000+09:00","ended_at":"2012-04-25T19:00:00.000+09:00","limit_number":22,"address":"東京都渋谷区千駄ヶ谷4-27-1 神宮外苑ビル4F","place":"株式会社HatchUp","lat":35.6806,"lon":139.704,"state":"closed","id":null},{"event_id":"26650","title":"【満員御礼/34名】【第2回】 yoyogi.fb（代々木facebookアプリ開発勉強会）-初心者向け-","url":"https://atnd.org/events/26650","shortener_url":null,"started_at":"2012-04-24T19:30:00.000+09:00","ended_at":"2012-04-24T21:30:00.000+09:00","limit_number":34,"address":"東京都渋谷区千駄ヶ谷4-27-1 神宮外苑ビル4F","place":"株式会社HatchUp","lat":35.6806,"lon":139.704,"state":"closed","id":null},{"event_id":"26461","title":"【満員御礼／増員75名】ポケラボ社による、配信開始2週間で登録者10万人を突破したiOS向けネイティブソーシャルゲームの秘訣とは！？＆シード・プランニング社によるmobage・GREEのユーザー行動分析調査発表！第9回【マイクロソフトxデジハリ大学院】実践ノウハウ勉強会","url":"https://atnd.org/events/26461","shortener_url":null,"started_at":"2012-04-23T19:30:00.000+09:00","ended_at":"2012-04-23T21:00:00.000+09:00","limit_number":75,"address":"東京都千代田区神田駿河台2-3 DH2001Bldg.","place":"デジタルハリウッド東京本校","lat":35.7007,"lon":139.761,"state":"closed","id":null},{"event_id":"27816","title":"Space Apps Challenge Tokyo Award 発表会","url":"https://atnd.org/events/27816","shortener_url":null,"started_at":"2012-04-22T14:30:00.000+09:00","ended_at":"2012-04-22T19:00:00.000+09:00","limit_number":50,"address":"東京都目黒区駒場4-6-1","place":"東京大学駒場リサーチキャンパス、コンベンション・ホール","lat":35.6624,"lon":139.677,"state":"closed","id":null},{"event_id":"26962","title":"第１４回Jazz触れ合いセッションオフ","url":"https://atnd.org/events/26962","shortener_url":null,"started_at":"2012-04-21T16:30:00.000+09:00","ended_at":"2012-04-21T20:00:00.000+09:00","limit_number":14,"address":"東京都豊島区池袋2-47-3 キウレイコンビルB1","place":"Vivo Sound Studio","lat":35.7344,"lon":139.708,"state":"closed","id":null},{"event_id":"27898","title":"【初心者向け】python,PHP,JavaScriptハッカソン","url":"https://atnd.org/events/27898","shortener_url":null,"started_at":"2012-04-21T12:00:00.000+09:00","ended_at":"2012-04-21T20:00:00.000+09:00","limit_number":10,"address":"東京都渋谷区道玄坂2-28-5 道玄坂秀永ビル","place":"カラNET24渋谷道玄坂店","lat":35.659,"lon":139.697,"state":"closed","id":null},{"event_id":"26921","title":"enchant.js meetup! 東京 vol.2 (#enchantjsmeetup)","url":"https://atnd.org/events/26921","shortener_url":null,"started_at":"2012-04-21T10:30:00.000+09:00","ended_at":"2012-04-21T18:00:00.000+09:00","limit_number":180,"address":"東京都千代田区神田美土代町3-2","place":"TKP神田ビジネスセンター (旧称: スター研修センター神田)","lat":35.6926,"lon":139.766,"state":"closed","id":null},{"event_id":"26980","title":"日本Androidの会 沖縄支部 workshop@Naha Vol.19","url":"https://atnd.org/events/26980","shortener_url":null,"started_at":"2012-04-21T10:00:00.000+09:00","ended_at":"2012-04-21T17:30:00.000+09:00","limit_number":40,"address":"沖縄県那覇市樋川+1-1-77","place":"専門学校 IT カレッジ沖縄 ","lat":26.2108,"lon":127.686,"state":"closed","id":null},{"event_id":"24096","title":"【残3名／全体15名】「目黒アルコタワー4月入居新オフィスに訪問＆飲み会あり！株式会社ドリコムオフィスツアー開催！","url":"https://atnd.org/events/24096","shortener_url":null,"started_at":"2012-04-20T19:30:00.000+09:00","ended_at":"2012-04-20T22:30:00.000+09:00","limit_number":3,"address":"東京都目黒区下目黒1丁目8-1 目黒雅叙園・アルコタワー17F","place":"株式会社ドリコム","lat":35.6274,"lon":139.709,"state":"closed","id":null},{"event_id":"27396","title":"Windows Phone Ideathon in Tokyo#1","url":"https://atnd.org/events/27396","shortener_url":null,"started_at":"2012-04-18T19:00:00.000+09:00","ended_at":"2012-04-18T22:00:00.000+09:00","limit_number":22,"address":"東京都千代田区三崎町3-10-5 原島第三ビル202","place":"ネコワーキング","lat":35.7011,"lon":139.751,"state":"closed","id":null},{"event_id":"27248","title":"MOHIKAN NIGHT","url":"https://atnd.org/events/27248","shortener_url":null,"started_at":"2012-04-15T18:00:00.000+09:00","ended_at":"2012-04-18T08:59:59.000+09:00","limit_number":null,"address":"大阪市中央区東心斎橋1-18-11 LIBERTY心斎橋ビル B1F","place":"心斎橋club☆jungle ","lat":34.6738,"lon":135.503,"state":"closed","id":null},{"event_id":"27388","title":"第2回デザイナー x エンジニアハッカソン デザイナー向け事前勉強会","url":"https://atnd.org/events/27388","shortener_url":null,"started_at":"2012-04-15T14:00:00.000+09:00","ended_at":"2012-04-15T18:00:00.000+09:00","limit_number":15,"address":"東京都渋谷区本町1-36-11 ドエルヤマト 203","place":"合同会社フィヨルド様","lat":35.6815,"lon":139.682,"state":"closed","id":null},{"event_id":"26780","title":"fc jamaous 定例フットサル","url":"https://atnd.org/events/26780","shortener_url":null,"started_at":"2012-04-14T17:00:00.000+09:00","ended_at":"2012-04-14T19:00:00.000+09:00","limit_number":50,"address":"埼玉県戸田市上戸田90","place":"レストフットサルシティ戸田","lat":35.8147,"lon":139.676,"state":"closed","id":null},{"event_id":"27279","title":"Perfume Hackathon","url":"https://atnd.org/events/27279","shortener_url":null,"started_at":"2012-04-14T11:00:00.000+09:00","ended_at":"2012-04-14T19:00:00.000+09:00","limit_number":20,"address":"東京都渋谷区神宮前5-34-4 ジェイハウス B1F","place":"ユニバ株式会社","lat":35.6634,"lon":139.705,"state":"closed","id":null},{"event_id":"26750","title":"第2回 NFCハッカソン","url":"https://atnd.org/events/26750","shortener_url":null,"started_at":"2012-04-14T10:00:00.000+09:00","ended_at":"2012-04-14T19:00:00.000+09:00","limit_number":50,"address":"東京都千代田区有楽町1-7-1","place":"トーマツベンチャーサポート株式会社 様 (有楽町電気ビル17階)","lat":35.6743,"lon":139.761,"state":"closed","id":null},{"event_id":"26574","title":"Windows Phone Hackathon 2012 in Fukui","url":"https://atnd.org/events/26574","shortener_url":null,"started_at":"2012-04-14T10:00:00.000+09:00","ended_at":"2012-04-21T18:00:00.000+09:00","limit_number":20,"address":"福井県坂井市丸岡町熊堂第3号7番地1-16","place":"福井県産業情報センター  システム設計室","lat":36.1099,"lon":136.274,"state":"closed","id":null},{"event_id":"26570","title":"WindowsPhoneハッカソンin広島Vol2","url":"https://atnd.org/events/26570","shortener_url":null,"started_at":"2012-04-14T10:00:00.000+09:00","ended_at":"2012-04-14T16:30:00.000+09:00","limit_number":25,"address":"広島市中区千田町3丁目7-47","place":"広島情報プラザ第３研修室","lat":34.3771,"lon":132.454,"state":"closed","id":null},{"event_id":"26749","title":"第2回 NFCアイデアソン","url":"https://atnd.org/events/26749","shortener_url":null,"started_at":"2012-04-13T19:00:00.000+09:00","ended_at":"2012-04-13T21:00:00.000+09:00","limit_number":50,"address":"東京都千代田区有楽町1-7-1","place":"トーマツベンチャーサポート株式会社 様 (有楽町電気ビル17階)","lat":35.6743,"lon":139.761,"state":"closed","id":null},{"event_id":"27653","title":"Windows Phone ハンズオン in　広島 vol.8","url":"https://atnd.org/events/27653","shortener_url":null,"started_at":"2012-04-12T19:00:00.000+09:00","ended_at":"2012-04-12T21:00:00.000+09:00","limit_number":20,"address":"広島県広島市中区基町5番61号","place":"広島青少年センター　生活実習室","lat":34.3975,"lon":132.454,"state":"closed","id":null},{"event_id":"27614","title":"第1回 PlayBayHack!","url":"https://atnd.org/events/27614","shortener_url":null,"started_at":"2012-04-12T13:30:00.000+09:00","ended_at":"2012-04-12T21:30:00.000+09:00","limit_number":4,"address":"東京都港区芝浦3丁目14−19 大成企業ビル6F","place":"パズル芝浦","lat":35.6425,"lon":139.748,"state":"closed","id":null},{"event_id":"27643","title":"つくば花ッカソン","url":"https://atnd.org/events/27643","shortener_url":null,"started_at":"2012-04-11T12:00:00.000+09:00","ended_at":"2012-04-14T08:59:59.000+09:00","limit_number":null,"address":"茨城県つくば市春日1丁目2 029-859-1111 ‎","place":"春日キャンパス","lat":36.0885,"lon":140.107,"state":"closed","id":null},{"event_id":"27317","title":"International Space Apps Challenge アイデアソン","url":"https://atnd.org/events/27317","shortener_url":null,"started_at":"2012-04-10T19:00:00.000+09:00","ended_at":"2012-04-10T21:30:00.000+09:00","limit_number":50,"address":"東京都渋谷区渋谷二丁目15番1号 渋谷クロスタワー28階","place":"デンソーITラボラトリー（http://www.d-itlab.co.jp/officemap） ","lat":35.6594,"lon":139.708,"state":"closed","id":null},{"event_id":"26855","title":"渋谷ハッカソン","url":"https://atnd.org/events/26855","shortener_url":null,"started_at":"2012-04-08T14:00:00.000+09:00","ended_at":"2012-04-08T20:00:00.000+09:00","limit_number":10,"address":"〒155-0033 東京都世田谷区代田6-11-14 下北沢オープンソースCafe","place":"下北沢OSSカフェ","lat":35.6601,"lon":139.663,"state":"closed","id":null},{"event_id":"27521","title":"【初心者向け】Macの開発環境構築・スクレイピングハッカソン＆懇談会","url":"https://atnd.org/events/27521","shortener_url":null,"started_at":"2012-04-08T13:00:00.000+09:00","ended_at":"2012-04-08T18:00:00.000+09:00","limit_number":9,"address":"〒110-0005 東京都千代田区外神田6丁目11−14","place":"秋葉原―はんだづけカフェ","lat":35.7042,"lon":139.771,"state":"closed","id":null},{"event_id":"26140","title":"【企業に勝手にスマートフォンアプリを提案するべし！】爆裂集団オカバレーだよーーー！！vol.2","url":"https://atnd.org/events/26140","shortener_url":null,"started_at":"2012-04-01T10:00:00.000+09:00","ended_at":"2012-04-01T17:00:00.000+09:00","limit_number":10,"address":"東京都新宿区市谷仲之町4-39","place":"市ヶ谷健保会館会議室","lat":35.6954,"lon":139.724,"state":"closed","id":null},{"event_id":"27143","title":"ゆふいん de 温泉合宿","url":"https://atnd.org/events/27143","shortener_url":null,"started_at":"2012-04-28T11:00:00.000+09:00","ended_at":"2012-04-30T12:00:00.000+09:00","limit_number":20,"address":"大分県由布市湯布院町川上3374","place":"日本文理大学　湯布院研修所","lat":33.2756,"lon":131.351,"state":"closed","id":null},{"event_id":"25451","title":"a-blog cms Training Camp 2012 Spring","url":"https://atnd.org/events/25451","shortener_url":null,"started_at":"2012-04-20T13:00:00.000+09:00","ended_at":"2012-04-21T12:00:00.000+09:00","limit_number":38,"address":"愛知県知多郡南知多町大字師崎字高岩57","place":"師崎荘","lat":34.7012,"lon":136.967,"state":"closed","id":null}]