[{"event_id":"674","title":"懇親会；InfiniBand Hack-a-thon[01]","url":"https://connpass.com/event/674/","shortener_url":null,"started_at":"2012-06-30T18:30:00.000+09:00","ended_at":"2012-06-30T20:30:00.000+09:00","limit_number":35,"address":"東京都港区北青山2-3-1 青山シーアイプラザ1F","place":"北の家族 青山店","lat":35.6721,"lon":139.72,"state":"active","id":null},{"event_id":"545","title":"(第20回)Python mini Hack-a-thon","url":"https://pyhack.connpass.com/event/545/","shortener_url":null,"started_at":"2012-06-23T11:00:00.000+09:00","ended_at":"2012-06-23T19:00:00.000+09:00","limit_number":30,"address":"東京都港区六本木4-1-4","place":"アリエル・ネットワーク 会議室(黒崎ビル6階)","lat":35.6655,"lon":139.736,"state":"active","id":null},{"event_id":"29833","title":"Windows Phone Hackathon in Tokyo#3","url":"https://atnd.org/events/29833","shortener_url":null,"started_at":"2012-06-30T12:30:00.000+09:00","ended_at":"2012-06-30T18:00:00.000+09:00","limit_number":24,"address":"東京都千代田区三崎町3-10-5 原島第三ビル202","place":"ネコワーキング","lat":35.7011,"lon":139.751,"state":"closed","id":null},{"event_id":"29681","title":"【第4回】SmartHacks - スマートフォンブラウザ技術勉強会 - ～ スマートフォン上で動くhtml5 + CSS3 + Javascriptについてhackathon形式で学びます ～","url":"https://atnd.org/events/29681","shortener_url":null,"started_at":"2012-06-28T19:30:00.000+09:00","ended_at":"2012-06-28T21:00:00.000+09:00","limit_number":22,"address":"東京都渋谷区千駄ヶ谷4-27-1 神宮外苑ビル4F","place":"株式会社HatchUp","lat":35.6807,"lon":139.704,"state":"closed","id":null},{"event_id":"30392","title":"XYZステージメカハッカソン","url":"https://atnd.org/events/30392","shortener_url":null,"started_at":"2012-06-27T21:30:00.000+09:00","ended_at":"2012-06-27T23:30:00.000+09:00","limit_number":3,"address":"徳島県徳島市城東4-2-5-206","place":"秘密結社オープンフォース　秘密基地","lat":34.0743,"lon":134.578,"state":"closed","id":null},{"event_id":"29679","title":"（中止）【第3回】ザッカーバーグが大絶賛したゲームクリエイター集団【forif】による学生向けJavaScript勉強会","url":"https://atnd.org/events/29679","shortener_url":null,"started_at":"2012-06-26T17:00:00.000+09:00","ended_at":"2012-06-29T08:59:59.000+09:00","limit_number":10,"address":"東京都渋谷区千駄ヶ谷4-27-1 神宮外苑ビル4F","place":"株式会社HatchUp","lat":35.6806,"lon":139.704,"state":"closed","id":null},{"event_id":"29214","title":"【無料】コラボ企画＿ EC2+PHPスクレイピングのサンプルを使った Heroku+Scala+Playのハンズオン＆ハッカソン","url":"https://atnd.org/events/29214","shortener_url":null,"started_at":"2012-06-24T12:30:00.000+09:00","ended_at":"2012-06-24T18:30:00.000+09:00","limit_number":1,"address":"〒100-6919 東京都千代田区丸の内2-6-1","place":"パソナテック(丸の内パークビル) 本社19F　研修室","lat":35.6791,"lon":139.763,"state":"closed","id":null},{"event_id":"29831","title":"dotcloudユーザ会（仮称） 第0.1回","url":"https://atnd.org/events/29831","shortener_url":null,"started_at":"2012-06-23T22:00:00.000+09:00","ended_at":"2012-06-24T05:00:00.000+09:00","limit_number":8,"address":"東京都新宿区新宿2-3-8","place":"    bar 16SHOTS (新宿) http://16shots.jp/i/ http://www.google.co.jp/maps/ms?msa=0\u0026msid=208718692733063252317.0004bd7dd2f2d98515578 https://ja.foursquare.com/v/16shots/4b55a444f964a52021ea27e3　googlemapはずれていますのでご注意ください。 ","lat":35.6901,"lon":139.708,"state":"closed","id":null},{"event_id":"29564","title":"[Perl]Kyoto.pm 町家ハッカソン 01 懇親会 #kyotopm","url":"https://atnd.org/events/29564","shortener_url":null,"started_at":"2012-06-23T19:30:00.000+09:00","ended_at":"2012-06-26T08:59:59.000+09:00","limit_number":20,"address":"京都市上京区福大明神町128","place":"京都リサーチパーク 町家スタジオ","lat":35.0255,"lon":135.751,"state":"closed","id":null},{"event_id":"29728","title":"Hachioji.pm #18","url":"https://atnd.org/events/29728","shortener_url":null,"started_at":"2012-06-23T18:00:00.000+09:00","ended_at":"2012-06-26T08:59:59.000+09:00","limit_number":16,"address":"東京都八王子市明神町3-11-13","place":"未定","lat":35.6553,"lon":139.344,"state":"closed","id":null},{"event_id":"29744","title":"Windows Phone 7 ハッカソン in 名古屋","url":"https://atnd.org/events/29744","shortener_url":null,"started_at":"2012-06-23T13:00:00.000+09:00","ended_at":"2012-06-23T18:00:00.000+09:00","limit_number":40,"address":"名古屋市中区金山5丁目11-6","place":"名古屋ソフトウェアセンター","lat":35.1449,"lon":136.911,"state":"closed","id":null},{"event_id":"29563","title":"[Perl]Kyoto.pm 町家ハッカソン 01 #kyotopm","url":"https://atnd.org/events/29563","shortener_url":null,"started_at":"2012-06-23T13:00:00.000+09:00","ended_at":"2012-06-23T19:30:00.000+09:00","limit_number":20,"address":"京都市上京区福大明神町128","place":"京都リサーチパーク 町家スタジオ","lat":35.0255,"lon":135.751,"state":"closed","id":null},{"event_id":"29729","title":"Like a ハッカソン #3 (pre Hachioji.pm #18)","url":"https://atnd.org/events/29729","shortener_url":null,"started_at":"2012-06-23T11:00:00.000+09:00","ended_at":"2012-06-23T18:00:00.000+09:00","limit_number":19,"address":"東京都八王子市子安町1-3-16","place":"八王子南口ＭＴビル時間貸し会議室","lat":35.6536,"lon":139.34,"state":"closed","id":null},{"event_id":"29195","title":"enchant.js meetup! 大阪 vol.2","url":"https://atnd.org/events/29195","shortener_url":null,"started_at":"2012-06-22T18:30:00.000+09:00","ended_at":"2012-06-22T20:30:00.000+09:00","limit_number":30,"address":"大阪市東淀川区東中島1丁目18番27号","place":"ジャパンライフ新丸ビル新館904号室","lat":34.7329,"lon":135.503,"state":"closed","id":null},{"event_id":"30091","title":"【初心者向け】Python、PHP、JavaScriptハッカソン　～時々チェス～","url":"https://atnd.org/events/30091","shortener_url":null,"started_at":"2012-06-17T11:30:00.000+09:00","ended_at":"2012-06-17T18:30:00.000+09:00","limit_number":5,"address":"東京都渋谷区神宮前3-22-12","place":"THE TERMINAL","lat":35.6705,"lon":139.707,"state":"closed","id":null},{"event_id":"28979","title":"Mono Party \u0026DTM勉強会　","url":"https://atnd.org/events/28979","shortener_url":null,"started_at":"2012-06-16T19:30:00.000+09:00","ended_at":"2012-06-16T23:30:00.000+09:00","limit_number":20,"address":"豊島区東池袋3-9-13","place":"Ｒｏｏｂｉｋ　ｈｏｕｓｅ","lat":35.7324,"lon":139.718,"state":"closed","id":null},{"event_id":"29103","title":"第１６回ジャズ触れ合いセッションオフ","url":"https://atnd.org/events/29103","shortener_url":null,"started_at":"2012-06-16T17:30:00.000+09:00","ended_at":"2012-06-16T21:00:00.000+09:00","limit_number":18,"address":"東京都豊島区南池袋1-26-9第2MYTビル 9階","place":"music studio フォルテ　池袋店","lat":35.7249,"lon":139.72,"state":"closed","id":null},{"event_id":"29988","title":"NFCと仕事術。","url":"https://atnd.org/events/29988","shortener_url":null,"started_at":"2012-06-16T14:30:00.000+09:00","ended_at":"2012-06-16T17:00:00.000+09:00","limit_number":6,"address":"中央区八重洲2-4-6","place":"RFID/NFC Real Touch Shop","lat":35.6783,"lon":139.769,"state":"closed","id":null},{"event_id":"29739","title":"高専ハッカソン #0","url":"https://atnd.org/events/29739","shortener_url":null,"started_at":"2012-06-16T13:00:00.000+09:00","ended_at":"2012-06-16T18:00:00.000+09:00","limit_number":null,"address":"三重県鈴鹿市白子町","place":"GH鈴鹿","lat":34.8375,"lon":136.587,"state":"closed","id":null},{"event_id":"29280","title":"日本Androidの会 沖縄支部 workshop@Naha Vol.23","url":"https://atnd.org/events/29280","shortener_url":null,"started_at":"2012-06-16T10:00:00.000+09:00","ended_at":"2012-06-16T17:30:00.000+09:00","limit_number":20,"address":"沖縄県那覇市樋川+1-1-77","place":"専門学校 IT カレッジ沖縄","lat":26.2108,"lon":127.686,"state":"closed","id":null},{"event_id":"29267","title":"おめでてー研究室紹介プレゼン大会","url":"https://atnd.org/events/29267","shortener_url":null,"started_at":"2012-06-14T14:30:00.000+09:00","ended_at":"2012-06-17T08:59:59.000+09:00","limit_number":40,"address":"","place":"静岡大学情報学部情報棟2号館情23教室","lat":null,"lon":null,"state":"closed","id":null},{"event_id":"29869","title":"第1回 お絵描きカンファレンス","url":"https://atnd.org/events/29869","shortener_url":null,"started_at":"2012-06-10T12:00:00.000+09:00","ended_at":"2012-06-10T20:00:00.000+09:00","limit_number":5,"address":"京都府京都市左京区","place":"ぬぴやまハウス","lat":35.0486,"lon":135.779,"state":"closed","id":null},{"event_id":"29812","title":"Androidハッカソン@大阪　懇親会！","url":"https://atnd.org/events/29812","shortener_url":null,"started_at":"2012-06-09T19:00:00.000+09:00","ended_at":"2012-06-09T21:00:00.000+09:00","limit_number":10,"address":"大阪府吹田市豊津町9-16 第一ロンヂェビルB1F","place":"土筆んぼう　江坂駅前店","lat":34.7583,"lon":135.497,"state":"closed","id":null},{"event_id":"29749","title":"四国GTUG #25 GAEわいわい会","url":"https://atnd.org/events/29749","shortener_url":null,"started_at":"2012-06-09T13:00:00.000+09:00","ended_at":"2012-06-09T17:00:00.000+09:00","limit_number":10,"address":"香川県高松市サンポート2番1","place":"e-とぴあ・かがわ クラスルームＡ","lat":34.3525,"lon":134.047,"state":"closed","id":null},{"event_id":"28838","title":"Community Open Day 2012 名古屋会場 #cod2012jp","url":"https://atnd.org/events/28838","shortener_url":null,"started_at":"2012-06-09T10:30:00.000+09:00","ended_at":"2012-06-09T21:00:00.000+09:00","limit_number":42,"address":"愛知県名古屋市西区牛島町 6-1","place":"名古屋ルーセントタワー 21F マイクロソフト 中部支店 (名古屋) セミナールーム","lat":35.1749,"lon":136.881,"state":"closed","id":null},{"event_id":"28658","title":"Androidハッカソン@大阪","url":"https://atnd.org/events/28658","shortener_url":null,"started_at":"2012-06-09T10:00:00.000+09:00","ended_at":"2012-06-09T18:00:00.000+09:00","limit_number":30,"address":"大阪府吹田市豊津町9-1 パシフィックマークス江坂","place":"TIS株式会社(19Fセミナールーム)","lat":34.7596,"lon":135.496,"state":"closed","id":null},{"event_id":"29428","title":"【UEC】Android道第3回【Android】 #AndroidTao3","url":"https://atnd.org/events/29428","shortener_url":null,"started_at":"2012-06-03T12:30:00.000+09:00","ended_at":"2012-06-03T18:00:00.000+09:00","limit_number":50,"address":"〒182-0021  東京都調布市調布ケ丘1丁目5−1","place":"電気通信大学　西9-102","lat":35.6557,"lon":139.544,"state":"closed","id":null},{"event_id":"28878","title":"学生起業セミナー","url":"https://atnd.org/events/28878","shortener_url":null,"started_at":"2012-06-02T18:45:00.000+09:00","ended_at":"2012-06-02T20:45:00.000+09:00","limit_number":60,"address":"東京都港区赤坂2-5-1 東邦ビルディング 6F","place":"クラブハウス会議室  赤坂","lat":35.6731,"lon":139.739,"state":"closed","id":null},{"event_id":"28990","title":"第0x02回 ミニ四駆ハッカソン","url":"https://atnd.org/events/28990","shortener_url":null,"started_at":"2012-06-02T14:00:00.000+09:00","ended_at":"2012-06-02T17:30:00.000+09:00","limit_number":1,"address":"","place":"","lat":null,"lon":null,"state":"closed","id":null},{"event_id":"29601","title":"【KINECT Hackathon】～最新技術を採用して次世代サービスを開発せよ～","url":"https://atnd.org/events/29601","shortener_url":null,"started_at":"2012-06-01T19:00:00.000+09:00","ended_at":"2012-06-01T21:00:00.000+09:00","limit_number":20,"address":"東京都品川区東品川2-2-28-2F","place":"Samurai Startup Island","lat":35.6218,"lon":139.749,"state":"closed","id":null},{"event_id":"29136","title":"第１４回　オープンラボ備後","url":"https://atnd.org/events/29136","shortener_url":null,"started_at":"2012-06-30T13:00:00.000+09:00","ended_at":"2012-07-01T13:00:00.000+09:00","limit_number":25,"address":"広島県府中市府中町754-2","place":"府中ノアンテナ","lat":34.5754,"lon":133.23,"state":"closed","id":null},{"event_id":"29992","title":"6/21(木)熱中症予防対策（スポーツ中の子ども）","url":"https://atnd.org/events/29992","shortener_url":null,"started_at":"2012-06-21T11:00:00.000+09:00","ended_at":"2012-06-21T13:30:00.000+09:00","limit_number":10,"address":"東京都渋谷区神宮前5-6-14","place":"表参道スタジオ(HALSER TOKYO内)","lat":35.6658,"lon":139.708,"state":"closed","id":null},{"event_id":"29991","title":"6/21(木)熱中症予防対策（スポーツ中の子ども）","url":"https://atnd.org/events/29991","shortener_url":null,"started_at":"2012-06-21T11:00:00.000+09:00","ended_at":"2012-06-21T13:30:00.000+09:00","limit_number":10,"address":"東京都渋谷区神宮前5-6-14","place":"表参道スタジオ(HALSER TOKYO内)","lat":35.6658,"lon":139.708,"state":"closed","id":null},{"event_id":"29400","title":"アカリクITインターンイベント","url":"https://atnd.org/events/29400","shortener_url":null,"started_at":"2012-06-16T13:00:00.000+09:00","ended_at":"2012-06-16T19:00:00.000+09:00","limit_number":70,"address":"東京都港区芝公園2-4-1","place":"AP浜松町","lat":35.6555,"lon":139.752,"state":"closed","id":null},{"event_id":"29634","title":"日本Androidの会 大分支部 第14回勉強会","url":"https://atnd.org/events/29634","shortener_url":null,"started_at":"2012-06-09T15:00:00.000+09:00","ended_at":"2012-06-09T18:00:00.000+09:00","limit_number":18,"address":"大分県大分市府内町1丁目5-38","place":"コンパルホール 601会議室","lat":33.2355,"lon":131.611,"state":"closed","id":null},{"event_id":"29494","title":"圧倒的成長を遂げる超体験型グループワーク！！ in 京都","url":"https://atnd.org/events/29494","shortener_url":null,"started_at":"2012-06-08T16:00:00.000+09:00","ended_at":"2012-06-10T18:00:00.000+09:00","limit_number":12,"address":"京都府京都市伏見区小栗栖牛ケ淵町37−29","place":"めいマンマ","lat":34.9493,"lon":135.807,"state":"closed","id":null},{"event_id":"29202","title":"京大生のための「アプリ開発セミナー」","url":"https://atnd.org/events/29202","shortener_url":null,"started_at":"2012-06-02T16:00:00.000+09:00","ended_at":"2012-06-02T19:00:00.000+09:00","limit_number":100,"address":"京都市左京区吉田本町","place":"京都大学百周年時計台記念館　国際交流ホールⅢ ","lat":35.028,"lon":135.785,"state":"closed","id":null},{"event_id":"28783","title":"市川ブログ合宿","url":"https://atnd.org/events/28783","shortener_url":null,"started_at":"2012-06-02T11:00:00.000+09:00","ended_at":"2012-06-02T17:00:00.000+09:00","limit_number":13,"address":"〒272-0025 千葉県市川市大和田3-18-3 1F","place":"花RiRo事務所","lat":35.7182,"lon":139.919,"state":"closed","id":null},{"event_id":"28572","title":"０からのプログラミング合宿 in 京都","url":"https://atnd.org/events/28572","shortener_url":null,"started_at":"2012-06-02T11:00:00.000+09:00","ended_at":"2012-06-03T16:00:00.000+09:00","limit_number":15,"address":"京都市北区紫野郷ノ上町42","place":"ソーシャルシェアハウス　めいちゃんち","lat":35.0379,"lon":135.737,"state":"closed","id":null}]