[{"event_id":"1085","title":"日本OpenStackユーザ会 第8回勉強会","url":"https://openstack-jp.connpass.com/event/1085/","shortener_url":null,"started_at":"2012-10-06T13:00:00.000+09:00","ended_at":"2012-10-06T19:00:00.000+09:00","limit_number":20,"address":"東京都千代田区神田佐久間町3-6 (M's WORKS BLDG 2F)","place":"クリエーションライン","lat":35.6973,"lon":139.778,"state":"active","id":null},{"event_id":"1259","title":"元住吉ハッカソン vol.12","url":"https://connpass.com/event/1259/","shortener_url":null,"started_at":"2012-10-28T10:00:00.000+09:00","ended_at":"2012-10-28T22:00:00.000+09:00","limit_number":10,"address":"東京都千代田区神田紺屋町37 今井ビル2F","place":"ギークハウス神田秋葉原","lat":35.693,"lon":139.774,"state":"active","id":null},{"event_id":"1187","title":"元住吉ハッカソン vol.10","url":"https://connpass.com/event/1187/","shortener_url":null,"started_at":"2012-10-14T10:00:00.000+09:00","ended_at":"2012-10-14T22:00:00.000+09:00","limit_number":10,"address":"東京都千代田区神田紺屋町37 今井ビル2F","place":"ギークハウス神田秋葉原","lat":35.693,"lon":139.774,"state":"active","id":null},{"event_id":"1220","title":"元住吉ハッカソン vol.11","url":"https://connpass.com/event/1220/","shortener_url":null,"started_at":"2012-10-21T10:00:00.000+09:00","ended_at":"2012-10-21T22:00:00.000+09:00","limit_number":10,"address":"東京都千代田区神田紺屋町37 今井ビル2F","place":"ギークハウス神田秋葉原","lat":35.693,"lon":139.774,"state":"active","id":null},{"event_id":"1123","title":"元住吉ハッカソン vol.9","url":"https://connpass.com/event/1123/","shortener_url":null,"started_at":"2012-10-07T10:00:00.000+09:00","ended_at":"2012-10-07T22:00:00.000+09:00","limit_number":10,"address":"東京都千代田区神田紺屋町37 今井ビル2F","place":"ギークハウス神田秋葉原","lat":35.693,"lon":139.774,"state":"active","id":null},{"event_id":"1059","title":"Fukuoka NFC Hack 5","url":"https://connpass.com/event/1059/","shortener_url":null,"started_at":"2012-10-20T10:00:00.000+09:00","ended_at":"2012-10-20T19:00:00.000+09:00","limit_number":15,"address":"福岡県福岡県福岡市中央区大名1丁目14-28 (紺屋2023　第一松村ビル302号室)","place":"AIP cafe","lat":33.5876,"lon":130.395,"state":"active","id":null},{"event_id":"33615","title":"第8回 Anti Censorship Hackathon #hackACTA","url":"https://atnd.org/events/33615","shortener_url":null,"started_at":"2012-10-28T09:00:00.000+09:00","ended_at":"2012-10-28T13:00:00.000+09:00","limit_number":10,"address":"東京都千代田区外神田3-11-3","place":"Cafe\u0026Bar SIXTEEN","lat":35.7006,"lon":139.771,"state":"closed","id":null},{"event_id":"33045","title":"第73回よちよちAndroid開発ミーティング","url":"https://atnd.org/events/33045","shortener_url":null,"started_at":"2012-10-28T00:00:00.000+09:00","ended_at":"2012-10-28T03:00:00.000+09:00","limit_number":null,"address":"東京都品川区大崎1-11-1","place":"ゲートシティ大崎B1アトリウムフリー座席","lat":35.6194,"lon":139.731,"state":"closed","id":null},{"event_id":"33158","title":"音楽スタートアップカンファレンス","url":"https://atnd.org/events/33158","shortener_url":null,"started_at":"2012-10-25T10:00:00.000+09:00","ended_at":"2012-10-25T12:30:00.000+09:00","limit_number":50,"address":"東京都品川区東品川2-2-28-2F","place":"Samurai Startup Island","lat":35.6218,"lon":139.749,"state":"closed","id":null},{"event_id":"33331","title":"第7回 Anti Censorship Hackathon #hackACTA","url":"https://atnd.org/events/33331","shortener_url":null,"started_at":"2012-10-21T09:00:00.000+09:00","ended_at":"2012-10-21T13:00:00.000+09:00","limit_number":10,"address":"東京都千代田区外神田3-2-13 山口ビルB1F","place":"JAM Akihabara","lat":35.7004,"lon":139.77,"state":"closed","id":null},{"event_id":"33044","title":"第72回よちよちAndroid開発ミーティング","url":"https://atnd.org/events/33044","shortener_url":null,"started_at":"2012-10-21T00:00:00.000+09:00","ended_at":"2012-10-21T03:00:00.000+09:00","limit_number":null,"address":"東京都品川区大崎1-11-1","place":"ゲートシティ大崎B1アトリウムフリー座席","lat":35.6194,"lon":139.731,"state":"closed","id":null},{"event_id":"32297","title":"スマートフォンアプリ　Creator'sPARK　（2012神無月の巻）　＠JamGarage byGoodia × 名古屋Lab","url":"https://atnd.org/events/32297","shortener_url":null,"started_at":"2012-10-20T04:30:00.000+09:00","ended_at":"2012-10-20T07:30:00.000+09:00","limit_number":40,"address":"愛知県名古屋市中区錦2丁目17-28","place":"JamGarage　（CK15伏見ビル4階）","lat":35.1689,"lon":136.898,"state":"closed","id":null},{"event_id":"32470","title":"Unityハッカソン２Days","url":"https://atnd.org/events/32470","shortener_url":null,"started_at":"2012-10-20T01:00:00.000+09:00","ended_at":"2012-10-20T08:45:00.000+09:00","limit_number":35,"address":"大阪府大阪市中央区北浜4-7-28","place":"IIJ関西支社 住友ビルディング第2号館","lat":34.6912,"lon":135.498,"state":"closed","id":null},{"event_id":"33048","title":"第6回 Anti Censorship Hackathon #hackACTA","url":"https://atnd.org/events/33048","shortener_url":null,"started_at":"2012-10-14T09:00:00.000+09:00","ended_at":"2012-10-14T13:00:00.000+09:00","limit_number":10,"address":"東京都千代田区外神田3-2-13 山口ビルB1F","place":"JAM Akihabara","lat":35.7004,"lon":139.77,"state":"closed","id":null},{"event_id":"33043","title":"第71回よちよちAndroid開発ミーティング","url":"https://atnd.org/events/33043","shortener_url":null,"started_at":"2012-10-14T00:00:00.000+09:00","ended_at":"2012-10-16T23:59:59.000+09:00","limit_number":null,"address":"東京都品川区大崎1-11-1","place":"ゲートシティ大崎B1アトリウムフリー座席","lat":35.6194,"lon":139.731,"state":"closed","id":null},{"event_id":"32639","title":"Windows Phone 7 ハッカソン in 名古屋","url":"https://atnd.org/events/32639","shortener_url":null,"started_at":"2012-10-13T04:00:00.000+09:00","ended_at":"2012-10-13T08:30:00.000+09:00","limit_number":30,"address":"愛知県名古屋市中区金山五丁目11番6号","place":"名古屋ソフトウェアセンター","lat":35.1449,"lon":136.911,"state":"closed","id":null},{"event_id":"32469","title":"Unityハッカソン２Days","url":"https://atnd.org/events/32469","shortener_url":null,"started_at":"2012-10-13T02:00:00.000+09:00","ended_at":"2012-10-13T07:45:00.000+09:00","limit_number":35,"address":"大阪府大阪市北区鶴野町1-9","place":"グリー株式会社 大阪オフィス","lat":34.7068,"lon":135.501,"state":"closed","id":null},{"event_id":"32262","title":"関西ブロガー伝 \"ブロガソン！\"","url":"https://atnd.org/events/32262","shortener_url":null,"started_at":"2012-10-08T04:30:00.000+09:00","ended_at":"2012-10-08T07:30:00.000+09:00","limit_number":20,"address":"大阪市淀川区十三東1-17-13","place":"水交ビル","lat":34.7195,"lon":135.485,"state":"closed","id":null},{"event_id":"32933","title":"第5回 Anti Censorship Hackathon #hackACTA","url":"https://atnd.org/events/32933","shortener_url":null,"started_at":"2012-10-07T09:00:00.000+09:00","ended_at":"2012-10-07T13:00:00.000+09:00","limit_number":10,"address":"東京都千代田区外神田3-2-13 山口ビルB1F","place":"JAM Akihabara","lat":35.7004,"lon":139.77,"state":"closed","id":null},{"event_id":"32860","title":"第70回よちよちAndroid開発ミーティング","url":"https://atnd.org/events/32860","shortener_url":null,"started_at":"2012-10-07T00:00:00.000+09:00","ended_at":"2012-10-07T03:00:00.000+09:00","limit_number":null,"address":"東京都品川区大崎1-11-1","place":"ゲートシティ大崎B1アトリウムフリー座席","lat":35.6194,"lon":139.731,"state":"closed","id":null},{"event_id":"32304","title":"日本Androidの会 秋葉原支部 ロボット部 第7回 勉強会","url":"https://atnd.org/events/32304","shortener_url":null,"started_at":"2012-10-06T03:00:00.000+09:00","ended_at":"2012-10-06T09:00:00.000+09:00","limit_number":11,"address":"東京都千代田区外神田4-7-3","place":"株式会社若松通商 6F アキバNET館","lat":35.7027,"lon":139.772,"state":"closed","id":null},{"event_id":"32359","title":"ストイック勉強合宿＠モヤモヤハウス","url":"https://atnd.org/events/32359","shortener_url":null,"started_at":"2012-10-13T04:00:00.000+09:00","ended_at":"2012-10-14T09:00:00.000+09:00","limit_number":8,"address":"","place":"モヤモヤハウス＠目白","lat":null,"lon":null,"state":"closed","id":null},{"event_id":"1010","title":"(第24回)Python mini Hack-a-thon","url":"https://pyhack.connpass.com/event/1010/","shortener_url":null,"started_at":"2012-10-20T02:00:00.000+09:00","ended_at":"2012-10-20T10:00:00.000+09:00","limit_number":30,"address":"東京都港区六本木4-1-4","place":"アリエル・ネットワーク 会議室(黒崎ビル6階)","lat":35.6655,"lon":139.736,"state":"active","id":null},{"event_id":"1027","title":"CoronaSDK 勉強会 in 名古屋 10/5","url":"https://connpass.com/event/1027/","shortener_url":null,"started_at":"2012-10-05T09:30:00.000+09:00","ended_at":"2012-10-05T11:30:00.000+09:00","limit_number":20,"address":"名古屋市中村区名駅3-26-8","place":" ヒューマンアカデミー名古屋駅前校","lat":35.1719,"lon":136.885,"state":"active","id":null},{"event_id":"1031","title":"Corona SDK 勉強会 in 塩尻 10/6","url":"https://connpass.com/event/1031/","shortener_url":null,"started_at":"2012-10-06T04:30:00.000+09:00","ended_at":"2012-10-06T07:30:00.000+09:00","limit_number":15,"address":"塩尻市大門一番町12番2号","place":"市民交流センター 会議室２０２","lat":36.112,"lon":137.953,"state":"active","id":null}]