[{"event_id":"1524","title":"Finagle Advent Calendar 2012 (だいたい俺)","url":"https://connpass.com/event/1524/","shortener_url":null,"started_at":"2012-11-30T15:00:00.000+09:00","ended_at":"2012-12-31T14:30:00.000+09:00","limit_number":25,"address":"東京都墨田区江東橋3丁目","place":"錦糸町駅北口界隈のコーヒー屋","lat":35.6946,"lon":139.814,"state":"active","id":null},{"event_id":"1458","title":"元住吉ハッカソン vol.16","url":"https://connpass.com/event/1458/","shortener_url":null,"started_at":"2012-11-25T10:00:00.000+09:00","ended_at":"2012-11-25T22:00:00.000+09:00","limit_number":10,"address":"東京都千代田区神田紺屋町37 今井ビル2F","place":"ギークハウス神田秋葉原","lat":35.693,"lon":139.774,"state":"active","id":null},{"event_id":"1419","title":"[懇親会]InfiniBand mini Hack-a-thon [02]","url":"https://connpass.com/event/1419/","shortener_url":null,"started_at":"2012-11-17T10:00:00.000+09:00","ended_at":"2012-11-18T12:30:00.000+09:00","limit_number":20,"address":"東京都千代田区内神田3-5-1(大蓄ビルB1)","place":"THE 有鳥天酒場","lat":35.6906,"lon":139.769,"state":"active","id":null},{"event_id":"1305","title":"InfiniBand mini Hack-a-thon [02]","url":"https://connpass.com/event/1305/","shortener_url":null,"started_at":"2012-11-17T04:00:00.000+09:00","ended_at":"2012-11-17T09:00:00.000+09:00","limit_number":20,"address":"東京都千代田区内神田3-5-1(大蓄ビルB1)","place":"THE 有鳥天酒場","lat":35.6906,"lon":139.769,"state":"active","id":null},{"event_id":"1332","title":"元住吉ハッカソン vol.14","url":"https://connpass.com/event/1332/","shortener_url":null,"started_at":"2012-11-11T10:00:00.000+09:00","ended_at":"2012-11-11T22:00:00.000+09:00","limit_number":10,"address":"東京都千代田区神田紺屋町37 今井ビル2F","place":"ギークハウス神田秋葉原","lat":35.693,"lon":139.774,"state":"active","id":null},{"event_id":"1364","title":"第3回 RubyMotion もくもく会","url":"https://rubymotionjp.connpass.com/event/1364/","shortener_url":null,"started_at":"2012-11-29T19:30:00.000+09:00","ended_at":"2012-11-29T21:00:00.000+09:00","limit_number":15,"address":"渋谷区北参道4-4-4 (フィールド北参道6F)","place":"MUSE 様","lat":35.6795,"lon":139.704,"state":"active","id":null},{"event_id":"1243","title":"pylons/pyramidはっかそん2012.11","url":"https://pylons.connpass.com/event/1243/","shortener_url":null,"started_at":"2012-11-10T12:00:00.000+09:00","ended_at":"2012-11-10T19:00:00.000+09:00","limit_number":15,"address":"東京都渋谷区代々木4-29-3 西参道梅村ビル4F","place":"トライアックス株式会社 会議室","lat":35.6825,"lon":139.69,"state":"active","id":null},{"event_id":"1270","title":"元住吉ハッカソン vol.13","url":"https://connpass.com/event/1270/","shortener_url":null,"started_at":"2012-11-03T10:00:00.000+09:00","ended_at":"2012-11-03T22:00:00.000+09:00","limit_number":10,"address":"東京都千代田区神田紺屋町37 今井ビル2F","place":"ギークハウス神田秋葉原","lat":35.693,"lon":139.774,"state":"active","id":null},{"event_id":"34349","title":"なんでもハッカソン in 福井","url":"https://atnd.org/events/34349","shortener_url":null,"started_at":"2012-11-25T00:00:00.000+09:00","ended_at":"2012-11-25T09:00:00.000+09:00","limit_number":20,"address":"福井県鯖江市新横江2-3-4","place":"めがね会館7F 株式会社jig.jp セミナースペース","lat":35.9428,"lon":136.199,"state":"closed","id":null},{"event_id":"34130","title":"第77回よちよちAndroid開発ミーティング","url":"https://atnd.org/events/34130","shortener_url":null,"started_at":"2012-11-25T00:00:00.000+09:00","ended_at":"2012-11-25T03:00:00.000+09:00","limit_number":null,"address":"東京都品川区大崎1-11-1","place":"ゲートシティ大崎B1アトリウムフリー座席 ","lat":35.6194,"lon":139.731,"state":"closed","id":null},{"event_id":"33296","title":"第２回関西NFCLab勉強会","url":"https://atnd.org/events/33296","shortener_url":null,"started_at":"2012-11-24T04:00:00.000+09:00","ended_at":"2012-11-24T08:00:00.000+09:00","limit_number":25,"address":"大阪府大阪市北区中崎西1丁目4-12","place":"ECCコンピュータ専門学校3号館2階 3301号室 ","lat":34.7064,"lon":135.504,"state":"closed","id":null},{"event_id":"34129","title":"第76回よちよちAndroid開発ミーティング","url":"https://atnd.org/events/34129","shortener_url":null,"started_at":"2012-11-18T00:00:00.000+09:00","ended_at":"2012-11-18T03:00:00.000+09:00","limit_number":null,"address":"東京都品川区大崎1-11-1","place":"ゲートシティ大崎B1アトリウムフリー座席","lat":35.6194,"lon":139.731,"state":"closed","id":null},{"event_id":"32340","title":"Rails Hackathon in Okinawa（沖縄窓口）","url":"https://atnd.org/events/32340","shortener_url":null,"started_at":"2012-11-17T04:30:00.000+09:00","ended_at":"2012-11-17T08:00:00.000+09:00","limit_number":20,"address":"沖縄県那覇市古波蔵2丁目18−14","place":"ギークハウス沖縄","lat":26.2001,"lon":127.688,"state":"closed","id":null},{"event_id":"33614","title":"Sapporo.cpp \u0026 CLR/H 合同勉強会","url":"https://atnd.org/events/33614","shortener_url":null,"started_at":"2012-11-17T01:30:00.000+09:00","ended_at":"2012-11-17T10:00:00.000+09:00","limit_number":40,"address":"北海道札幌市中央区北 5 条西 2 丁目 5 JR タワーオフィスプラザさっぽろ 20F","place":" マイクロソフト 北海道支店 (札幌) セミナールーム","lat":43.0654,"lon":141.335,"state":"closed","id":null},{"event_id":"33562","title":"Qiita/Kobito Meetup #5","url":"https://atnd.org/events/33562","shortener_url":null,"started_at":"2012-11-16T10:00:00.000+09:00","ended_at":"2012-11-16T12:00:00.000+09:00","limit_number":30,"address":"東京都渋谷区恵比寿南3丁目5番7号","place":"Open Network Lab(代官山DGビル11F)","lat":35.6462,"lon":139.704,"state":"closed","id":null},{"event_id":"33991","title":"第10回 Anti Censorship Hackathon #hackACTA","url":"https://atnd.org/events/33991","shortener_url":null,"started_at":"2012-11-11T09:00:00.000+09:00","ended_at":"2012-11-11T13:00:00.000+09:00","limit_number":10,"address":"東京都千代田区外神田3-11-3","place":"Cafe\u0026Bar SIXTEEN","lat":35.7006,"lon":139.771,"state":"closed","id":null},{"event_id":"33887","title":"第75回よちよちAndroid開発ミーティング","url":"https://atnd.org/events/33887","shortener_url":null,"started_at":"2012-11-11T00:00:00.000+09:00","ended_at":"2012-11-11T03:00:00.000+09:00","limit_number":null,"address":"東京都品川区大崎1-11-1","place":"ゲートシティ大崎B1アトリウムフリー座席","lat":35.6194,"lon":139.731,"state":"closed","id":null},{"event_id":"33714","title":"第74回よちよちAndroid開発ミーティング","url":"https://atnd.org/events/33714","shortener_url":null,"started_at":"2012-11-04T00:00:00.000+09:00","ended_at":"2012-11-04T03:00:00.000+09:00","limit_number":null,"address":"東京都品川区大崎1-11-1","place":"ゲートシティ大崎B1アトリウムフリー座席","lat":35.6194,"lon":139.731,"state":"closed","id":null},{"event_id":"33235","title":"さわってみよう Firefox OS | #FirefoxOSJP #TizenJP #d_hack","url":"https://atnd.org/events/33235","shortener_url":null,"started_at":"2012-11-03T01:00:00.000+09:00","ended_at":"2012-11-03T09:00:00.000+09:00","limit_number":35,"address":"東京都新宿区西新宿2丁目1番1号 新宿三井ビルディング34階","place":"豆蔵トレーニングルーム","lat":35.6919,"lon":139.694,"state":"closed","id":null},{"event_id":"33198","title":"Ogaki Developer Day 2012 fall (ODD2012f)","url":"https://atnd.org/events/33198","shortener_url":null,"started_at":"2012-11-23T04:00:00.000+09:00","ended_at":"2012-11-24T06:00:00.000+09:00","limit_number":50,"address":"大垣市加賀野4丁目1番地7","place":"ソフトピアジャパン・センタービル11F 研修室","lat":35.3676,"lon":136.639,"state":"closed","id":null},{"event_id":"34084","title":"#自宅ラック勉強会 12.0","url":"https://atnd.org/events/34084","shortener_url":null,"started_at":"2012-11-22T23:00:00.000+09:00","ended_at":"2012-11-25T09:00:00.000+09:00","limit_number":1,"address":"","place":"某県某所某温泉","lat":null,"lon":null,"state":"closed","id":null},{"event_id":"32643","title":"a-blog cms Training Camp 2012 Autumn","url":"https://atnd.org/events/32643","shortener_url":null,"started_at":"2012-11-22T04:00:00.000+09:00","ended_at":"2012-11-23T08:00:00.000+09:00","limit_number":30,"address":"名古屋市中村区名駅3-18-5","place":"ベースキャンプ名古屋","lat":35.1728,"lon":136.887,"state":"closed","id":null},{"event_id":"33029","title":"『盤上の夜』合宿読書会","url":"https://atnd.org/events/33029","shortener_url":null,"started_at":"2012-11-17T06:00:00.000+09:00","ended_at":"2012-11-18T00:00:00.000+09:00","limit_number":15,"address":"京都府南丹市園部町新町51-1","place":"かいちや旅館","lat":35.1071,"lon":135.479,"state":"closed","id":null},{"event_id":"1374","title":"しし座流星群観測合宿 and/or hack-a-thon","url":"https://connpass.com/event/1374/","shortener_url":null,"started_at":"2012-11-17T01:00:00.000+09:00","ended_at":"2012-11-18T06:00:00.000+09:00","limit_number":null,"address":"長野県南佐久郡南牧村海ノ口2244","place":"山小屋","lat":35.9894,"lon":138.438,"state":"active","id":null}]