[{"event_id":"1534","title":"第4回 RubyMotion もくもく会","url":"https://rubymotionjp.connpass.com/event/1534/","shortener_url":null,"started_at":"2012-12-19T19:30:00.000+09:00","ended_at":"2012-12-19T21:00:00.000+09:00","limit_number":15,"address":"渋谷区北参道4-4-4 (フィールド北参道6F)","place":"MUSE 様","lat":35.6795,"lon":139.704,"state":"active","id":null},{"event_id":"1569","title":"モトスミHack vol.19","url":"https://connpass.com/event/1569/","shortener_url":null,"started_at":"2012-12-16T01:00:00.000+09:00","ended_at":"2012-12-16T13:00:00.000+09:00","limit_number":10,"address":"東京都千代田区神田紺屋町37 今井ビル2F","place":"ギークハウス神田秋葉原","lat":35.693,"lon":139.774,"state":"active","id":null},{"event_id":"34421","title":"【TechBuzz】【HASKY】年越しUnity in Kagoshima","url":"https://atnd.org/events/34421","shortener_url":null,"started_at":"2012-12-31T13:00:00.000+09:00","ended_at":"2012-12-31T19:00:00.000+09:00","limit_number":10,"address":"鹿児島県鹿児島市名山町9-15 ソフトプラザかごしま","place":"Hatch App Studios Kagoshima Youth【HASKY】","lat":31.5948,"lon":130.559,"state":"closed","id":null},{"event_id":"35458","title":"第82回よちよちAndroid開発ミーティング","url":"https://atnd.org/events/35458","shortener_url":null,"started_at":"2012-12-30T00:00:00.000+09:00","ended_at":"2012-12-30T03:00:00.000+09:00","limit_number":null,"address":"東京都品川区大崎1-11-1","place":"ゲートシティ大崎B1アトリウムフリー座席","lat":35.6194,"lon":139.731,"state":"closed","id":null},{"event_id":"35134","title":"日本Androidの会 関西支部勉強会","url":"https://atnd.org/events/35134","shortener_url":null,"started_at":"2012-12-29T04:00:00.000+09:00","ended_at":"2012-12-29T08:20:00.000+09:00","limit_number":30,"address":"大阪府大阪市北区西天満2丁目6−8","place":"堂島ビルヂング 会議室","lat":34.6956,"lon":135.502,"state":"closed","id":null},{"event_id":"34399","title":"【#TechBuzz】第4回Windows8開発技術勉強会 / WindowsStoreアプリ「Brekky」の苦労 / Windows8アプリの設計で気をつけたい5つのこと #windows8 #game","url":"https://atnd.org/events/34399","shortener_url":null,"started_at":"2012-12-26T10:30:00.000+09:00","ended_at":"2012-12-26T13:00:00.000+09:00","limit_number":80,"address":"東京都新宿区新宿5丁目18番20号","place":"TechBuzzSpace（新宿オミビル4階）","lat":35.694,"lon":139.706,"state":"closed","id":null},{"event_id":"34696","title":"バイナリア充たちのクリスマス会","url":"https://atnd.org/events/34696","shortener_url":null,"started_at":"2012-12-24T01:00:00.000+09:00","ended_at":"2012-12-24T11:00:00.000+09:00","limit_number":15,"address":"東京都豊島区池袋 2-12-11 (三共池袋ビル 4階 401号室)","place":"池袋バイナリ勉強会 ","lat":35.7325,"lon":139.707,"state":"closed","id":null},{"event_id":"33523","title":"Hokkaido.pm#8","url":"https://atnd.org/events/33523","shortener_url":null,"started_at":"2012-12-23T04:30:00.000+09:00","ended_at":"2012-12-23T07:30:00.000+09:00","limit_number":42,"address":"札幌市白石区東札幌5条1丁目1-1","place":"札幌市産業振興センタールーム９","lat":43.0562,"lon":141.386,"state":"closed","id":null},{"event_id":"34279","title":"【TechBuzz】tmlib.js hackthon #1 〜JavaScript をより使いやすく, より便利に, そしてより豊かにをモットーとする「tmlib.js」のハッカソンイベント開催〜","url":"https://atnd.org/events/34279","shortener_url":null,"started_at":"2012-12-23T04:00:00.000+09:00","ended_at":"2012-12-23T09:00:00.000+09:00","limit_number":40,"address":"東京都新宿区新宿5丁目18番20号","place":"Tech Buzz Space（新宿オミビル4階）","lat":35.694,"lon":139.706,"state":"closed","id":null},{"event_id":"35177","title":"第81回よちよちAndroid開発ミーティング","url":"https://atnd.org/events/35177","shortener_url":null,"started_at":"2012-12-23T00:00:00.000+09:00","ended_at":"2012-12-23T03:00:00.000+09:00","limit_number":null,"address":"東京都品川区大崎1-11-1","place":"ゲートシティ大崎B1アトリウムフリー座席","lat":35.6194,"lon":139.731,"state":"closed","id":null},{"event_id":"34925","title":"日本OpenStackユーザ会 第10回勉強会 + 忘年会","url":"https://atnd.org/events/34925","shortener_url":null,"started_at":"2012-12-22T04:00:00.000+09:00","ended_at":"2012-12-22T12:00:00.000+09:00","limit_number":25,"address":"〒101-0025 千代田区神田佐久間町3-6","place":"クリエーションライン株式会社","lat":35.6973,"lon":139.778,"state":"closed","id":null},{"event_id":"34190","title":"Game hack-a-thon #9","url":"https://atnd.org/events/34190","shortener_url":null,"started_at":"2012-12-22T02:00:00.000+09:00","ended_at":"2012-12-22T14:00:00.000+09:00","limit_number":15,"address":"東京都港区六本木6-10-1 六本木ヒルズ森タワー","place":"グリー株式会社 会議室","lat":0.0,"lon":0.0,"state":"closed","id":null},{"event_id":"34410","title":"オープンソースカンファレンス2013 Tokushima 下見旅行ハッカソン","url":"https://atnd.org/events/34410","shortener_url":null,"started_at":"2012-12-21T22:00:00.000+09:00","ended_at":"2012-12-22T13:10:00.000+09:00","limit_number":null,"address":"埼玉県上尾市柏座一丁目1-18","place":"上尾駅","lat":35.9733,"lon":139.588,"state":"closed","id":null},{"event_id":"34718","title":"3 Days of App","url":"https://atnd.org/events/34718","shortener_url":null,"started_at":"2012-12-21T15:00:00.000+09:00","ended_at":"2012-12-24T15:00:00.000+09:00","limit_number":null,"address":"","place":"自宅とかネットとか","lat":null,"lon":null,"state":"closed","id":null},{"event_id":"34933","title":"ウフィカ引越し祝いパーティー","url":"https://atnd.org/events/34933","shortener_url":null,"started_at":"2012-12-18T10:00:00.000+09:00","ended_at":"2012-12-20T23:59:59.000+09:00","limit_number":14,"address":"武蔵小杉駅","place":"株式会社ウフィカ新オフィス","lat":35.5757,"lon":139.66,"state":"closed","id":null},{"event_id":"35025","title":"よちよちAndroid忘年会","url":"https://atnd.org/events/35025","shortener_url":null,"started_at":"2012-12-16T10:00:00.000+09:00","ended_at":"2012-12-16T12:00:00.000+09:00","limit_number":5,"address":"〒160-0022 東京都新宿区新宿3-27-5 ケースリービル5F","place":"情緒個室ダイニング 権 ‐GON‐  新宿東口駅前店","lat":0.0,"lon":0.0,"state":"closed","id":null},{"event_id":"34822","title":"もくもくタブレット","url":"https://atnd.org/events/34822","shortener_url":null,"started_at":"2012-12-16T04:00:00.000+09:00","ended_at":"2012-12-16T11:00:00.000+09:00","limit_number":30,"address":"日本福岡県福岡市中央区大名1−14−28","place":"AIPcafe","lat":33.5876,"lon":130.395,"state":"closed","id":null},{"event_id":"34975","title":"第80回よちよちAndroid開発ミーティング","url":"https://atnd.org/events/34975","shortener_url":null,"started_at":"2012-12-16T00:00:00.000+09:00","ended_at":"2012-12-16T03:00:00.000+09:00","limit_number":null,"address":"東京都品川区大崎1-11-1","place":"ゲートシティ大崎B1アトリウムフリー座席","lat":35.6194,"lon":139.731,"state":"closed","id":null},{"event_id":"33843","title":"PRMLカラオケクラスタひみつ集会Vol.1","url":"https://atnd.org/events/33843","shortener_url":null,"started_at":"2012-12-15T11:30:00.000+09:00","ended_at":"2012-12-15T13:30:00.000+09:00","limit_number":6,"address":"東京都渋谷区道玄坂2-29-11 第6セントラルビル","place":"カラオケの鉄人 渋谷道玄坂店","lat":35.6595,"lon":139.698,"state":"closed","id":null},{"event_id":"34104","title":"Jam Party vol.2【2012年総まとめ！！\u2028iPhoneアプリデベロッパー会議＆忘年会】","url":"https://atnd.org/events/34104","shortener_url":null,"started_at":"2012-12-15T08:00:00.000+09:00","ended_at":"2012-12-15T12:30:00.000+09:00","limit_number":35,"address":"愛知県名古屋市中区錦2丁目17-28 CK15伏見ビル 4F","place":"Jam Garage(ジャムガレージ)","lat":35.1707,"lon":136.899,"state":"closed","id":null},{"event_id":"34820","title":"第79回よちよちAndroid開発ミーティング","url":"https://atnd.org/events/34820","shortener_url":null,"started_at":"2012-12-09T00:00:00.000+09:00","ended_at":"2012-12-09T03:00:00.000+09:00","limit_number":null,"address":"東京都品川区大崎1-11-1","place":"ゲートシティ大崎B1アトリウムフリー座席","lat":35.6194,"lon":139.731,"state":"closed","id":null},{"event_id":"34080","title":"Unityハッカソン２Days - Cool Down -","url":"https://atnd.org/events/34080","shortener_url":null,"started_at":"2012-12-08T02:00:00.000+09:00","ended_at":"2012-12-08T08:00:00.000+09:00","limit_number":30,"address":"大阪府大阪市北区鶴野町1-9","place":"グリー株式会社 大阪オフィス　梅田ゲートタワー10F","lat":34.7068,"lon":135.501,"state":"closed","id":null},{"event_id":"34359","title":"第78回よちよちAndroid開発ミーティング","url":"https://atnd.org/events/34359","shortener_url":null,"started_at":"2012-12-02T00:00:00.000+09:00","ended_at":"2012-12-02T03:00:00.000+09:00","limit_number":null,"address":"東京都品川区大崎1-11-1","place":"ゲートシティ大崎B1アトリウムフリー座席","lat":35.6194,"lon":139.731,"state":"closed","id":null},{"event_id":"33916","title":"2012仙台クロスコミュニティ大忘年会","url":"https://atnd.org/events/33916","shortener_url":null,"started_at":"2012-12-01T10:00:00.000+09:00","ended_at":"2012-12-01T12:00:00.000+09:00","limit_number":100,"address":"宮城県仙台市青葉区一番町4-3-27 ガレリア一番町ビルB1F","place":"ダイニングダーツバー Ｂｅｅ 仙台店","lat":38.263,"lon":140.871,"state":"closed","id":null},{"event_id":"33955","title":"スマートフォンアプリ　Creator'sPARK　（2012師走の巻）　＠JamGarage byGoodia × 名古屋Lab","url":"https://atnd.org/events/33955","shortener_url":null,"started_at":"2012-12-01T08:30:00.000+09:00","ended_at":"2012-12-01T12:00:00.000+09:00","limit_number":40,"address":"愛知県名古屋市中区錦2丁目17-28","place":"JamGarage　（CK15伏見ビル4階）","lat":35.1689,"lon":136.898,"state":"closed","id":null},{"event_id":"33377","title":"iOS Dev ハッカソン 関西 Vol.02 #iosdevthon_kansai","url":"https://atnd.org/events/33377","shortener_url":null,"started_at":"2012-12-01T02:00:00.000+09:00","ended_at":"2012-12-02T03:00:00.000+09:00","limit_number":9,"address":"堺市東区/最寄り駅:南海高野線 萩原天神駅","place":"","lat":0.0,"lon":0.0,"state":"closed","id":null},{"event_id":"34086","title":"市川ブログ合宿 vol.3","url":"https://atnd.org/events/34086","shortener_url":null,"started_at":"2012-12-09T02:00:00.000+09:00","ended_at":"2012-12-09T08:00:00.000+09:00","limit_number":10,"address":"〒272-0025 千葉県市川市大和田3-18-3 1F","place":"花RiRo事務所","lat":35.7182,"lon":139.919,"state":"closed","id":null}]