[{"event_id":"196","title":"(第15回)Python mini Hack-a-thon","url":"https://pyhack.connpass.com/event/196/","shortener_url":null,"started_at":"2012-01-21T02:00:00.000+09:00","ended_at":"2012-01-21T10:00:00.000+09:00","limit_number":30,"address":"東京都港区虎ノ門3-4-7 虎ノ門36森ビル 7階","place":"アリエル・ネットワーク 会議室","lat":35.6662,"lon":139.747,"state":"active","id":null},{"event_id":"23769","title":"YANO YANO SUPER BIRTHDAY PARTY NIGHT vol.8","url":"https://atnd.org/events/23769","shortener_url":null,"started_at":"2012-01-30T14:30:00.000+09:00","ended_at":"2012-01-30T22:00:00.000+09:00","limit_number":100,"address":"東京都新宿区歌舞伎町2ー3ー23","place":"新宿JAM","lat":35.6969,"lon":139.707,"state":"closed","id":null},{"event_id":"24246","title":"GlobalGameJam2012 in 札幌 懇親会","url":"https://atnd.org/events/24246","shortener_url":null,"started_at":"2012-01-29T12:00:00.000+09:00","ended_at":"2012-01-29T14:00:00.000+09:00","limit_number":50,"address":"北海道札幌市中央区南1条西3丁目3 札幌PARCO 8階","place":"YOSHIMI パルコ店","lat":43.0571,"lon":141.34,"state":"closed","id":null},{"event_id":"24311","title":"第４回 デザイナー向けプログラム部（エンジニア枠）","url":"https://atnd.org/events/24311","shortener_url":null,"started_at":"2012-01-29T05:00:00.000+09:00","ended_at":"2012-01-29T09:00:00.000+09:00","limit_number":10,"address":"東京都千代田区麹町三丁目6番地 住友不動産麹町ビル3号 6Fセミナールーム","place":"株式会社KDDIウェブコミュニケーションズ様 セミナールーム ","lat":35.685,"lon":139.738,"state":"closed","id":null},{"event_id":"24310","title":"第４回 デザイナー向けプログラム部（デザイナー枠）","url":"https://atnd.org/events/24310","shortener_url":null,"started_at":"2012-01-29T05:00:00.000+09:00","ended_at":"2012-01-29T09:00:00.000+09:00","limit_number":10,"address":"東京都千代田区麹町三丁目6番地 住友不動産麹町ビル3号 6Fセミナールーム","place":"株式会社KDDIウェブコミュニケーションズ様 セミナールーム","lat":35.685,"lon":139.738,"state":"closed","id":null},{"event_id":"23778","title":"Tokyu.rbハッカソン/もくもく会","url":"https://atnd.org/events/23778","shortener_url":null,"started_at":"2012-01-29T01:00:00.000+09:00","ended_at":"2012-01-31T23:59:59.000+09:00","limit_number":14,"address":"東京都千代田区神田錦町3丁目16-11 エルヴァージュ神田錦町8F","place":"株式会社万葉様　神保町オフィス","lat":35.6936,"lon":139.761,"state":"closed","id":null},{"event_id":"23682","title":"【UEC】Androidアプリ開発祭り【ハッカソン】","url":"https://atnd.org/events/23682","shortener_url":null,"started_at":"2012-01-29T00:00:00.000+09:00","ended_at":"2012-01-29T09:00:00.000+09:00","limit_number":25,"address":"東京都調布市調布ヶ丘1-5-1","place":"電気通信大学学内西9号館102教室","lat":35.6557,"lon":139.544,"state":"closed","id":null},{"event_id":"24385","title":"Windows Phone 全国ハッカソン祭り ～名古屋～ Windows Phone 7 Hackathon in NAGOYA　第2回","url":"https://atnd.org/events/24385","shortener_url":null,"started_at":"2012-01-28T04:00:00.000+09:00","ended_at":"2012-01-28T09:00:00.000+09:00","limit_number":50,"address":"愛知県名古屋市中区錦3丁目24-20","place":"au NAGOYA","lat":35.1691,"lon":136.906,"state":"closed","id":null},{"event_id":"24184","title":"日本Androidの会 中国支部 第26回勉強会","url":"https://atnd.org/events/24184","shortener_url":null,"started_at":"2012-01-28T01:00:00.000+09:00","ended_at":"2012-01-28T08:00:00.000+09:00","limit_number":24,"address":"広島県広島市中区基町5-61","place":"広島市青少年センター 生活実習室(試食室)","lat":34.3975,"lon":132.454,"state":"closed","id":null},{"event_id":"23761","title":"Fukuoka Global Game Jam 2012","url":"https://atnd.org/events/23761","shortener_url":null,"started_at":"2012-01-28T00:00:00.000+09:00","ended_at":"2012-01-29T10:00:00.000+09:00","limit_number":100,"address":"","place":"*","lat":null,"lon":null,"state":"closed","id":null},{"event_id":"23434","title":"新春 Flash ハッカソン大会","url":"https://atnd.org/events/23434","shortener_url":null,"started_at":"2012-01-27T13:00:00.000+09:00","ended_at":"2012-01-27T23:00:00.000+09:00","limit_number":30,"address":"東京都港区西麻布1丁目10-8","place":"Nomad New's Base","lat":35.6609,"lon":139.724,"state":"closed","id":null},{"event_id":"24690","title":"GlobalGameJam2012 大阪","url":"https://atnd.org/events/24690","shortener_url":null,"started_at":"2012-01-27T08:00:00.000+09:00","ended_at":"2012-01-29T09:00:00.000+09:00","limit_number":null,"address":"大阪府大阪市北区角田町8−1","place":"みんな大好き！大阪天空カフェ(梅田阪急ビル15F タリーズコーヒー)前","lat":34.7023,"lon":135.499,"state":"closed","id":null},{"event_id":"23583","title":"GlobalGameJam2012 in 札幌","url":"https://atnd.org/events/23583","shortener_url":null,"started_at":"2012-01-27T07:30:00.000+09:00","ended_at":"2012-01-29T12:00:00.000+09:00","limit_number":70,"address":"北海道札幌市北区北14条西9丁目","place":"北海道大学情報科学研究科棟A21室","lat":43.0763,"lon":141.34,"state":"closed","id":null},{"event_id":"24634","title":"Open Router Community Day","url":"https://atnd.org/events/24634","shortener_url":null,"started_at":"2012-01-27T04:30:00.000+09:00","ended_at":"2012-01-27T08:00:00.000+09:00","limit_number":9,"address":"東京都新宿区西新宿4-33-4 住友不動産西新宿ビル4号館 6F","place":"さくらインターネット研究所セミナールーム","lat":35.6866,"lon":139.689,"state":"closed","id":null},{"event_id":"24503","title":"Chrome Extensionを作ろう！","url":"https://atnd.org/events/24503","shortener_url":null,"started_at":"2012-01-25T10:00:00.000+09:00","ended_at":"2012-01-25T12:00:00.000+09:00","limit_number":6,"address":"東京都港区北青山3-6-18 共同ビル青山6F","place":"株式会社ゴーガ","lat":35.6647,"lon":139.712,"state":"closed","id":null},{"event_id":"69772","title":"2店舗で開催される大規模合コン、パーティです！","url":"https://atnd.org/events/69772","shortener_url":null,"started_at":"2012-01-23T02:50:00.000+09:00","ended_at":"2012-01-25T23:59:59.000+09:00","limit_number":74,"address":"京都市中京区東木屋町通四条上ル下樵木町 199-6 2F","place":"京都","lat":35.0104,"lon":135.751,"state":"closed","id":null},{"event_id":"24240","title":"Online Gentoo Hackathon 2012/01","url":"https://atnd.org/events/24240","shortener_url":null,"started_at":"2012-01-22T00:00:00.000+09:00","ended_at":"2012-01-24T23:59:59.000+09:00","limit_number":null,"address":"","place":"","lat":null,"lon":null,"state":"closed","id":null},{"event_id":"23019","title":"NFCハッカソン","url":"https://atnd.org/events/23019","shortener_url":null,"started_at":"2012-01-21T01:00:00.000+09:00","ended_at":"2012-01-21T10:00:00.000+09:00","limit_number":50,"address":"東京都中央区銀座7-2-6 リクルートアネックス1ビル","place":"リクルート メディアテクノロジーラボ（MTL）Cafe","lat":35.6707,"lon":139.769,"state":"closed","id":null},{"event_id":"23573","title":"NFCアイディアソン","url":"https://atnd.org/events/23573","shortener_url":null,"started_at":"2012-01-20T10:00:00.000+09:00","ended_at":"2012-01-20T12:00:00.000+09:00","limit_number":50,"address":"東京都中央区銀座7-2-6 リクルートアネックス1ビル","place":"リクルート メディアテクノロジーラボ（MTL）Cafe","lat":35.6707,"lon":139.769,"state":"closed","id":null},{"event_id":"24015","title":"第13回日本Androidの会埼玉支部ワークショップ ","url":"https://atnd.org/events/24015","shortener_url":null,"started_at":"2012-01-20T09:00:00.000+09:00","ended_at":"2012-01-20T13:00:00.000+09:00","limit_number":20,"address":"東京都北区王子1丁目11−1","place":"北とぴあ（８階８０６会議室）","lat":35.755,"lon":139.737,"state":"closed","id":null},{"event_id":"23671","title":"第一回 新春作曲ハッカソン","url":"https://atnd.org/events/23671","shortener_url":null,"started_at":"2012-01-15T08:00:00.000+09:00","ended_at":"2012-01-15T11:00:00.000+09:00","limit_number":6,"address":"180-0004 東京都武蔵野市吉祥寺本町1-25-3","place":"スタジオペンタ吉祥寺ノースサイド","lat":35.7038,"lon":139.582,"state":"closed","id":null},{"event_id":"23524","title":" FxUG浜松勉強会","url":"https://atnd.org/events/23524","shortener_url":null,"started_at":"2012-01-14T04:30:00.000+09:00","ended_at":"2012-01-14T08:00:00.000+09:00","limit_number":27,"address":"静岡県浜松市中区板屋町111-1","place":"アクトシティ交流センター 36音楽セミナー室","lat":34.7052,"lon":137.736,"state":"closed","id":null},{"event_id":"22312","title":"Unity Game Jam","url":"https://atnd.org/events/22312","shortener_url":null,"started_at":"2012-01-14T01:00:00.000+09:00","ended_at":"2012-01-15T11:00:00.000+09:00","limit_number":60,"address":"東京都千代田区外神田1丁目18−13","place":"デジタルハリウッド大学　秋葉原メインキャンパス","lat":35.6992,"lon":139.772,"state":"closed","id":null},{"event_id":"23790","title":"Android ADK Hackathon","url":"https://atnd.org/events/23790","shortener_url":null,"started_at":"2012-01-09T01:00:00.000+09:00","ended_at":"2012-01-09T10:00:00.000+09:00","limit_number":6,"address":"東京都品川区東品川","place":"プログラマー一軒家(仮)","lat":35.6209,"lon":139.745,"state":"closed","id":null},{"event_id":"23562","title":"※5名枠増やしました【2012年のスタートはこれ！】御徒町から世界へ！スマホアプリで200万円目指しましょう！！","url":"https://atnd.org/events/23562","shortener_url":null,"started_at":"2012-01-09T01:00:00.000+09:00","ended_at":"2012-01-09T08:00:00.000+09:00","limit_number":15,"address":"東京都新宿区市谷仲之町4-39","place":"市ヶ谷健保会館会議室","lat":35.6954,"lon":139.724,"state":"closed","id":null},{"event_id":"23580","title":"STDIO.S #8","url":"https://atnd.org/events/23580","shortener_url":null,"started_at":"2012-01-07T13:30:00.000+09:00","ended_at":"2012-01-07T17:00:00.000+09:00","limit_number":15,"address":"宮城県仙台市青葉区桜ケ岡公園4-1","place":"仙台市民会館 第4会議室","lat":38.2653,"lon":140.863,"state":"closed","id":null},{"event_id":"23561","title":"Kadai.rb ハッカソン02","url":"https://atnd.org/events/23561","shortener_url":null,"started_at":"2012-01-07T01:00:00.000+09:00","ended_at":"2012-01-07T09:00:00.000+09:00","limit_number":20,"address":"香川県高松市林町2217-20","place":"香川大学林町キャンパス","lat":34.2929,"lon":134.063,"state":"closed","id":null},{"event_id":"24063","title":"Exchange Avenue","url":"https://atnd.org/events/24063","shortener_url":null,"started_at":"2012-01-27T23:00:00.000+09:00","ended_at":"2012-01-29T10:00:00.000+09:00","limit_number":50,"address":"名古屋市西区牛島町6番1号","place":"宿泊地：休暇村 伊良湖　プレゼン会場：株式会社エイチーム","lat":35.1749,"lon":136.881,"state":"closed","id":null},{"event_id":"23884","title":"ハチハチミーティング vol.3","url":"https://atnd.org/events/23884","shortener_url":null,"started_at":"2012-01-27T11:00:00.000+09:00","ended_at":"2012-01-27T14:00:00.000+09:00","limit_number":20,"address":"東京都渋谷区渋谷3丁目-13-5 イプセ渋谷1203号","place":"NAUGHTY SHIBUYA","lat":35.6569,"lon":139.704,"state":"closed","id":null}]