[{"event_id":"26576","title":"第１回ミニ四駆ハッカソン","url":"https://atnd.org/events/26576","shortener_url":null,"started_at":"2012-03-31T05:00:00.000+09:00","ended_at":"2012-03-31T08:30:00.000+09:00","limit_number":12,"address":"東京都渋谷区渋谷1-17-1  TOC第二ビル901","place":"レンタルスペース糀屋箱機構801","lat":35.6604,"lon":139.702,"state":"closed","id":null},{"event_id":"27000","title":"ギアスハッカソン","url":"https://atnd.org/events/27000","shortener_url":null,"started_at":"2012-03-31T04:00:00.000+09:00","ended_at":"2012-04-01T12:00:00.000+09:00","limit_number":5,"address":"","place":"我が家","lat":null,"lon":null,"state":"closed","id":null},{"event_id":"26870","title":"Geek ボルタリング Bear","url":"https://atnd.org/events/26870","shortener_url":null,"started_at":"2012-03-31T04:00:00.000+09:00","ended_at":"2012-03-31T06:00:00.000+09:00","limit_number":10,"address":"大阪府大阪市中央区難波千日前12-35","place":"グラビティリサーチ なんば","lat":34.665,"lon":135.503,"state":"closed","id":null},{"event_id":"26781","title":"fc jamaous 花見","url":"https://atnd.org/events/26781","shortener_url":null,"started_at":"2012-03-31T04:00:00.000+09:00","ended_at":"2012-03-31T08:00:00.000+09:00","limit_number":50,"address":"東京都台東区上野公園8","place":"上野公園","lat":35.7169,"lon":139.773,"state":"closed","id":null},{"event_id":"26156","title":"【仮日程】スマホアプリ学生ハッカソン！(開発初級編)[android/iPhone]","url":"https://atnd.org/events/26156","shortener_url":null,"started_at":"2012-03-31T03:00:00.000+09:00","ended_at":"2012-03-31T03:30:00.000+09:00","limit_number":20,"address":"東京都豊島区西池袋一丁目8番26号","place":"都内（この登録ではとりあえず池袋にしています）","lat":35.7299,"lon":139.709,"state":"closed","id":null},{"event_id":"26471","title":"広告・Webサイトのクラウド活用事例や最新トレンド","url":"https://atnd.org/events/26471","shortener_url":null,"started_at":"2012-03-29T10:00:00.000+09:00","ended_at":"2012-03-29T12:30:00.000+09:00","limit_number":30,"address":"東京都新宿区四谷4-29","place":"IDCフロンティア 本社カスタマーソリューションセンター","lat":35.6881,"lon":139.715,"state":"closed","id":null},{"event_id":"27127","title":"第0回 PlayBayHack!","url":"https://atnd.org/events/27127","shortener_url":null,"started_at":"2012-03-29T04:00:00.000+09:00","ended_at":"2012-03-29T09:00:00.000+09:00","limit_number":4,"address":"東京都港区芝浦3丁目14−19 大成企業ビル6F","place":"パズル芝浦","lat":35.6425,"lon":139.748,"state":"closed","id":null},{"event_id":"26615","title":"International Space Apps Challenge プレ勉強会","url":"https://atnd.org/events/26615","shortener_url":null,"started_at":"2012-03-26T10:00:00.000+09:00","ended_at":"2012-03-26T12:00:00.000+09:00","limit_number":50,"address":"〒150-0045 東京都渋谷区神泉町8-16","place":"株式会社VOYAGE GROUP","lat":35.6553,"lon":139.694,"state":"closed","id":null},{"event_id":"26920","title":"YYS vol.10","url":"https://atnd.org/events/26920","shortener_url":null,"started_at":"2012-03-25T15:00:00.000+09:00","ended_at":"2012-03-26T20:00:00.000+09:00","limit_number":150,"address":"東京都新宿区歌舞伎町2ー3ー23","place":"新宿JAM","lat":35.6969,"lon":139.707,"state":"closed","id":null},{"event_id":"25926","title":"Hachioji.pm #15","url":"https://atnd.org/events/25926","shortener_url":null,"started_at":"2012-03-24T09:00:00.000+09:00","ended_at":"2012-03-26T23:59:59.000+09:00","limit_number":16,"address":"東京都八王子市子安町","place":"未定","lat":35.653,"lon":139.339,"state":"closed","id":null},{"event_id":"25403","title":"ジャズ触れセッションオフ１３回目","url":"https://atnd.org/events/25403","shortener_url":null,"started_at":"2012-03-24T05:00:00.000+09:00","ended_at":"2012-03-24T08:00:00.000+09:00","limit_number":14,"address":"東京都豊島区南池袋1-26-9 第2MYTビル 9階","place":"池袋　スタジオフォルテ","lat":35.729,"lon":139.713,"state":"closed","id":null},{"event_id":"25349","title":"Titanium Nagoya Chatroom vol.2","url":"https://atnd.org/events/25349","shortener_url":null,"started_at":"2012-03-24T05:00:00.000+09:00","ended_at":"2012-03-24T09:00:00.000+09:00","limit_number":55,"address":"名古屋市西区牛島町6番1号 名古屋ルーセントタワー32F","place":"株式会社 エイチーム セミナールーム","lat":35.1749,"lon":136.881,"state":"closed","id":null},{"event_id":"26599","title":"OpenSolaris ハッカソン","url":"https://atnd.org/events/26599","shortener_url":null,"started_at":"2012-03-24T02:00:00.000+09:00","ended_at":"2012-03-24T08:30:00.000+09:00","limit_number":20,"address":"東京都港区北青山2-5-8","place":"日本オラクル 青山オフィス１３F会議室","lat":35.6712,"lon":139.719,"state":"closed","id":null},{"event_id":"26349","title":"江ノ電のりおり写真部の会","url":"https://atnd.org/events/26349","shortener_url":null,"started_at":"2012-03-24T00:30:00.000+09:00","ended_at":"2012-03-24T08:00:00.000+09:00","limit_number":20,"address":"","place":"","lat":null,"lon":null,"state":"closed","id":null},{"event_id":"25927","title":"Like a ハッカソン(pre Hachioji.pm #15)","url":"https://atnd.org/events/25927","shortener_url":null,"started_at":"2012-03-24T00:00:00.000+09:00","ended_at":"2012-03-24T08:00:00.000+09:00","limit_number":19,"address":"東京都八王子市中町","place":"未定","lat":35.6584,"lon":139.335,"state":"closed","id":null},{"event_id":"25803","title":"【第1回】ITスノボ部（仮）- スノボードツアー 2012","url":"https://atnd.org/events/25803","shortener_url":null,"started_at":"2012-03-23T13:00:00.000+09:00","ended_at":"2012-03-25T13:00:00.000+09:00","limit_number":6,"address":"長野県下高井郡山ノ内町","place":"X−JAM高井富士（＊場所は変更になる場合があります）","lat":36.7446,"lon":138.413,"state":"closed","id":null},{"event_id":"26519","title":"Titanium Nagoya Chatroom ハッカソン","url":"https://atnd.org/events/26519","shortener_url":null,"started_at":"2012-03-23T09:00:00.000+09:00","ended_at":"2012-03-24T03:00:00.000+09:00","limit_number":25,"address":"愛知県名古屋市中区大須3丁目5-49 第二ハセビル 3階奥","place":"Art Factory","lat":35.1616,"lon":136.905,"state":"closed","id":null},{"event_id":"26630","title":"【日程決定】【追加募集】スマホアプリ学生ハッカソン（開発初級編）【android/iPhone】","url":"https://atnd.org/events/26630","shortener_url":null,"started_at":"2012-03-23T01:00:00.000+09:00","ended_at":"2012-03-23T06:00:00.000+09:00","limit_number":6,"address":"東京都渋谷区神宮前6-19-20","place":"株式会社J-Payment 渋谷ラボ","lat":35.6639,"lon":139.703,"state":"closed","id":null},{"event_id":"25679","title":"第三回 作曲ハッカソン","url":"https://atnd.org/events/25679","shortener_url":null,"started_at":"2012-03-18T06:00:00.000+09:00","ended_at":"2012-03-18T09:00:00.000+09:00","limit_number":6,"address":"180-0004 東京都武蔵野市吉祥寺本町1-25-3","place":"スタジオペンタ吉祥寺ノースサイド","lat":35.7038,"lon":139.582,"state":"closed","id":null},{"event_id":"26159","title":"第五回　八耐：八時間耐久作品制作会(仮)","url":"https://atnd.org/events/26159","shortener_url":null,"started_at":"2012-03-18T00:30:00.000+09:00","ended_at":"2012-03-18T12:00:00.000+09:00","limit_number":30,"address":"福岡県福岡市東区和白東3-30-1 福岡工業大学短期大学部","place":"福岡工業大学短期大学部　Ｂ棟５階","lat":33.6952,"lon":130.441,"state":"closed","id":null},{"event_id":"25821","title":"第1回 NFC勉強会","url":"https://atnd.org/events/25821","shortener_url":null,"started_at":"2012-03-17T04:00:00.000+09:00","ended_at":"2012-03-17T09:00:00.000+09:00","limit_number":70,"address":"東京都港区六本木6-10-1 六本木ヒルズ森タワー","place":"KLab株式会社 様","lat":35.6606,"lon":139.729,"state":"closed","id":null},{"event_id":"25441","title":"[Perl勉強会] Kyoto.pm Tech Talks #01 発表者募集","url":"https://atnd.org/events/25441","shortener_url":null,"started_at":"2012-03-17T04:00:00.000+09:00","ended_at":"2012-03-17T08:00:00.000+09:00","limit_number":20,"address":"京都府京都市中京区御池通間之町東入高宮町206","place":"株式会社はてな　/ 御池ビル8F","lat":35.0104,"lon":135.751,"state":"closed","id":null},{"event_id":"25439","title":"[Perl勉強会] Kyoto.pm Tech Talks #01","url":"https://atnd.org/events/25439","shortener_url":null,"started_at":"2012-03-17T04:00:00.000+09:00","ended_at":"2012-03-17T09:00:00.000+09:00","limit_number":39,"address":"京都府京都市中京区御池通間之町東入高宮町206","place":"株式会社はてな　/ 御池ビル8F","lat":35.0104,"lon":135.751,"state":"closed","id":null},{"event_id":"24090","title":"Native Extension Lab in Osaka 2","url":"https://atnd.org/events/24090","shortener_url":null,"started_at":"2012-03-17T01:30:00.000+09:00","ended_at":"2012-03-17T09:30:00.000+09:00","limit_number":10,"address":"大阪市中央区大手前1丁目6-5","place":"ホテルリブマックス大手前（会議室）","lat":34.6895,"lon":135.518,"state":"closed","id":null},{"event_id":"25235","title":"第２回パン教室","url":"https://atnd.org/events/25235","shortener_url":null,"started_at":"2012-03-11T00:45:00.000+09:00","ended_at":"2012-03-11T08:00:00.000+09:00","limit_number":24,"address":"東京都台東区東上野6-16-8","place":"台東区社会教育センター（３階料理教室）","lat":35.7136,"lon":139.783,"state":"closed","id":null},{"event_id":"24598","title":"ジャミングハッカソン2012","url":"https://atnd.org/events/24598","shortener_url":null,"started_at":"2012-03-10T01:00:00.000+09:00","ended_at":"2012-03-10T10:00:00.000+09:00","limit_number":100,"address":"","place":"未定（首都圏）","lat":null,"lon":null,"state":"closed","id":null},{"event_id":"25652","title":"Tokyu.rbハッカソン/もくもく会第3回","url":"https://atnd.org/events/25652","shortener_url":null,"started_at":"2012-03-04T01:00:00.000+09:00","ended_at":"2012-03-04T09:30:00.000+09:00","limit_number":15,"address":"東京都千代田区神田錦町3丁目16-11 エルヴァージュ神田錦町8F","place":"株式会社万葉様　神保町オフィス","lat":35.6936,"lon":139.761,"state":"closed","id":null},{"event_id":"25605","title":"Titanium Craft Party vol.1 - デザイナー枠 -","url":"https://atnd.org/events/25605","shortener_url":null,"started_at":"2012-03-04T01:00:00.000+09:00","ended_at":"2012-03-04T11:00:00.000+09:00","limit_number":13,"address":"京都市下京区岩戸山町440 江村ビル3F","place":"コワーキングスペース「小脇」","lat":35.0003,"lon":135.757,"state":"closed","id":null},{"event_id":"25604","title":"Titanium Craft Party vol.1 - エンジニア枠 -","url":"https://atnd.org/events/25604","shortener_url":null,"started_at":"2012-03-04T01:00:00.000+09:00","ended_at":"2012-03-04T11:00:00.000+09:00","limit_number":15,"address":"京都市下京区岩戸山町440 江村ビル3F","place":"コワーキングスペース「小脇」","lat":35.0003,"lon":135.757,"state":"closed","id":null},{"event_id":"25174","title":"AppInventor わいわい会","url":"https://atnd.org/events/25174","shortener_url":null,"started_at":"2012-03-04T01:00:00.000+09:00","ended_at":"2012-03-04T08:00:00.000+09:00","limit_number":10,"address":"高松市サンポート2-1","place":"e-とぴあ・かがわ クラブルーム","lat":34.3525,"lon":134.047,"state":"closed","id":null},{"event_id":"25133","title":"【企業に勝手にスマートフォンアプリを提案しちゃいましょう！】爆裂集団オカバレーがやってきた！！","url":"https://atnd.org/events/25133","shortener_url":null,"started_at":"2012-03-04T01:00:00.000+09:00","ended_at":"2012-03-04T08:00:00.000+09:00","limit_number":10,"address":"東京都新宿区市谷仲之町4-39","place":"市ヶ谷健保会館会議室","lat":35.6954,"lon":139.724,"state":"closed","id":null},{"event_id":"25013","title":"NFC勉強会＠福岡","url":"https://atnd.org/events/25013","shortener_url":null,"started_at":"2012-03-03T04:00:00.000+09:00","ended_at":"2012-03-03T09:00:00.000+09:00","limit_number":17,"address":"福岡市中央区大名1-10-14","place":"GuildCafe Costa (MATCH 2F)","lat":33.5868,"lon":130.393,"state":"closed","id":null},{"event_id":"25245","title":"【IT女子限定】ひなまつりプチハッカソン@クックパッド【ATND枠で10名募集】","url":"https://atnd.org/events/25245","shortener_url":null,"started_at":"2012-03-03T02:00:00.000+09:00","ended_at":"2012-03-05T23:59:59.000+09:00","limit_number":18,"address":"東京都港区白金台5-12-7","place":"クックパッド株式会社5階ラウンジ","lat":35.6397,"lon":139.722,"state":"closed","id":null},{"event_id":"26480","title":"日本Androidの会 大分支部 第13回勉強会","url":"https://atnd.org/events/26480","shortener_url":null,"started_at":"2012-03-31T05:00:00.000+09:00","ended_at":"2012-03-31T09:00:00.000+09:00","limit_number":18,"address":"大分県大分市府内町1丁目5-38","place":"コンパルホール 301会議室","lat":33.2355,"lon":131.611,"state":"closed","id":null},{"event_id":"25194","title":"一夜限りのギークハウス計画in道後","url":"https://atnd.org/events/25194","shortener_url":null,"started_at":"2012-03-24T11:00:00.000+09:00","ended_at":"2012-03-25T01:00:00.000+09:00","limit_number":8,"address":"愛媛県松山市道後町1丁目7-33","place":"ゲストハウス　ふじ屋あつし","lat":33.8499,"lon":132.784,"state":"closed","id":null}]