[{"event_id":"429","title":"pylons/pyramidはっかそん2012.05","url":"https://pylons.connpass.com/event/429/","shortener_url":null,"started_at":"2012-05-26T13:00:00.000+09:00","ended_at":"2012-05-26T18:00:00.000+09:00","limit_number":10,"address":"東京都渋谷区代々木4-29-3 西参道梅村ビル4F","place":"トライアックス株式会社 会議室","lat":35.6825,"lon":139.69,"state":"active","id":null},{"event_id":"433","title":"(第19回)Python mini Hack-a-thon","url":"https://pyhack.connpass.com/event/433/","shortener_url":null,"started_at":"2012-05-19T11:00:00.000+09:00","ended_at":"2012-05-19T19:00:00.000+09:00","limit_number":30,"address":"東京都品川区大崎1-2-2","place":"フューチャーアーキテクト","lat":35.6223,"lon":139.727,"state":"active","id":null},{"event_id":"477","title":"ありえるえりあミニ勉強会#2 ～Sencha Touch","url":"https://connpass.com/event/477/","shortener_url":null,"started_at":"2012-05-25T19:00:00.000+09:00","ended_at":"2012-05-25T20:30:00.000+09:00","limit_number":30,"address":"東京都港区六本木4-1-4","place":"アリエル・ネットワーク 会議室(黒崎ビル6階)","lat":35.6655,"lon":139.736,"state":"active","id":null},{"event_id":"27355","title":"（満員御礼）【第15回GSGL】ソーシャルゲーム基盤技術研究勉強会 / gloops社","url":"https://atnd.org/events/27355","shortener_url":null,"started_at":"2012-05-28T10:30:00.000+09:00","ended_at":"2012-05-28T12:00:00.000+09:00","limit_number":150,"address":"東京都千代田区神田駿河台2-3 DH2001Bldg.","place":"デジタルハリウッド東京本校","lat":35.7006,"lon":139.762,"state":"closed","id":null},{"event_id":"28872","title":"Hachioji.pm #17","url":"https://atnd.org/events/28872","shortener_url":null,"started_at":"2012-05-26T09:00:00.000+09:00","ended_at":"2012-05-28T23:59:59.000+09:00","limit_number":11,"address":"東京都八王子市子安町1-3-16","place":"ナンクルナイサ　きばいやんせ～　八王子店(元 あじこ屋)","lat":35.6536,"lon":139.34,"state":"closed","id":null},{"event_id":"28228","title":"第１５回Jazz触れ合いセッションオフ","url":"https://atnd.org/events/28228","shortener_url":null,"started_at":"2012-05-26T07:00:00.000+09:00","ended_at":"2012-05-26T10:00:00.000+09:00","limit_number":10,"address":"東京都豊島区池袋2-47-3 キウレイコンビルB1","place":"Vivo Sound Studio","lat":35.7325,"lon":139.707,"state":"closed","id":null},{"event_id":"28702","title":"ブロックで作る Android アプリ（AppInventor）","url":"https://atnd.org/events/28702","shortener_url":null,"started_at":"2012-05-26T05:00:00.000+09:00","ended_at":"2012-05-26T09:00:00.000+09:00","limit_number":10,"address":"香川県高松市塩上町1丁目2−26","place":"クリエイトスペース","lat":34.3386,"lon":134.053,"state":"closed","id":null},{"event_id":"28037","title":"Fukuoka NFC Hack 2","url":"https://atnd.org/events/28037","shortener_url":null,"started_at":"2012-05-26T04:00:00.000+09:00","ended_at":"2012-05-26T09:00:00.000+09:00","limit_number":20,"address":"福岡市中央区大名1-10-14","place":"GuildCafe Costa (MATCH 2F)","lat":33.5868,"lon":130.393,"state":"closed","id":null},{"event_id":"28184","title":"Windows Phone Hackathon in Tokyo#2","url":"https://atnd.org/events/28184","shortener_url":null,"started_at":"2012-05-26T03:30:00.000+09:00","ended_at":"2012-05-26T09:00:00.000+09:00","limit_number":24,"address":"東京都千代田区三崎町3-10-5 原島第三ビル202","place":"ネコワーキング","lat":35.7011,"lon":139.751,"state":"closed","id":null},{"event_id":"29239","title":"【初心者向け】Python、PHP、Scalaハッカソン　～時々チェス～","url":"https://atnd.org/events/29239","shortener_url":null,"started_at":"2012-05-26T01:30:00.000+09:00","ended_at":"2012-05-26T09:30:00.000+09:00","limit_number":8,"address":"東京都渋谷区神宮前3-22-12","place":"THE TERMINAL","lat":35.6705,"lon":139.707,"state":"closed","id":null},{"event_id":"28873","title":"Like a ハッカソン #3 (pre Hachioji.pm #17) ","url":"https://atnd.org/events/28873","shortener_url":null,"started_at":"2012-05-26T01:00:00.000+09:00","ended_at":"2012-05-26T09:00:00.000+09:00","limit_number":16,"address":"東京都八王子市子安町4-9","place":"八王子南口ＭＴビル時間貸し会議室","lat":35.6535,"lon":139.338,"state":"closed","id":null},{"event_id":"28802","title":"【第1回】SmartHacks ザッカーバーグ大絶賛！ゲームクリエイター集団【forif】によるオールナイトハッカソンに、pitapatのCEOが緊急参戦！  -","url":"https://atnd.org/events/28802","shortener_url":null,"started_at":"2012-05-25T11:00:00.000+09:00","ended_at":"2012-05-25T23:00:00.000+09:00","limit_number":10,"address":"東京都渋谷区千駄ヶ谷4-27-1 神宮外苑ビル4F","place":"株式会社HatchUp","lat":35.6806,"lon":139.704,"state":"closed","id":null},{"event_id":"28748","title":"【第1回】【forif】によるHackathon For Students 学生向けWEB Design勉強会","url":"https://atnd.org/events/28748","shortener_url":null,"started_at":"2012-05-25T08:00:00.000+09:00","ended_at":"2012-05-25T11:00:00.000+09:00","limit_number":10,"address":"東京都渋谷区千駄ヶ谷4-27-1 神宮外苑ビル4F","place":"株式会社HatchUp","lat":35.6806,"lon":139.704,"state":"closed","id":null},{"event_id":"28740","title":"【第5回】yoyogi.rb - Ruby経験のないwebエンジニア向け  -","url":"https://atnd.org/events/28740","shortener_url":null,"started_at":"2012-05-24T10:30:00.000+09:00","ended_at":"2012-05-24T12:00:00.000+09:00","limit_number":22,"address":"東京都渋谷区千駄ヶ谷4-27-1 神宮外苑ビル4F","place":"株式会社HatchUp","lat":35.6806,"lon":139.704,"state":"closed","id":null},{"event_id":"27356","title":"【第14回GSGL】失敗ゲームアプリ事例勉強会 / GMOアプリやろうぜ！","url":"https://atnd.org/events/27356","shortener_url":null,"started_at":"2012-05-24T10:30:00.000+09:00","ended_at":"2012-05-24T12:00:00.000+09:00","limit_number":70,"address":"東京都千代田区神田駿河台2-3 DH2001Bldg.","place":"デジタルハリウッド東京本校","lat":35.7006,"lon":139.762,"state":"closed","id":null},{"event_id":"29194","title":"学生起業セミナー","url":"https://atnd.org/events/29194","shortener_url":null,"started_at":"2012-05-24T09:45:00.000+09:00","ended_at":"2012-05-24T11:45:00.000+09:00","limit_number":24,"address":"東京都港区南青山2-2-8 DFビル 5F","place":"クラブハウス会議室　青山","lat":35.671,"lon":139.724,"state":"closed","id":null},{"event_id":"28370","title":"【第3回】 yoyogi.fb（代々木facebookアプリ開発勉強会）-初心者向け-","url":"https://atnd.org/events/28370","shortener_url":null,"started_at":"2012-05-23T10:00:00.000+09:00","ended_at":"2012-05-23T11:30:00.000+09:00","limit_number":22,"address":"東京都渋谷区千駄ヶ谷4-27-1 神宮外苑ビル4F","place":"株式会社HatchUp(代々木駅徒歩4分、北参道駅徒歩3分)","lat":35.6806,"lon":139.704,"state":"closed","id":null},{"event_id":"28893","title":"ORC Hackathon Days","url":"https://atnd.org/events/28893","shortener_url":null,"started_at":"2012-05-23T01:00:00.000+09:00","ended_at":"2012-05-24T08:00:00.000+09:00","limit_number":20,"address":"東京都新宿区西新宿4-33-4 住友不動産西新宿ビル4号館 6F","place":"さくらインターネット研究所セミナールーム","lat":35.6866,"lon":139.689,"state":"closed","id":null},{"event_id":"28368","title":"【第3回】 yoyogi.py - python経験のないwebエンジニア向け -","url":"https://atnd.org/events/28368","shortener_url":null,"started_at":"2012-05-22T10:30:00.000+09:00","ended_at":"2012-05-22T13:30:00.000+09:00","limit_number":22,"address":"東京都渋谷区千駄ヶ谷4-27-1 神宮外苑ビル4F","place":"株式会社HatchUp(代々木駅徒歩4分、北参道駅徒歩3分)","lat":35.6806,"lon":139.704,"state":"closed","id":null},{"event_id":"28255","title":"【満員御礼／増員130名】上位ランクインの秘訣とは！？【第1回】渋谷iPhonegames勉強会 -「ゆるロボ製作所」 / 「関ヶ原演技」「障子ぽすぽす」 / 「つり球アプリ」 /","url":"https://atnd.org/events/28255","shortener_url":null,"started_at":"2012-05-21T10:30:00.000+09:00","ended_at":"2012-05-21T13:00:00.000+09:00","limit_number":130,"address":"東京都渋谷区桜丘町26番1号","place":"GMO Yours （ 東京都渋谷区桜丘町26番1号 セルリアンタワー11階）","lat":35.6565,"lon":139.699,"state":"closed","id":null},{"event_id":"28949","title":"のもーれでアオーレ！！","url":"https://atnd.org/events/28949","shortener_url":null,"started_at":"2012-05-20T10:15:00.000+09:00","ended_at":"2012-05-20T12:45:00.000+09:00","limit_number":null,"address":"長岡市大手通1丁目4番地10","place":"交流ホールA","lat":37.447,"lon":138.852,"state":"closed","id":null},{"event_id":"28938","title":"Geek ボルタリング Bear #2","url":"https://atnd.org/events/28938","shortener_url":null,"started_at":"2012-05-19T07:00:00.000+09:00","ended_at":"2012-05-19T09:00:00.000+09:00","limit_number":10,"address":"大阪府大阪市中央区難波千日前12-35","place":"グラビティリサーチ なんば","lat":34.665,"lon":135.503,"state":"closed","id":null},{"event_id":"29140","title":"ごみくずハッカソン","url":"https://atnd.org/events/29140","shortener_url":null,"started_at":"2012-05-19T04:00:00.000+09:00","ended_at":"2012-05-21T23:59:59.000+09:00","limit_number":null,"address":"未定","place":"未定","lat":0.0,"lon":0.0,"state":"closed","id":null},{"event_id":"28271","title":"【第2回】ザッカーバーグが大絶賛したゲームクリエイター集団【forif】による学生向けJavaScript勉強会","url":"https://atnd.org/events/28271","shortener_url":null,"started_at":"2012-05-18T08:00:00.000+09:00","ended_at":"2012-05-18T11:00:00.000+09:00","limit_number":22,"address":"東京都渋谷区千駄ヶ谷4-27-1 神宮外苑ビル4F","place":"株式会社HatchUp","lat":35.6806,"lon":139.704,"state":"closed","id":null},{"event_id":"28420","title":"第二回 W8 Hack-a-thon","url":"https://atnd.org/events/28420","shortener_url":null,"started_at":"2012-05-18T01:00:00.000+09:00","ended_at":"2012-05-18T09:00:00.000+09:00","limit_number":20,"address":"152-8552 東京都目黒区大岡山 2-12-1","place":"東京工業大学 大岡山キャンパス 西8号館E棟 8階 セミナールーム","lat":35.6058,"lon":139.684,"state":"closed","id":null},{"event_id":"27178","title":"【満員御礼／増員90名】エンタースフィア登壇決定！カムバック！大型IP経験を経てたどり着いたオリジナルタイトルの成功方程式 -グローバル市場への布石- 第13回【マイクロソフトxデジハリ大学院】実践ノウハウ勉強会","url":"https://atnd.org/events/27178","shortener_url":null,"started_at":"2012-05-17T10:00:00.000+09:00","ended_at":"2012-05-17T12:00:00.000+09:00","limit_number":90,"address":"東京都千代田区神田駿河台2-3 DH2001Bldg.","place":"デジタルハリウッド東京本校","lat":35.7006,"lon":139.762,"state":"closed","id":null},{"event_id":"29022","title":"マグネシウムハッカソン","url":"https://atnd.org/events/29022","shortener_url":null,"started_at":"2012-05-16T12:30:00.000+09:00","ended_at":"2012-05-18T23:59:59.000+09:00","limit_number":4,"address":"徳島県徳島市城東4-2-5-206","place":"秘密結社オープンフォース　秘密基地","lat":34.0743,"lon":134.578,"state":"closed","id":null},{"event_id":"26805","title":"【即日満員／増員423名】ザッカーバーグ絶賛ゲーム紹介！【第2回】渋谷 HTML5+CSS3+JS de ゲーム勉強会  /Sencha Animatorによるゲームアニメーション作成/html5で作るFacebookモバイルゲーム！/enchant.jsでスマートフォンゲームを高速開発","url":"https://atnd.org/events/26805","shortener_url":null,"started_at":"2012-05-16T10:30:00.000+09:00","ended_at":"2012-05-16T13:00:00.000+09:00","limit_number":423,"address":"東京都渋谷区桜丘町26番1号","place":"GMO Yours （ 東京都渋谷区桜丘町26番1号 セルリアンタワー11階）","lat":35.6565,"lon":139.699,"state":"closed","id":null},{"event_id":"27983","title":"【満員御礼/増員171名】【第3回】SmartHacks - スマートフォンブラウザ技術勉強会 - ～ スマートフォン上で動くhtml5 + CSS3 + Javascriptについてhackathon形式で学びます ～","url":"https://atnd.org/events/27983","shortener_url":null,"started_at":"2012-05-15T10:30:00.000+09:00","ended_at":"2012-05-15T13:00:00.000+09:00","limit_number":171,"address":"東京都渋谷区桜丘町26番1号","place":"GMO Yours （ 東京都渋谷区桜丘町26番1号 セルリアンタワー11階）","lat":35.6565,"lon":139.699,"state":"closed","id":null},{"event_id":"28776","title":"学生起業セミナー","url":"https://atnd.org/events/28776","shortener_url":null,"started_at":"2012-05-14T09:45:00.000+09:00","ended_at":"2012-05-14T11:45:00.000+09:00","limit_number":24,"address":"東京都港区南青山2-2-8 DFビル 5F","place":"クラブハウス会議室　青山","lat":35.671,"lon":139.724,"state":"closed","id":null},{"event_id":"27716","title":"Geek ミニ四駆 Bear","url":"https://atnd.org/events/27716","shortener_url":null,"started_at":"2012-05-13T05:00:00.000+09:00","ended_at":"2012-05-13T08:30:00.000+09:00","limit_number":15,"address":"大阪市東成区玉津2-1-27","place":"玉造フロイデ","lat":34.6704,"lon":135.536,"state":"closed","id":null},{"event_id":"28498","title":"おジャ魔女どれみ16 発売記念オフ会2","url":"https://atnd.org/events/28498","shortener_url":null,"started_at":"2012-05-12T09:00:00.000+09:00","ended_at":"2012-05-12T13:00:00.000+09:00","limit_number":30,"address":"東京都千代田区外神田1-13-3 ZIGZAGビル8F","place":"塚田農場 秋葉原中央通り店","lat":35.6991,"lon":139.772,"state":"closed","id":null},{"event_id":"27949","title":"第一回うどんHackathon","url":"https://atnd.org/events/27949","shortener_url":null,"started_at":"2012-05-12T08:00:00.000+09:00","ended_at":"2012-05-12T13:00:00.000+09:00","limit_number":5,"address":"溝の口駅","place":"aigamo家","lat":35.6,"lon":139.611,"state":"closed","id":null},{"event_id":"28461","title":"日本Androidの会 沖縄支部 workshop@Naha Vol.20","url":"https://atnd.org/events/28461","shortener_url":null,"started_at":"2012-05-12T06:00:00.000+09:00","ended_at":"2012-05-12T08:30:00.000+09:00","limit_number":20,"address":"沖縄県那覇市樋川+1-1-77","place":"専門学校 IT カレッジ沖縄 ","lat":26.2108,"lon":127.686,"state":"closed","id":null},{"event_id":"27951","title":"Hokkaido.pm #7","url":"https://atnd.org/events/27951","shortener_url":null,"started_at":"2012-05-12T04:30:00.000+09:00","ended_at":"2012-05-12T07:30:00.000+09:00","limit_number":40,"address":"北海道札幌市白石区東札幌5条1丁目1−1","place":"札幌市産業振興センター ルーム９","lat":43.0562,"lon":141.386,"state":"closed","id":null},{"event_id":"28018","title":"Androidアプリケーション、デザイナとプログラマのハッカソン vol.3","url":"https://atnd.org/events/28018","shortener_url":null,"started_at":"2012-05-12T01:00:00.000+09:00","ended_at":"2012-05-12T10:00:00.000+09:00","limit_number":10,"address":"東京都渋谷区渋谷1-17-1 TOC第2ビル10階","place":"Creator's District1002","lat":35.6604,"lon":139.702,"state":"closed","id":null},{"event_id":"28017","title":"Androidアプリケーション、デザイナとプログラマのハッカソン vol.3","url":"https://atnd.org/events/28017","shortener_url":null,"started_at":"2012-05-12T01:00:00.000+09:00","ended_at":"2012-05-12T10:00:00.000+09:00","limit_number":20,"address":"東京都渋谷区渋谷1-17-1 TOC第2ビル10階","place":"Creator's District1002","lat":35.6604,"lon":139.702,"state":"closed","id":null},{"event_id":"28647","title":"「だるまもくもくハッカソン　【開発コンテスト24】」","url":"https://atnd.org/events/28647","shortener_url":null,"started_at":"2012-05-11T23:50:00.000+09:00","ended_at":"2012-05-13T00:00:00.000+09:00","limit_number":15,"address":"岐阜県大垣市今宿6-52-16","place":"ドリームコア209号室","lat":35.3679,"lon":136.637,"state":"closed","id":null},{"event_id":"27927","title":"タネマキ便乗ハッカソン！開発合宿！！","url":"https://atnd.org/events/27927","shortener_url":null,"started_at":"2012-05-11T23:30:00.000+09:00","ended_at":"2012-05-13T00:00:00.000+09:00","limit_number":18,"address":"神奈川県横浜市西区岡野1-3-10 サニーコート横浜1F","place":"タネマキ","lat":35.4611,"lon":139.616,"state":"closed","id":null},{"event_id":"27354","title":"【満員御礼／増員91名】「ソーシャルゲームのバグ～傾向と対策～」をさくらソフトが講演！ゆめみが語る、思わず毎日プレイしたくなるソーシャルゲーム開発のtips！第12回【マイクロソフトxデジハリ大学院】実践ノウハウ勉強会","url":"https://atnd.org/events/27354","shortener_url":null,"started_at":"2012-05-10T10:30:00.000+09:00","ended_at":"2012-05-10T12:00:00.000+09:00","limit_number":91,"address":"東京都千代田区神田駿河台2-3 DH2001Bldg.","place":"デジタルハリウッド東京本校","lat":35.7006,"lon":139.762,"state":"closed","id":null},{"event_id":"27478","title":"【満員御礼／増員120名】地獄のRSpec it “逃げちゃダメだ、逃げちゃダメだ” \u0026 PythonistaがRubyの会社で三ヶ月生き延びた話【第1回】Railsだったり勉強会+株式会社ドリコム事例発表","url":"https://atnd.org/events/27478","shortener_url":null,"started_at":"2012-05-09T10:30:00.000+09:00","ended_at":"2012-05-09T13:00:00.000+09:00","limit_number":140,"address":"東京都渋谷区桜丘町26番1号","place":"GMO Yours （ 東京都渋谷区桜丘町26番1号 セルリアンタワー11階）","lat":35.6565,"lon":139.699,"state":"closed","id":null},{"event_id":"26593","title":"【満員御礼/増員182名】第３回Facebookアプリ勉強会 +『Legend Cards』でおなじみ gloopsが登場！【マイクロソフトxデジハリ大学院】実践ノウハウ勉強会特別編!","url":"https://atnd.org/events/26593","shortener_url":null,"started_at":"2012-05-09T10:30:00.000+09:00","ended_at":"2012-05-09T12:00:00.000+09:00","limit_number":182,"address":"東京都千代田区神田駿河台2-3","place":"デジタルハリウッド東京本校","lat":35.7006,"lon":139.762,"state":"closed","id":null},{"event_id":"28537","title":"学生起業家セミナー","url":"https://atnd.org/events/28537","shortener_url":null,"started_at":"2012-05-08T09:30:00.000+09:00","ended_at":"2012-05-08T12:00:00.000+09:00","limit_number":24,"address":"東京都港区南青山2-2-8 DFビル 5F","place":"クラブハウス会議室　青山","lat":35.671,"lon":139.724,"state":"closed","id":null},{"event_id":"28413","title":"【初心者向け】Python、PHP、JavaScriptハッカソン　～時々チェス～","url":"https://atnd.org/events/28413","shortener_url":null,"started_at":"2012-05-04T01:30:00.000+09:00","ended_at":"2012-05-04T08:00:00.000+09:00","limit_number":10,"address":"〒160-0003 東京都新宿区本塩町2 旧区立四谷第三小学校(本塩町2)","place":"三栄町生涯学習館","lat":35.6877,"lon":139.729,"state":"closed","id":null},{"event_id":"28610","title":"思い思いハッカソン〜 2012 春 〜 #GW_HIMA","url":"https://atnd.org/events/28610","shortener_url":null,"started_at":"2012-05-03T16:30:00.000+09:00","ended_at":"2012-05-04T11:00:00.000+09:00","limit_number":10,"address":"東京都渋谷区宇田川町10-2 新東京ビル202","place":"JELLY JELLY CAFE","lat":35.6627,"lon":139.697,"state":"closed","id":null},{"event_id":"27633","title":"dotcloudユーザ会（仮称）http://t.co/c58VZ0k","url":"https://atnd.org/events/27633","shortener_url":null,"started_at":"2012-05-03T13:00:00.000+09:00","ended_at":"2012-05-03T20:00:00.000+09:00","limit_number":8,"address":"東京都新宿区新宿2-3-8","place":"bar 16SHOTS (新宿) http://16shots.jp/i/  http://www.google.co.jp/maps/ms?msa=0\u0026msid=208718692733063252317.0004bd7dd2f2d98515578 https://ja.foursquare.com/v/16shots/4b55a444f964a52021ea27e3　googlemapはずれていますのでご注意ください。","lat":35.6901,"lon":139.708,"state":"closed","id":null},{"event_id":"28391","title":"#残パン会","url":"https://atnd.org/events/28391","shortener_url":null,"started_at":"2012-05-03T03:00:00.000+09:00","ended_at":"2012-05-03T10:00:00.000+09:00","limit_number":19,"address":"","place":"秋葉原ダイビル8階 ameba technology laboratory","lat":null,"lon":null,"state":"closed","id":null},{"event_id":"28411","title":"日本OpenStackユーザ会 第4回勉強会","url":"https://atnd.org/events/28411","shortener_url":null,"started_at":"2012-05-02T04:00:00.000+09:00","ended_at":"2012-05-02T08:00:00.000+09:00","limit_number":20,"address":"千代田区神田佐久間町3-6 M's WORKS BLDG 2F","place":"クリエーションライン様","lat":35.6973,"lon":139.778,"state":"closed","id":null},{"event_id":"28128","title":"JAPANSEED","url":"https://atnd.org/events/28128","shortener_url":null,"started_at":"2012-05-01T04:00:00.000+09:00","ended_at":"2012-05-03T10:00:00.000+09:00","limit_number":200,"address":"東京都渋谷区神宮前3-20-2","place":"原宿デザインフェスタギャラリー　EAST101","lat":35.6705,"lon":139.708,"state":"closed","id":null},{"event_id":"28641","title":"第1回 ほのか合宿（仮）","url":"https://atnd.org/events/28641","shortener_url":null,"started_at":"2012-05-26T06:00:00.000+09:00","ended_at":"2012-05-27T00:00:00.000+09:00","limit_number":8,"address":"北海道札幌市清田区清田2条3丁目2-26","place":"湯の郷 絢ほのか 札幌清田","lat":43.0007,"lon":141.436,"state":"closed","id":null},{"event_id":"27199","title":"一夜限りのギークハウス計画in大垣","url":"https://atnd.org/events/27199","shortener_url":null,"started_at":"2012-05-12T09:00:00.000+09:00","ended_at":"2012-05-13T01:00:00.000+09:00","limit_number":20,"address":"岐阜県大垣市今宿6丁目52番地18 ワークショップ24 ソピア・キャビン","place":"ソフトピア宿泊交流空間　ソピアキャビン","lat":35.3671,"lon":136.637,"state":"closed","id":null},{"event_id":"25328","title":"第19回 ニコマスサバゲオフ 長野合宿 in Estate","url":"https://atnd.org/events/25328","shortener_url":null,"started_at":"2012-05-05T00:00:00.000+09:00","ended_at":"2012-05-05T08:00:00.000+09:00","limit_number":40,"address":"長野県長野市戸隠越水3507-2","place":"Estate","lat":36.7519,"lon":138.082,"state":"closed","id":null}]