[{"event_id":"3915","title":"Raspberry Jam Tokyo #3 at IIJ Jinbocho","url":"https://connpass.com/event/3915/","shortener_url":null,"started_at":"2013-11-16T04:00:00.000+09:00","ended_at":"2013-11-16T07:30:00.000+09:00","limit_number":30,"address":"東京都千代田区神田神保町1-105(神保町三井ビルディング)","place":"株式会社インターネットイニシアティブ","lat":35.6942,"lon":139.76,"state":"active","id":null},{"event_id":"3939","title":"日本Androidの会浜松支部　第31回ミーティング #jaghama","url":"https://connpass.com/event/3939/","shortener_url":null,"started_at":"2013-11-09T00:00:00.000+09:00","ended_at":"2013-11-09T08:00:00.000+09:00","limit_number":15,"address":"静岡県浜松市中区砂山町 348-12","place":"株式会社CAIメディア コワーキングスペース","lat":34.7028,"lon":137.738,"state":"active","id":null},{"event_id":"3890","title":"Web Api Hackathon Vol.3","url":"https://web-api-hackathon.connpass.com/event/3890/","shortener_url":null,"started_at":"2013-11-17T01:00:00.000+09:00","ended_at":"2013-11-17T11:30:00.000+09:00","limit_number":40,"address":"東京都中央区晴海一丁目8番10号（晴海アイランド トリトンスクエアオフィスタワーX 37階）","place":"晴海アイランド トリトンスクエアオフィスタワーX 37階","lat":35.6564,"lon":139.782,"state":"active","id":null},{"event_id":"3757","title":"第5回 関西ソーシャルゲーム勉強会","url":"https://connpass.com/event/3757/","shortener_url":null,"started_at":"2013-11-23T14:00:00.000+09:00","ended_at":"2013-11-23T19:00:00.000+09:00","limit_number":90,"address":"大阪市北区中之島3-3-3 (中之島三井ビルディング25F)","place":"アマゾン ジャパン株式会社 大阪支社","lat":34.6932,"lon":135.494,"state":"active","id":null},{"event_id":"3558","title":"InfiniBand mini Hack-a-thon [04]","url":"https://connpass.com/event/3558/","shortener_url":null,"started_at":"2013-11-30T04:00:00.000+09:00","ended_at":"2013-11-30T09:00:00.000+09:00","limit_number":20,"address":"東京都千代田区神田錦町1-1 (神田橋安田ビル3F)","place":"国際産業技術株式会社セミナールーム","lat":35.6923,"lon":139.764,"state":"active","id":null},{"event_id":"45110","title":"Force.com Advent Calendar 2013","url":"https://atnd.org/events/45110","shortener_url":null,"started_at":"2013-11-30T15:00:00.000+09:00","ended_at":"2013-12-24T15:00:00.000+09:00","limit_number":24,"address":"","place":"","lat":null,"lon":null,"state":"closed","id":null},{"event_id":"44708","title":"年末 12/21 \u0026 22 プログラミング生放送勉強会 第27回＠東京 事前調査！","url":"https://atnd.org/events/44708","shortener_url":null,"started_at":"2013-11-30T15:00:00.000+09:00","ended_at":"2013-12-02T23:59:59.000+09:00","limit_number":65,"address":"","place":"日本マイクロソフト株式会社 品川本社 セミナールーム　グリー株式会社 セミナールーム","lat":null,"lon":null,"state":"closed","id":null},{"event_id":"45635","title":"第125回オフライン開発ミーティング","url":"https://atnd.org/events/45635","shortener_url":null,"started_at":"2013-11-24T01:00:00.000+09:00","ended_at":"2013-11-24T03:00:00.000+09:00","limit_number":null,"address":"東京都品川区大崎1-11-1","place":"ゲートシティ大崎B1アトリウムフリー座席","lat":35.6194,"lon":139.731,"state":"closed","id":null},{"event_id":"44793","title":"#03 Hokkaido CTF 勉強会（Hackathon）【初心者・ベテラン大歓迎】","url":"https://atnd.org/events/44793","shortener_url":null,"started_at":"2013-11-23T03:00:00.000+09:00","ended_at":"2013-11-23T10:00:00.000+09:00","limit_number":18,"address":"","place":"株式会社インフィニットループ　大会議室","lat":null,"lon":null,"state":"closed","id":null},{"event_id":"44842","title":"【増員】【#TechBuzz】第19回Unity開発技術勉強会 〜ノンプログラマーでも実践できた！「家庭菜園」的ゲーム開発入門 / FacebookSDK / 「会社で寝よう！」制作レポート（3Dカジュアルゲームの開発手法）/ Unity4.3〜","url":"https://atnd.org/events/44842","shortener_url":null,"started_at":"2013-11-20T10:30:00.000+09:00","ended_at":"2013-11-20T13:00:00.000+09:00","limit_number":110,"address":"東京都新宿区新宿5丁目18番20号","place":"TechBuzzSpace（新宿オミビル4階）","lat":35.694,"lon":139.706,"state":"closed","id":null},{"event_id":"45276","title":"Shibuya Plack/PSGI Conference (shibuya.pl) #1 #plackcon","url":"https://atnd.org/events/45276","shortener_url":null,"started_at":"2013-11-20T10:00:00.000+09:00","ended_at":"2013-11-20T12:00:00.000+09:00","limit_number":80,"address":"東京都渋谷区渋谷2-21-1 渋谷ヒカリエ 27F","place":"LINE 株式会社内カフェスペース","lat":35.6591,"lon":139.704,"state":"closed","id":null},{"event_id":"44183","title":"「就職までに身につけたいホントのWebTips」第2回","url":"https://atnd.org/events/44183","shortener_url":null,"started_at":"2013-11-17T06:00:00.000+09:00","ended_at":"2013-11-17T08:30:00.000+09:00","limit_number":20,"address":"愛知県名古屋市中村区名駅3-18-5  モンマートビル5階","place":"ベースキャンプ名古屋","lat":35.1728,"lon":136.887,"state":"closed","id":null},{"event_id":"45407","title":"第124回オフライン開発ミーティング","url":"https://atnd.org/events/45407","shortener_url":null,"started_at":"2013-11-17T01:00:00.000+09:00","ended_at":"2013-11-17T03:00:00.000+09:00","limit_number":null,"address":"東京都品川区大崎1-11-1","place":"ゲートシティ大崎B1アトリウムフリー座席","lat":35.6194,"lon":139.731,"state":"closed","id":null},{"event_id":"44925","title":"Hachioji.pm #35","url":"https://atnd.org/events/44925","shortener_url":null,"started_at":"2013-11-16T09:00:00.000+09:00","ended_at":"2013-11-18T23:59:59.000+09:00","limit_number":16,"address":"東京都八王子市子安町1-1-8 アーバンホテル1F","place":"八王子南口 ウラニワ","lat":35.6545,"lon":139.34,"state":"closed","id":null},{"event_id":"45230","title":"裏・温泉発火村 （pre hachioji.pm #35)","url":"https://atnd.org/events/45230","shortener_url":null,"started_at":"2013-11-16T04:00:00.000+09:00","ended_at":"2013-11-16T09:00:00.000+09:00","limit_number":8,"address":"東京都八王子市中町2-1 グランド東京ビル4F","place":"やすらぎの湯","lat":35.6584,"lon":139.337,"state":"closed","id":null},{"event_id":"44591","title":"天神Perl #3","url":"https://atnd.org/events/44591","shortener_url":null,"started_at":"2013-11-16T04:00:00.000+09:00","ended_at":"2013-11-16T09:00:00.000+09:00","limit_number":8,"address":"福岡県福岡市中央区天神4-8-2 天神ビルプラス8F","place":"株式会社イーハイブ","lat":0.0,"lon":0.0,"state":"closed","id":null},{"event_id":"43858","title":"温泉発火村 #2","url":"https://atnd.org/events/43858","shortener_url":null,"started_at":"2013-11-16T04:00:00.000+09:00","ended_at":"2013-11-17T03:00:00.000+09:00","limit_number":8,"address":"静岡県熱海市中央町14-9","place":"山木旅館（静岡県熱海）","lat":35.0945,"lon":139.072,"state":"closed","id":null},{"event_id":"45413","title":"【アプリ開発に興味のある学生なら誰でも参加可・1日参加も歓迎】Mashup Camp for Student","url":"https://atnd.org/events/45413","shortener_url":null,"started_at":"2013-11-16T01:00:00.000+09:00","ended_at":"2013-11-17T11:00:00.000+09:00","limit_number":20,"address":"東京都江東区青海二丁目5番10号 テレコムセンタービル東棟14階","place":"お台場「MONO」","lat":35.6191,"lon":139.783,"state":"closed","id":null},{"event_id":"44622","title":"【いよいよ本日開催！】第7回テックヒルズ開催！　　　　　　　『Game Engines!!～どのゲームエンジンを選ぶ？～』","url":"https://atnd.org/events/44622","shortener_url":null,"started_at":"2013-11-12T10:30:00.000+09:00","ended_at":"2013-11-12T13:30:00.000+09:00","limit_number":570,"address":"東京都港区六本木6-10-1","place":"アカデミーヒルズ","lat":35.6604,"lon":139.729,"state":"closed","id":null},{"event_id":"45202","title":"第123回オフライン開発ミーティング","url":"https://atnd.org/events/45202","shortener_url":null,"started_at":"2013-11-10T01:00:00.000+09:00","ended_at":"2013-11-10T03:00:00.000+09:00","limit_number":null,"address":"東京都品川区大崎1-11-1","place":"ゲートシティ大崎B1アトリウムフリー座席","lat":35.6194,"lon":139.731,"state":"closed","id":null},{"event_id":"45281","title":"Hachioji.pm #34","url":"https://atnd.org/events/45281","shortener_url":null,"started_at":"2013-11-09T04:00:00.000+09:00","ended_at":"2013-11-11T23:59:59.000+09:00","limit_number":12,"address":"東京都八王子市中町2-1 グランド東京ビル","place":"とりあえず やすらぎの湯","lat":35.6584,"lon":139.337,"state":"closed","id":null},{"event_id":"44182","title":"「就職までに身につけたいホントのWebTips」第1回","url":"https://atnd.org/events/44182","shortener_url":null,"started_at":"2013-11-03T06:00:00.000+09:00","ended_at":"2013-11-03T08:30:00.000+09:00","limit_number":25,"address":"愛知県名古屋市中村区名駅3-18-5  モンマートビル5階","place":"ベースキャンプ名古屋","lat":0.0,"lon":0.0,"state":"closed","id":null},{"event_id":"45044","title":"第122回オフライン開発ミーティング","url":"https://atnd.org/events/45044","shortener_url":null,"started_at":"2013-11-03T01:00:00.000+09:00","ended_at":"2013-11-03T03:00:00.000+09:00","limit_number":null,"address":"東京都品川区大崎1-11-1","place":"ゲートシティ大崎B1アトリウムフリー座席","lat":35.6194,"lon":139.731,"state":"closed","id":null},{"event_id":"43357","title":"GDG九州 DevFest 温泉 in 湯布院","url":"https://atnd.org/events/43357","shortener_url":null,"started_at":"2013-11-02T04:00:00.000+09:00","ended_at":"2013-11-04T06:00:00.000+09:00","limit_number":30,"address":"大分県由布市湯布院町川上3374","place":"日本文理大学湯布院研修所","lat":33.2756,"lon":131.351,"state":"closed","id":null},{"event_id":"44944","title":"【Webプラットフォーム勉強会 1311】Appmakerコンポーネントハッカソン #FXOS #d_hack #HTML5J","url":"https://atnd.org/events/44944","shortener_url":null,"started_at":"2013-11-02T01:00:00.000+09:00","ended_at":"2013-11-02T08:00:00.000+09:00","limit_number":40,"address":"東京都新宿区西新宿2-7-1 小田急第一生命ビル 15階","place":"豆蔵様 トレーニングルーム","lat":35.6917,"lon":139.691,"state":"closed","id":null}]