[{"event_id":"2677","title":"第四回 W8 Hack-a-thon","url":"https://connpass.com/event/2677/","shortener_url":null,"started_at":"2013-06-16T18:30:00.000+09:00","ended_at":"2013-06-17T03:30:00.000+09:00","limit_number":20,"address":"東京都目黒区大岡山 2-12-1","place":"東京工業大学 大岡山キャンパス 西8号館E棟 8階 セミナールーム","lat":35.6062,"lon":139.684,"state":"active","id":null},{"event_id":"2586","title":"モトスミHack vol.44 (開発コンテスト24ハッカソン)","url":"https://connpass.com/event/2586/","shortener_url":null,"started_at":"2013-06-15T18:00:00.000+09:00","ended_at":"2013-06-16T18:00:00.000+09:00","limit_number":8,"address":"東京都千代田区神田紺屋町37 今井ビル2F","place":"ギークハウス神田秋葉原","lat":35.693,"lon":139.774,"state":"active","id":null},{"event_id":"2308","title":"【リベンジ】肉を喰らう会 第3回","url":"https://meat.connpass.com/event/2308/","shortener_url":null,"started_at":"2013-06-17T03:00:00.000+09:00","ended_at":"2013-06-17T05:00:00.000+09:00","limit_number":4,"address":"東京都渋谷区宇田川町32-15(ビアビル5F)","place":"風風亭 渋谷店","lat":35.661,"lon":139.698,"state":"active","id":null},{"event_id":"2034","title":"ワールドベリーダンスフェスティバル２０１３","url":"https://connpass.com/event/2034/","shortener_url":null,"started_at":"2013-06-24T02:00:00.000+09:00","ended_at":"2013-06-24T06:30:00.000+09:00","limit_number":null,"address":"名古屋市中区金山1丁目５番１号（名古屋市民会館）","place":"日本特殊陶業市民会館「ビレッジホール」","lat":35.1456,"lon":136.902,"state":"active","id":null},{"event_id":"40917","title":"第106回よちよちAndroid開発ミーティング","url":"https://atnd.org/events/40917","shortener_url":null,"started_at":"2013-06-30T09:00:00.000+09:00","ended_at":"2013-06-30T12:00:00.000+09:00","limit_number":null,"address":"東京都品川区大崎1-11-1","place":"ゲートシティ大崎B1アトリウムフリー座席 ","lat":35.6194,"lon":139.731,"state":"closed","id":null},{"event_id":"39864","title":"LINQ勉強会","url":"https://atnd.org/events/39864","shortener_url":null,"started_at":"2013-06-29T14:00:00.000+09:00","ended_at":"2013-06-29T17:30:00.000+09:00","limit_number":40,"address":"大阪府大阪市北区鶴野町1-9 梅田ゲートタワー10F","place":"グリー株式会社 大阪オフィス　","lat":34.7068,"lon":135.501,"state":"closed","id":null},{"event_id":"40373","title":"ストア アプリ ハッカソン in 名古屋","url":"https://atnd.org/events/40373","shortener_url":null,"started_at":"2013-06-29T13:00:00.000+09:00","ended_at":"2013-06-29T17:00:00.000+09:00","limit_number":20,"address":"愛知県名古屋市中区金山5-11-6","place":"名古屋ソフトウェアセンター","lat":35.1449,"lon":136.911,"state":"closed","id":null},{"event_id":"40666","title":"FourBeat体験 ＆ enchant.js勉強会","url":"https://atnd.org/events/40666","shortener_url":null,"started_at":"2013-06-23T13:00:00.000+09:00","ended_at":"2013-06-23T18:00:00.000+09:00","limit_number":10,"address":"大阪市中央区備後町3-6-2 大雅ビル10F","place":"オオサカンスペース","lat":34.6851,"lon":135.501,"state":"closed","id":null},{"event_id":"40685","title":"第105回よちよちAndroid開発ミーティング","url":"https://atnd.org/events/40685","shortener_url":null,"started_at":"2013-06-23T09:00:00.000+09:00","ended_at":"2013-06-23T12:00:00.000+09:00","limit_number":null,"address":"東京都品川区大崎1-11-1","place":"ゲートシティ大崎B1アトリウムフリー座席","lat":35.6194,"lon":139.731,"state":"closed","id":null},{"event_id":"40429","title":"Cocos2d-xハンズオン勉強会 in 名古屋 Vol.2","url":"https://atnd.org/events/40429","shortener_url":null,"started_at":"2013-06-22T13:00:00.000+09:00","ended_at":"2013-06-22T17:00:00.000+09:00","limit_number":20,"address":"名古屋市中区栄2-2-23 アーク白川公園ビルディング7F","place":"Jam Garage(ジャムガレージ)","lat":35.1675,"lon":136.899,"state":"closed","id":null},{"event_id":"40216","title":"第4回！お絵描きカンファレンス！","url":"https://atnd.org/events/40216","shortener_url":null,"started_at":"2013-06-22T10:00:00.000+09:00","ended_at":"2013-06-23T16:00:00.000+09:00","limit_number":6,"address":"大阪府","place":"俺の家！","lat":34.6863,"lon":135.52,"state":"closed","id":null},{"event_id":"40609","title":"FourBeatハッカソン見学＆体験会","url":"https://atnd.org/events/40609","shortener_url":null,"started_at":"2013-06-16T13:00:00.000+09:00","ended_at":"2013-06-16T17:00:00.000+09:00","limit_number":10,"address":"","place":"C\u0026R会議室","lat":null,"lon":null,"state":"closed","id":null},{"event_id":"40463","title":"第104回よちよちAndroid開発ミーティング","url":"https://atnd.org/events/40463","shortener_url":null,"started_at":"2013-06-16T09:00:00.000+09:00","ended_at":"2013-06-16T12:00:00.000+09:00","limit_number":null,"address":"東京都品川区大崎1-11-1","place":"ゲートシティ大崎B1アトリウムフリー座席","lat":35.6194,"lon":139.731,"state":"closed","id":null},{"event_id":"38805","title":"【身内用】おとこのみ","url":"https://atnd.org/events/38805","shortener_url":null,"started_at":"2013-06-15T21:30:00.000+09:00","ended_at":"2013-06-15T23:30:00.000+09:00","limit_number":5000,"address":"横浜市西区南幸2-20-11 Nsビル1F","place":"横浜","lat":35.4646,"lon":139.616,"state":"closed","id":null},{"event_id":"40288","title":"Hachioji.pm #29","url":"https://atnd.org/events/40288","shortener_url":null,"started_at":"2013-06-15T18:00:00.000+09:00","ended_at":"2013-06-18T08:59:59.000+09:00","limit_number":16,"address":"東京都八王子市子安町4-9-8 野田ビル1F","place":"はなの舞 八王子南口店 ","lat":35.6537,"lon":139.338,"state":"closed","id":null},{"event_id":"40387","title":"日本Androidの会秋葉原支部ロボット部　第15回勉強会","url":"https://atnd.org/events/40387","shortener_url":null,"started_at":"2013-06-15T13:00:00.000+09:00","ended_at":"2013-06-15T18:00:00.000+09:00","limit_number":15,"address":"東京都板橋区志村1-1-2","place":"Robotma.com（ろぼとまどっとこむ） （東京都板橋区志村１－１－２　２F）","lat":35.7721,"lon":139.699,"state":"closed","id":null},{"event_id":"40371","title":"Like a ハッカソン #8 (pre Hachioji.pm #29)","url":"https://atnd.org/events/40371","shortener_url":null,"started_at":"2013-06-15T11:30:00.000+09:00","ended_at":"2013-06-18T08:59:59.000+09:00","limit_number":16,"address":"東京都八王子市明神町3-16-8","place":"本文をご確認ください。","lat":35.6558,"lon":139.341,"state":"closed","id":null},{"event_id":"40525","title":"第2回 ギー沖ハッカソン","url":"https://atnd.org/events/40525","shortener_url":null,"started_at":"2013-06-15T09:00:00.000+09:00","ended_at":"2013-06-16T09:00:00.000+09:00","limit_number":null,"address":"沖縄県那覇市古波蔵2-18-14","place":"ギークハウス沖縄","lat":26.2001,"lon":127.688,"state":"closed","id":null},{"event_id":"40341","title":"第103回よちよちAndroid開発ミーティング","url":"https://atnd.org/events/40341","shortener_url":null,"started_at":"2013-06-09T09:00:00.000+09:00","ended_at":"2013-06-09T12:00:00.000+09:00","limit_number":null,"address":"東京都品川区大崎1-11-1","place":"ゲートシティ大崎B1アトリウムフリー座席","lat":35.6194,"lon":139.731,"state":"closed","id":null},{"event_id":"40133","title":"Unity勉強会　池袋　Part ５","url":"https://atnd.org/events/40133","shortener_url":null,"started_at":"2013-06-08T18:00:00.000+09:00","ended_at":"2013-06-08T21:20:00.000+09:00","limit_number":40,"address":"東京都豊島区西池袋2-37-4","place":"池袋勤労福祉会館　第５会議室","lat":35.7277,"lon":139.707,"state":"closed","id":null},{"event_id":"39232","title":"泥酔ハッカソン2013 in 石和","url":"https://atnd.org/events/39232","shortener_url":null,"started_at":"2013-06-08T14:30:00.000+09:00","ended_at":"2013-06-09T12:00:00.000+09:00","limit_number":12,"address":"山梨県笛吹市石和町川中島482","place":"石和温泉郷 旅館 喜仙（きせん）","lat":35.6559,"lon":138.646,"state":"closed","id":null},{"event_id":"38950","title":"第3回京都インディーズゲームセミナー「ゲームを作りたい君へ」","url":"https://atnd.org/events/38950","shortener_url":null,"started_at":"2013-06-08T13:30:00.000+09:00","ended_at":"2013-06-08T17:30:00.000+09:00","limit_number":85,"address":"京都府京都市下京区東塩小路町939","place":"キャンパスプラザ京都　第4講義室","lat":34.9864,"lon":135.756,"state":"closed","id":null},{"event_id":"39962","title":"第一回 関西Google Glassアイディア村","url":"https://atnd.org/events/39962","shortener_url":null,"started_at":"2013-06-08T10:00:00.000+09:00","ended_at":"2013-06-08T17:00:00.000+09:00","limit_number":10,"address":"大阪府枚方市岡東町8−33 ‎","place":"枚方市市民会館 小ホール３階会議札２","lat":34.8152,"lon":135.651,"state":"closed","id":null},{"event_id":"40293","title":"あんちべんちピザ会","url":"https://atnd.org/events/40293","shortener_url":null,"started_at":"2013-06-07T19:30:00.000+09:00","ended_at":"2013-06-08T12:00:00.000+09:00","limit_number":42,"address":"","place":"あんちべんち：詳細は個別にDMで送ります","lat":null,"lon":null,"state":"closed","id":null},{"event_id":"40101","title":"第102回よちよちAndroid開発ミーティング","url":"https://atnd.org/events/40101","shortener_url":null,"started_at":"2013-06-02T09:00:00.000+09:00","ended_at":"2013-06-02T12:00:00.000+09:00","limit_number":null,"address":"東京都品川区大崎1-11-1","place":"ゲートシティ大崎B1アトリウムフリー座席","lat":35.6194,"lon":139.731,"state":"closed","id":null},{"event_id":"2381","title":"「合宿」 - Bluetooth Low Energy + iPhone ハンズオン ワークショップ","url":"https://connpass.com/event/2381/","shortener_url":null,"started_at":"2013-06-01T11:00:00.000+09:00","ended_at":"2013-06-01T18:30:00.000+09:00","limit_number":15,"address":"東京都渋谷区神宮前３丁目３８−１１  原宿ニューロイヤルマンション 403","place":"403 Forbidden ","lat":35.6721,"lon":139.713,"state":"active","id":null}]