[{"event_id":"3479","title":"PRML(パターン認識と機械学習) Hackathon #4","url":"https://connpass.com/event/3479/","shortener_url":null,"started_at":"2013-09-16T10:00:00.000+09:00","ended_at":"2013-09-16T22:00:00.000+09:00","limit_number":25,"address":"東京都新宿区百人町4-7-1","place":"西戸山生涯学習館 視聴覚室","lat":35.7089,"lon":139.696,"state":"active","id":null},{"event_id":"3156","title":"24時間耐久ハッカソン @ 大阪","url":"https://connpass.com/event/3156/","shortener_url":null,"started_at":"2013-09-21T20:00:00.000+09:00","ended_at":"2013-09-22T20:00:00.000+09:00","limit_number":4,"address":"","place":"スーパーもみあげハウス","lat":null,"lon":null,"state":"active","id":null},{"event_id":"3144","title":"24時間耐久ハッカソン","url":"https://connpass.com/event/3144/","shortener_url":null,"started_at":"2013-09-21T20:00:00.000+09:00","ended_at":"2013-09-22T20:00:00.000+09:00","limit_number":4,"address":"豊島園駅","place":"akuraruさん宅","lat":35.7421,"lon":139.649,"state":"active","id":null},{"event_id":"43626","title":"【Mashup Awards　特別企画：東証「ソーシャルかぶコン2013」×Mashup Awards！】 ～“Social Good!”な「株式市場」のプロモーションにつながるアプリ開発のためのアイデアソン！～","url":"https://atnd.org/events/43626","shortener_url":null,"started_at":"2013-09-30T19:00:00.000+09:00","ended_at":"2013-09-30T22:30:00.000+09:00","limit_number":30,"address":"東京都中央区銀座7-2-6","place":"Mashup Awards　イベントスペース (リクルートアネックス1ビル B1F)","lat":0.0,"lon":0.0,"state":"closed","id":null},{"event_id":"43355","title":"日本Androidの会 大分支部 第20回勉強会","url":"https://atnd.org/events/43355","shortener_url":null,"started_at":"2013-09-29T13:00:00.000+09:00","ended_at":"2013-09-29T18:00:00.000+09:00","limit_number":20,"address":"大分県大分市金池南1-5-1","place":"ホルトホール大分 403会議室","lat":0.0,"lon":0.0,"state":"closed","id":null},{"event_id":"43023","title":"デザイナーによる「私のおすすめ本」読書の会","url":"https://atnd.org/events/43023","shortener_url":null,"started_at":"2013-09-28T14:00:00.000+09:00","ended_at":"2013-09-28T16:00:00.000+09:00","limit_number":18,"address":"大阪府大阪市北区 大深町3-1 グランフロント大阪 北館7F","place":"グランフロント大阪7F「ナレッジサロン」C・Dルーム","lat":0.0,"lon":0.0,"state":"closed","id":null},{"event_id":"43652","title":"#MA9  Mashup Campハードウェア東京ハッカソン　ハードウェアで 学ぶ働くの「未来」を創ろう！！ with Gugen","url":"https://atnd.org/events/43652","shortener_url":null,"started_at":"2013-09-27T19:30:00.000+09:00","ended_at":"2013-09-29T19:00:00.000+09:00","limit_number":40,"address":"東京都江東区青海二丁目5番10号","place":"モノづくりを愛する起業家達のためのコワーキングオフィスMONO 　テレコムセンタービル東棟14階","lat":0.0,"lon":0.0,"state":"closed","id":null},{"event_id":"43807","title":"Mojoliciousやmod_perlを話題にした飲み会 #2","url":"https://atnd.org/events/43807","shortener_url":null,"started_at":"2013-09-25T19:00:00.000+09:00","ended_at":"2013-09-25T23:00:00.000+09:00","limit_number":15,"address":"東京都品川区西五反田2-5-8 野津ビル2F・3F","place":"原価BAR 五反田店","lat":0.0,"lon":0.0,"state":"closed","id":null},{"event_id":"43282","title":"9/25@福岡　シャープ出題テーマセミナー＆アイデアソン","url":"https://atnd.org/events/43282","shortener_url":null,"started_at":"2013-09-25T19:00:00.000+09:00","ended_at":"2013-09-25T20:30:00.000+09:00","limit_number":30,"address":"福岡県福岡市中央区天神1−7−11","place":"デジタルハリウッド福岡校","lat":33.5902,"lon":130.4,"state":"closed","id":null},{"event_id":"43253","title":"#MA9 最大賞金200万（倍増しました！）のアプリ・サービス開発コンテスト主催！　エンジニア、デザイナー、学生さんWelcome！！ アイデアソンイベント＠飯塚市！","url":"https://atnd.org/events/43253","shortener_url":null,"started_at":"2013-09-25T19:00:00.000+09:00","ended_at":"2013-09-25T22:30:00.000+09:00","limit_number":30,"address":"福岡県飯塚市吉原町2-6 浅原ビル2F","place":"e-ZUKA Tech Studio","lat":0.0,"lon":0.0,"state":"closed","id":null},{"event_id":"43276","title":"『スマホアプリを作ってみよう！』","url":"https://atnd.org/events/43276","shortener_url":null,"started_at":"2013-09-24T13:00:00.000+09:00","ended_at":"2013-09-24T17:00:00.000+09:00","limit_number":10,"address":"愛媛県松山市文京町3","place":"愛媛大学工学部2号館 2階E221講義室および 6階601号室（予定）","lat":0.0,"lon":0.0,"state":"closed","id":null},{"event_id":"43776","title":"FabLab Akiba (alpha) OpenHardware Hackathon","url":"https://atnd.org/events/43776","shortener_url":null,"started_at":"2013-09-22T13:00:00.000+09:00","ended_at":"2013-09-23T04:00:00.000+09:00","limit_number":10,"address":"東京都千代田区外神田3-2-13","place":"JAM Akihabara","lat":0.0,"lon":0.0,"state":"closed","id":null},{"event_id":"43594","title":"日本Androidの会秋葉原支部ロボット部　第18回勉強会","url":"https://atnd.org/events/43594","shortener_url":null,"started_at":"2013-09-22T13:00:00.000+09:00","ended_at":"2013-09-22T17:00:00.000+09:00","limit_number":12,"address":"東京都板橋区志村1-1-2 2F","place":"Robotma.com（ろぼとまどっとこむ）","lat":0.0,"lon":0.0,"state":"closed","id":null},{"event_id":"43736","title":"第116回よちよちAndroid開発ミーティング","url":"https://atnd.org/events/43736","shortener_url":null,"started_at":"2013-09-22T09:00:00.000+09:00","ended_at":"2013-09-22T12:00:00.000+09:00","limit_number":null,"address":"東京都品川区大崎1-11-1","place":"ゲートシティ大崎B1アトリウムフリー座席","lat":0.0,"lon":0.0,"state":"closed","id":null},{"event_id":"43107","title":"#MA9 Mashup Camp 沖縄！！ 大賞金額200万の日本最大の開発コンテストがおくる週末ハッカソンイベント！　沖縄初上陸！初心者大歓迎！9/21-23開催","url":"https://atnd.org/events/43107","shortener_url":null,"started_at":"2013-09-21T19:00:00.000+09:00","ended_at":"2013-09-23T19:00:00.000+09:00","limit_number":40,"address":"沖縄県中頭郡北谷町北谷2-1-5","place":"沖縄クリエイターズレジデンス","lat":0.0,"lon":0.0,"state":"closed","id":null},{"event_id":"42597","title":"「Ogaki Developer Day 2013 fall」 ＆「第1回岐阜オープンデータハッカソン／オープンデータ・カフェ」宿泊申込","url":"https://atnd.org/events/42597","shortener_url":null,"started_at":"2013-09-21T19:00:00.000+09:00","ended_at":"2013-09-22T10:00:00.000+09:00","limit_number":20,"address":"岐阜県大垣市今宿6丁目52番地18","place":"ソピア・キャビン（ワークショップ24）","lat":0.0,"lon":0.0,"state":"closed","id":null},{"event_id":"42602","title":"「Ogaki Developer Day 2013 fall」＆「第1回岐阜オープンデータハッカソン／オープンデータ・カフェ」 懇親会","url":"https://atnd.org/events/42602","shortener_url":null,"started_at":"2013-09-21T18:30:00.000+09:00","ended_at":"2013-09-21T20:30:00.000+09:00","limit_number":50,"address":"岐阜県大垣市今宿3丁目12−1","place":"台湾料理　龍香苑　今宿店","lat":0.0,"lon":0.0,"state":"closed","id":null},{"event_id":"42596","title":"Ogaki Developer Day 2013 fall","url":"https://atnd.org/events/42596","shortener_url":null,"started_at":"2013-09-21T13:00:00.000+09:00","ended_at":"2013-09-22T15:00:00.000+09:00","limit_number":50,"address":"岐阜県大垣市今宿6-52-16","place":"ソフトピアジャパン　ドリーム・コア3F　研修室1","lat":0.0,"lon":0.0,"state":"closed","id":null},{"event_id":"42878","title":"API使ったWEBアプリを作ろうぜハッカソン【デザイナー・コーダー枠】","url":"https://atnd.org/events/42878","shortener_url":null,"started_at":"2013-09-21T10:00:00.000+09:00","ended_at":"2013-09-21T20:30:00.000+09:00","limit_number":10,"address":"東京都港区新橋1-8-3 住友新橋ビル9階","place":"株式会社マインドパレット フリースペース","lat":35.6671,"lon":139.76,"state":"closed","id":null},{"event_id":"43149","title":"#MA9 最大賞金200万（倍増しました！）のアプリ・サービス開発コンテスト主催！　エンジニア、デザイナー、学生さんWelcome！！ MashupAward解説イベント東京！","url":"https://atnd.org/events/43149","shortener_url":null,"started_at":"2013-09-19T19:00:00.000+09:00","ended_at":"2013-09-19T22:30:00.000+09:00","limit_number":40,"address":"東京都中央区銀座7-2-6 リクルートアネックス1ビル B1F","place":"メディアテクノロジーラボ　MTLカフェ","lat":0.0,"lon":0.0,"state":"closed","id":null},{"event_id":"43148","title":"#MA9 最大賞金200万（倍増しました！）のアプリ・サービス開発コンテスト主催！　エンジニア、デザイナー、学生さんWelcome！！ ミートアップイベント名古屋！","url":"https://atnd.org/events/43148","shortener_url":null,"started_at":"2013-09-18T19:00:00.000+09:00","ended_at":"2013-09-18T22:30:00.000+09:00","limit_number":30,"address":"名古屋市西区牛島町6番1号 名古屋ルーセントタワー32F","place":"株式会社エイチーム セミナール","lat":0.0,"lon":0.0,"state":"closed","id":null},{"event_id":"42419","title":"CTF チャレンジ勉強会 in Sapporo","url":"https://atnd.org/events/42419","shortener_url":null,"started_at":"2013-09-15T13:30:00.000+09:00","ended_at":"2013-09-15T17:15:00.000+09:00","limit_number":38,"address":"札幌市白石区東札幌5条1丁目1-1","place":"札幌市産業振興センター ルームC","lat":43.0562,"lon":141.386,"state":"closed","id":null},{"event_id":"43502","title":"第115回よちよちAndroid開発ミーティング","url":"https://atnd.org/events/43502","shortener_url":null,"started_at":"2013-09-15T09:00:00.000+09:00","ended_at":"2013-09-15T12:00:00.000+09:00","limit_number":null,"address":"東京都品川区大崎1-11-1","place":"ゲートシティ大崎B1アトリウムフリー座席 ","lat":35.6194,"lon":139.731,"state":"closed","id":null},{"event_id":"43412","title":"Test the Web Forward Meetup (仮), Tokyo #1","url":"https://atnd.org/events/43412","shortener_url":null,"started_at":"2013-09-14T10:00:00.000+09:00","ended_at":"2013-09-14T18:00:00.000+09:00","limit_number":40,"address":"東京都港区六本木7丁目18番18号 住友不動産六本木通ビル","place":"ジープラ株式会社","lat":0.0,"lon":0.0,"state":"closed","id":null},{"event_id":"43182","title":"9LISP - 41?","url":"https://atnd.org/events/43182","shortener_url":null,"started_at":"2013-09-14T10:00:00.000+09:00","ended_at":"2013-09-14T18:00:00.000+09:00","limit_number":15,"address":"熊本県熊本市中央区南熊本3丁目14−138","place":"くまもと大学連携インキュベータ 1F会議室","lat":0.0,"lon":0.0,"state":"closed","id":null},{"event_id":"43123","title":"#MA9 サービス開発して200万（倍増しました！）をゲットしたい エンジニア、デザイナー、学生さん！Welcome！！　Mashup Caravan\u0026Meetup大阪　交流イベント！","url":"https://atnd.org/events/43123","shortener_url":null,"started_at":"2013-09-12T19:00:00.000+09:00","ended_at":"2013-09-12T22:30:00.000+09:00","limit_number":30,"address":"大阪府大阪市北区角田町8-1","place":"株式会社リクルート ホールディングス　大阪支社「中ホール」","lat":0.0,"lon":0.0,"state":"closed","id":null},{"event_id":"42393","title":"LEAP MOTION アイデアソン","url":"https://atnd.org/events/42393","shortener_url":null,"started_at":"2013-09-11T19:00:00.000+09:00","ended_at":"2013-09-11T21:00:00.000+09:00","limit_number":9,"address":"大阪市淀川区西中島6-2-3 チサン第7新大阪317号","place":"株式会社サブスレッド","lat":34.7291,"lon":135.498,"state":"closed","id":null},{"event_id":"42891","title":"JOSUG 第14回OpenStack勉強会(ハッカソン)","url":"https://atnd.org/events/42891","shortener_url":null,"started_at":"2013-09-08T13:00:00.000+09:00","ended_at":"2013-09-08T18:00:00.000+09:00","limit_number":20,"address":"東京都千代田区神田佐久間町3-6 M's WORKS BLDG 2F","place":"クリエーションライン株式会社","lat":35.6973,"lon":139.778,"state":"closed","id":null},{"event_id":"43244","title":"第114回よちよちAndroid開発ミーティング","url":"https://atnd.org/events/43244","shortener_url":null,"started_at":"2013-09-08T09:00:00.000+09:00","ended_at":"2013-09-08T12:00:00.000+09:00","limit_number":null,"address":"東京都品川区大崎1-11-1","place":"ゲートシティ大崎B1アトリウムフリー座席","lat":35.6194,"lon":139.731,"state":"closed","id":null},{"event_id":"42202","title":"天神Perl","url":"https://atnd.org/events/42202","shortener_url":null,"started_at":"2013-09-07T13:00:00.000+09:00","ended_at":"2013-09-07T18:00:00.000+09:00","limit_number":8,"address":"福岡県福岡市中央区天神4-8-2 天神ビルプラス8F","place":"株式会社イーハイブ","lat":33.595,"lon":130.4,"state":"closed","id":null},{"event_id":"42857","title":"［増員＋5名］#MA9 Mashup Camp 東京 Vol.01 大賞金額200万の日本最大の開発コンテストがおくる週末ハッカソンイベント！　チームメンバーも探せるよ！9/6-8開催","url":"https://atnd.org/events/42857","shortener_url":null,"started_at":"2013-09-06T19:00:00.000+09:00","ended_at":"2013-09-08T19:00:00.000+09:00","limit_number":45,"address":"東京都中央区銀座7-2-6 リクルートアネックス1ビル B1F","place":"　メディアテクノロジーラボ　MTLカフェ","lat":35.6709,"lon":139.761,"state":"closed","id":null},{"event_id":"42918","title":"【増員＋5名】#MA9 サービス開発して200万（倍増しました！）をゲットしたい エンジニア、デザイナー、学生さん！Welcome！！　Mashup Caravan\u0026Meetup福岡vol.01　 ","url":"https://atnd.org/events/42918","shortener_url":null,"started_at":"2013-09-05T19:00:00.000+09:00","ended_at":"2013-09-05T22:30:00.000+09:00","limit_number":35,"address":"福岡市中央区天神1-7-11イムズ11F","place":"デジタルハリウッド福岡校","lat":33.5902,"lon":130.4,"state":"closed","id":null},{"event_id":"42921","title":"第113回よちよちAndroid開発ミーティング","url":"https://atnd.org/events/42921","shortener_url":null,"started_at":"2013-09-01T09:00:00.000+09:00","ended_at":"2013-09-01T12:00:00.000+09:00","limit_number":null,"address":"東京都品川区大崎1-11-1","place":"ゲートシティ大崎B1アトリウムフリー座席","lat":35.6194,"lon":139.731,"state":"closed","id":null},{"event_id":"42533","title":"第25回オープンCAE勉強会@関西（OpenFOAMなど）","url":"https://atnd.org/events/42533","shortener_url":null,"started_at":"2013-09-21T13:00:00.000+09:00","ended_at":"2013-09-21T17:00:00.000+09:00","limit_number":null,"address":"大阪市北区中之島4-3-53","place":"大阪大学中之島センター","lat":34.6927,"lon":135.49,"state":"closed","id":null},{"event_id":"40745","title":"TSG夏合宿","url":"https://atnd.org/events/40745","shortener_url":null,"started_at":"2013-09-17T00:00:00.000+09:00","ended_at":"2013-09-19T00:00:00.000+09:00","limit_number":null,"address":"神奈川県平塚市夕陽ヶ丘1-19","place":"やまいち旅館","lat":0.0,"lon":0.0,"state":"closed","id":null}]