[{"event_id":"2247","title":"【リスケ】肉を喰らう会 第3回","url":"https://meat.connpass.com/event/2247/","shortener_url":null,"started_at":"2013-04-28T03:00:00.000+09:00","ended_at":"2013-05-07T05:00:00.000+09:00","limit_number":5,"address":"東京都渋谷区宇田川町32-15(ビアビル5F)","place":"風風亭 渋谷店","lat":35.661,"lon":139.698,"state":"active","id":null},{"event_id":"2261","title":"関西ハック Hackathon - Hacker News Kansai","url":"https://connpass.com/event/2261/","shortener_url":null,"started_at":"2013-04-20T09:00:00.000+09:00","ended_at":"2013-04-20T21:00:00.000+09:00","limit_number":null,"address":"10F Yasaka Shijo Karasuma Bldg., Kankoboko-cho 79 Shimogyo-ku, Kyoto 600-8009, Japan","place":"Vitei","lat":35.0037,"lon":135.759,"state":"active","id":null},{"event_id":"2091","title":"A3直前！NFCLAB追い込みアイディアソン（企画・デザイナー枠）","url":"https://connpass.com/event/2091/","shortener_url":null,"started_at":"2013-04-12T19:00:00.000+09:00","ended_at":"2013-04-12T21:00:00.000+09:00","limit_number":6,"address":"東京都新宿区西新宿二丁目1番1号 新宿三井ビルディング34階","place":"株式会社　豆蔵　トレーニングルーム","lat":35.6919,"lon":139.694,"state":"active","id":null},{"event_id":"2092","title":"A3直前！NFCLAB追い込みアイディアソン（開発者枠）","url":"https://connpass.com/event/2092/","shortener_url":null,"started_at":"2013-04-12T19:00:00.000+09:00","ended_at":"2013-04-12T21:00:00.000+09:00","limit_number":14,"address":"東京都新宿区西新宿二丁目1番1号 新宿三井ビルディング34階","place":"株式会社　豆蔵　トレーニングルーム","lat":35.6919,"lon":139.694,"state":"active","id":null},{"event_id":"2093","title":"A3直前！NFCLAB追い込みハッカソン（企画・デザイナー枠）","url":"https://connpass.com/event/2093/","shortener_url":null,"started_at":"2013-04-20T10:00:00.000+09:00","ended_at":"2013-04-20T18:00:00.000+09:00","limit_number":6,"address":"東京都新宿区西新宿二丁目1番1号 新宿三井ビルディング34階","place":"株式会社　豆蔵　トレーニングルーム","lat":35.6919,"lon":139.694,"state":"active","id":null},{"event_id":"2094","title":"A3直前！NFCLAB追い込みハッカソン（開発者枠）","url":"https://connpass.com/event/2094/","shortener_url":null,"started_at":"2013-04-20T10:00:00.000+09:00","ended_at":"2013-04-20T18:00:00.000+09:00","limit_number":14,"address":"東京都新宿区西新宿二丁目1番1号 新宿三井ビルディング34階","place":"株式会社　豆蔵　トレーニングルーム","lat":35.6919,"lon":139.694,"state":"active","id":null},{"event_id":"2050","title":"Yokohama.groovy #14 #yokohamagroovy","url":"https://connpass.com/event/2050/","shortener_url":null,"started_at":"2013-04-21T13:30:00.000+09:00","ended_at":"2013-04-21T19:00:00.000+09:00","limit_number":6,"address":"神奈川県横浜市西区岡野1-3-10 サニーコート横浜 1F","place":"横浜タネマキ","lat":35.4611,"lon":139.616,"state":"active","id":null},{"event_id":"1982","title":"BI-RD Hack a thon","url":"https://connpass.com/event/1982/","shortener_url":null,"started_at":"2013-04-20T19:00:00.000+09:00","ended_at":"2013-04-21T04:00:00.000+09:00","limit_number":30,"address":"東京都品川区東品川2-2-28（Tビル1F）","place":"ビットアイル セミナールーム","lat":35.6218,"lon":139.749,"state":"active","id":null},{"event_id":"38390","title":"Japan AWS User Group (JAWS-UG) 小笠原　勉強会 第0回","url":"https://atnd.org/events/38390","shortener_url":null,"started_at":"2013-04-30T10:00:00.000+09:00","ended_at":"2013-05-05T15:30:00.000+09:00","limit_number":50,"address":"東京都小笠原村父島西町","place":"小笠原ビジターセンター","lat":27.0763,"lon":142.213,"state":"closed","id":null},{"event_id":"38272","title":"鯖江マッピングパーティー","url":"https://atnd.org/events/38272","shortener_url":null,"started_at":"2013-04-29T10:30:00.000+09:00","ended_at":"2013-04-29T17:30:00.000+09:00","limit_number":20,"address":"福井県鯖江市本町2丁目2−16","place":"市民ホールつつじ 研修室Ⅰ","lat":35.9463,"lon":136.185,"state":"closed","id":null},{"event_id":"38271","title":"オープンストリートマップアイデアソン in 鯖江","url":"https://atnd.org/events/38271","shortener_url":null,"started_at":"2013-04-28T13:00:00.000+09:00","ended_at":"2013-04-28T18:00:00.000+09:00","limit_number":30,"address":"福井県鯖江市新横江2丁目3−4","place":"めがね会館7F jig.jpセミナールーム","lat":35.9428,"lon":136.199,"state":"closed","id":null},{"event_id":"38466","title":"Mozilla Hackathon 2013 春","url":"https://atnd.org/events/38466","shortener_url":null,"started_at":"2013-04-27T13:00:00.000+09:00","ended_at":"2013-04-28T16:00:00.000+09:00","limit_number":30,"address":"東京都港区六本木 7-5-6","place":"Mozilla Japan オフィス","lat":35.6652,"lon":139.728,"state":"closed","id":null},{"event_id":"36836","title":"TypeScriptハッカソン2Days ハッカソン","url":"https://atnd.org/events/36836","shortener_url":null,"started_at":"2013-04-27T10:00:00.000+09:00","ended_at":"2013-04-27T18:00:00.000+09:00","limit_number":30,"address":"大阪府大阪市中央区北浜4-7-28 住友ビルディング第2号館","place":"IIJ関西支社","lat":34.6912,"lon":135.498,"state":"closed","id":null},{"event_id":"38865","title":"第2回@IT Windowsストア アプリ選手権追いこみアイデアソン!","url":"https://atnd.org/events/38865","shortener_url":null,"started_at":"2013-04-26T19:30:00.000+09:00","ended_at":"2013-04-26T22:00:00.000+09:00","limit_number":20,"address":"東京都港区赤坂8-1-22","place":"赤坂王子ビル 7F アイティメディア会議室","lat":35.6735,"lon":139.728,"state":"closed","id":null},{"event_id":"38056","title":"Cloud on the BEACH2013 前夜祭","url":"https://atnd.org/events/38056","shortener_url":null,"started_at":"2013-04-26T19:00:00.000+09:00","ended_at":"2013-04-27T00:00:00.000+09:00","limit_number":60,"address":"沖縄県中頭郡北谷町北谷2丁目1−5","place":"Creators Residence","lat":26.3051,"lon":127.762,"state":"closed","id":null},{"event_id":"37811","title":"【増員】【#TechBuzz】第2回スマホアプリグローバルマーケ勉強会   韓国ローカルマーケットの現状と未来〜中国、韓国、台湾、タイ、ベトナムのアプリ市場に参入する時に気をつけないといけないポイントは何か〜","url":"https://atnd.org/events/37811","shortener_url":null,"started_at":"2013-04-25T19:30:00.000+09:00","ended_at":"2013-04-25T22:00:00.000+09:00","limit_number":80,"address":"新宿区新宿5-18-20","place":"TechBuzzSpace（新宿オミビル4階） ","lat":35.694,"lon":139.706,"state":"closed","id":null},{"event_id":"37809","title":"【増員】【Social Top Runners!】#24”スマートフォンアプリの未来”               ～『CocoPPa』リリース約8ヶ月で 全世界の累計インストール数600万突破！ ( うち米国構成比が48％ )　日本発のグローバルコミュニティ成功の秘訣とユナイテッド社の今後の展望とは～","url":"https://atnd.org/events/37809","shortener_url":null,"started_at":"2013-04-24T19:30:00.000+09:00","ended_at":"2013-04-24T22:00:00.000+09:00","limit_number":80,"address":"新宿区新宿5-18-20","place":"TechBuzzSpace（新宿オミビル4階） ","lat":35.694,"lon":139.706,"state":"closed","id":null},{"event_id":"38771","title":"第4回Web APIで学ぶPHP・JavaScript勉強会","url":"https://atnd.org/events/38771","shortener_url":null,"started_at":"2013-04-21T13:30:00.000+09:00","ended_at":"2013-04-21T18:00:00.000+09:00","limit_number":23,"address":"東京都新宿区西新宿1-6-1","place":"マルチメディアスクールWAVE新宿本校","lat":35.6922,"lon":139.697,"state":"closed","id":null},{"event_id":"38456","title":"第4回アトムハウスハッカソン","url":"https://atnd.org/events/38456","shortener_url":null,"started_at":"2013-04-21T11:00:00.000+09:00","ended_at":"2013-04-24T08:59:59.000+09:00","limit_number":6,"address":"","place":"アトムハウス","lat":null,"lon":null,"state":"closed","id":null},{"event_id":"38772","title":"第５回　八耐＠JAIST","url":"https://atnd.org/events/38772","shortener_url":null,"started_at":"2013-04-21T10:00:00.000+09:00","ended_at":"2013-04-21T19:00:00.000+09:00","limit_number":30,"address":"石川県能美市旭台1−1","place":"北陸先端科学技術大学院大学　知識科学研究科棟５F　コラボレーションルーム２","lat":36.4445,"lon":136.593,"state":"closed","id":null},{"event_id":"38822","title":"第98回よちよちAndroid開発ミーティング","url":"https://atnd.org/events/38822","shortener_url":null,"started_at":"2013-04-21T09:00:00.000+09:00","ended_at":"2013-04-21T12:00:00.000+09:00","limit_number":null,"address":"東京都品川区大崎1-11-1","place":"ゲートシティ大崎B1アトリウムフリー座席","lat":35.6194,"lon":139.731,"state":"closed","id":null},{"event_id":"38399","title":"Cocos2d-xハンズオン勉強会〜簡単なゲームを作ってみよう！","url":"https://atnd.org/events/38399","shortener_url":null,"started_at":"2013-04-20T13:00:00.000+09:00","ended_at":"2013-04-20T17:00:00.000+09:00","limit_number":20,"address":"名古屋市中区栄2-2-23 アーク白川公園ビルディング7F","place":"Jam Garage(ジャムガレージ)","lat":35.1675,"lon":136.899,"state":"closed","id":null},{"event_id":"38903","title":"第 5 回 もくもく会 in Creators Residence","url":"https://atnd.org/events/38903","shortener_url":null,"started_at":"2013-04-20T11:00:00.000+09:00","ended_at":"2013-04-20T22:00:00.000+09:00","limit_number":null,"address":"沖縄県中頭郡北谷町北谷2丁目1−5","place":"Creators Residence","lat":26.3051,"lon":127.762,"state":"closed","id":null},{"event_id":"36835","title":"TypeScriptハッカソン2Days アイデアソン","url":"https://atnd.org/events/36835","shortener_url":null,"started_at":"2013-04-20T11:00:00.000+09:00","ended_at":"2013-04-20T18:00:00.000+09:00","limit_number":30,"address":"大阪府大阪市北区小松原町2−4 大阪富国生命ビル 18階","place":"サイバーエージェント大阪支社","lat":34.7026,"lon":135.501,"state":"closed","id":null},{"event_id":"38594","title":"第97回よちよちAndroid開発ミーティング","url":"https://atnd.org/events/38594","shortener_url":null,"started_at":"2013-04-14T09:00:00.000+09:00","ended_at":"2013-04-14T12:00:00.000+09:00","limit_number":null,"address":"東京都品川区大崎1-11-1","place":"ゲートシティ大崎B1アトリウムフリー座席","lat":35.6194,"lon":139.731,"state":"closed","id":null},{"event_id":"37567","title":"【増員】【#TechBuzz】全6回でCorona Developerになろう！Code Less, Play More !　CoronaSDKで簡単にアプリを作ろう♪#3物理演算（物理オブジェクトの設定、落下、衝突、センサーなど）","url":"https://atnd.org/events/37567","shortener_url":null,"started_at":"2013-04-13T13:00:00.000+09:00","ended_at":"2013-04-13T15:00:00.000+09:00","limit_number":30,"address":"新宿区新宿5-18-20","place":"TechBuzzSpace（新宿オミビル4階）","lat":35.694,"lon":139.706,"state":"closed","id":null},{"event_id":"37807","title":"【増員】【#TechBuzz】第4回 XPF（クロスプラットフォーム）開発技術勉強会  ネイティブ以上の性能を Web で！ Sencha Touch で始めるクロスプラットフォームモバイルアプリ開発 /かんたんなcocos2d-xの紹介! /今すぐPhoneGapでアプリ開発","url":"https://atnd.org/events/37807","shortener_url":null,"started_at":"2013-04-11T19:30:00.000+09:00","ended_at":"2013-04-11T22:00:00.000+09:00","limit_number":35,"address":"東京都新宿区新宿5丁目18番20号","place":"TechBuzzSpace（新宿オミビル4階）","lat":35.694,"lon":139.706,"state":"closed","id":null},{"event_id":"38398","title":"第96回よちよちAndroid開発ミーティング","url":"https://atnd.org/events/38398","shortener_url":null,"started_at":"2013-04-07T09:00:00.000+09:00","ended_at":"2013-04-07T12:00:00.000+09:00","limit_number":null,"address":"東京都品川区大崎1-11-1","place":"ゲートシティ大崎B1アトリウムフリー座席","lat":35.6194,"lon":139.731,"state":"closed","id":null},{"event_id":"37972","title":"Hachioji.pm #27","url":"https://atnd.org/events/37972","shortener_url":null,"started_at":"2013-04-06T18:00:00.000+09:00","ended_at":"2013-04-09T08:59:59.000+09:00","limit_number":17,"address":"東京都八王子市子安町4-9-8 野田ビル1F","place":"海鮮居酒屋 はなの舞 八王子南口店","lat":35.6537,"lon":139.338,"state":"closed","id":null},{"event_id":"38352","title":"iOS Dev ハッカソン 関西 Vol.04 #iosdevthon_kansai","url":"https://atnd.org/events/38352","shortener_url":null,"started_at":"2013-04-06T12:00:00.000+09:00","ended_at":"2013-04-07T12:00:00.000+09:00","limit_number":8,"address":"堺市東区/最寄り駅:南海高野線 萩原天神駅","place":"","lat":0.0,"lon":0.0,"state":"closed","id":null},{"event_id":"37973","title":"Like a ハッカソン #6 (pre Hachioji.pm #27)","url":"https://atnd.org/events/37973","shortener_url":null,"started_at":"2013-04-06T10:00:00.000+09:00","ended_at":"2013-04-06T18:00:00.000+09:00","limit_number":16,"address":"東京都八王子市子安町4-9-6","place":"八王子南口ＭＴビル時間貸し会議室","lat":35.6535,"lon":139.338,"state":"closed","id":null},{"event_id":"37810","title":"【TechBuzz】Android 伝説のもくもくハッカソン#2　～大興奮！？アプリ企画レビューもあるかも！？～","url":"https://atnd.org/events/37810","shortener_url":null,"started_at":"2013-04-05T19:30:00.000+09:00","ended_at":"2013-04-05T22:00:00.000+09:00","limit_number":10,"address":"東京都新宿区新宿5丁目18番20号","place":"TechBuzzSpace（新宿オミビル4階）","lat":35.694,"lon":139.706,"state":"closed","id":null},{"event_id":"2257","title":"【懇親会】第8回 HPC勉強会","url":"https://connpass.com/event/2257/","shortener_url":null,"started_at":"2013-04-20T19:00:00.000+09:00","ended_at":"2013-04-20T21:30:00.000+09:00","limit_number":30,"address":"東京都千代田区内神田3-4-6 (富士エレベータービルB1)","place":"Big-Pig 神田西口店","lat":35.6903,"lon":139.769,"state":"active","id":null}]