[{"event_id":"3799","title":"pylons/pyramidはっかそん2013.10","url":"https://pylons.connpass.com/event/3799/","shortener_url":null,"started_at":"2013-10-19T21:00:00.000+09:00","ended_at":"2013-10-20T04:00:00.000+09:00","limit_number":100,"address":"東京都渋谷区千駄ヶ谷5-32-7 (NOF南新宿ビル4F)","place":"Be Proud 会議室","lat":35.6864,"lon":139.704,"state":"active","id":null},{"event_id":"3698","title":"spika hackathon","url":"https://connpass.com/event/3698/","shortener_url":null,"started_at":"2013-10-19T11:00:00.000+09:00","ended_at":"2013-10-20T15:30:00.000+09:00","limit_number":5,"address":"東京都渋谷区渋谷 3-27-15 坂上ビル7F","place":"Lightningspot","lat":35.6561,"lon":139.705,"state":"active","id":null},{"event_id":"3633","title":"http2.0 ミニハッカソン","url":"https://http2study.connpass.com/event/3633/","shortener_url":null,"started_at":"2013-10-12T12:00:00.000+09:00","ended_at":"2013-10-12T18:00:00.000+09:00","limit_number":7,"address":"〒150-0045　東京都渋谷区神泉町8-16　渋谷ファーストプレイス8F","place":"VOYAGE GROUP","lat":35.6553,"lon":139.694,"state":"active","id":null},{"event_id":"3488","title":"EdTech Hackathon vol.1","url":"https://connpass.com/event/3488/","shortener_url":null,"started_at":"2013-10-26T09:00:00.000+09:00","ended_at":"2013-10-26T19:00:00.000+09:00","limit_number":44,"address":"東京都渋谷区渋谷1-8-7　第27SYビル3階A","place":"EdTech Lab (β)","lat":35.6603,"lon":139.705,"state":"active","id":null},{"event_id":"45034","title":"ハイエンドの女王熟女ファンの摩耗","url":"https://atnd.org/events/45034","shortener_url":null,"started_at":"2013-10-30T00:00:00.000+09:00","ended_at":"2013-12-31T00:00:00.000+09:00","limit_number":null,"address":"","place":"","lat":null,"lon":null,"state":"closed","id":null},{"event_id":"44937","title":"making of FabLab秋葉原 #2","url":"https://atnd.org/events/44937","shortener_url":null,"started_at":"2013-10-28T21:00:00.000+09:00","ended_at":"2013-10-28T23:00:00.000+09:00","limit_number":10,"address":"東京都千代田区外神田1−13−3 ZIGZAGビル8F","place":"塚田農場 秋葉原中央通り店","lat":35.6991,"lon":139.772,"state":"closed","id":null},{"event_id":"44875","title":"第121回オフライン開発ミーティング","url":"https://atnd.org/events/44875","shortener_url":null,"started_at":"2013-10-27T10:00:00.000+09:00","ended_at":"2013-10-27T12:00:00.000+09:00","limit_number":null,"address":"東京都品川区大崎1-11-1","place":"ゲートシティ大崎B1アトリウムフリー座席","lat":0.0,"lon":0.0,"state":"closed","id":null},{"event_id":"44927","title":"Hachioji.pm #33","url":"https://atnd.org/events/44927","shortener_url":null,"started_at":"2013-10-26T16:00:00.000+09:00","ended_at":"2013-10-29T08:59:59.000+09:00","limit_number":16,"address":"東東京都八王子市子安町4-9-8 野田ビル1F","place":"海鮮居酒屋 はなの舞 八王子南口店","lat":35.6536,"lon":139.337,"state":"closed","id":null},{"event_id":"44608","title":"減災ソフトウェア開発に関わる一日会議","url":"https://atnd.org/events/44608","shortener_url":null,"started_at":"2013-10-26T09:30:00.000+09:00","ended_at":"2013-10-26T18:00:00.000+09:00","limit_number":40,"address":"千代田区神田神保町2-12-3安富ビル4F","place":"WORKING LOUNGE EDITORY","lat":35.6966,"lon":139.757,"state":"closed","id":null},{"event_id":"43587","title":"【増員120名】【#TechBuzz】第18回Unity開発技術勉強会 〜TeamLabのすぎっちょさん、遂に登壇！Unity Award 2013受賞者！/  Unity3d に於けるモバイルプラットフォーム向けのリソース管理 〜AssetBundle と 2D Texture Compression のおはなし〜","url":"https://atnd.org/events/43587","shortener_url":null,"started_at":"2013-10-23T19:30:00.000+09:00","ended_at":"2013-10-23T22:00:00.000+09:00","limit_number":120,"address":"東京都新宿区新宿5丁目18番20号","place":"TechBuzzSpace（新宿オミビル4階）","lat":35.694,"lon":139.706,"state":"closed","id":null},{"event_id":"44747","title":"【Webプラットフォーム勉強会 1310】Appmakerを使ってみよう #TizenJP #FXOS #d_hack #HTML5J","url":"https://atnd.org/events/44747","shortener_url":null,"started_at":"2013-10-23T19:00:00.000+09:00","ended_at":"2013-10-23T22:00:00.000+09:00","limit_number":20,"address":"東京都東京都港区六本木 7-5-6","place":"Mozilla Japan","lat":0.0,"lon":0.0,"state":"closed","id":null},{"event_id":"44642","title":"第120回オフライン開発ミーティング","url":"https://atnd.org/events/44642","shortener_url":null,"started_at":"2013-10-20T10:00:00.000+09:00","ended_at":"2013-10-20T12:00:00.000+09:00","limit_number":null,"address":"東京都品川区大崎1-11-1","place":"ゲートシティ大崎B1アトリウムフリー座席","lat":0.0,"lon":0.0,"state":"closed","id":null},{"event_id":"44523","title":"API使ったWEBアプリを作ろうぜハッカソン＃２【デザイナー・コーダー枠】","url":"https://atnd.org/events/44523","shortener_url":null,"started_at":"2013-10-20T10:00:00.000+09:00","ended_at":"2013-10-23T08:59:59.000+09:00","limit_number":10,"address":"東京都港区新橋1-8-3住友新橋ビル9階","place":"株式会社マインドパレット","lat":0.0,"lon":0.0,"state":"closed","id":null},{"event_id":"44588","title":"ジオ・グイド「Live ＆Jam Session」","url":"https://atnd.org/events/44588","shortener_url":null,"started_at":"2013-10-19T20:00:00.000+09:00","ended_at":"2013-10-19T22:00:00.000+09:00","limit_number":null,"address":"神奈川県横浜市青葉区青葉台2-19-8","place":"Au Lapin Agile","lat":0.0,"lon":0.0,"state":"closed","id":null},{"event_id":"44587","title":"ジオ・グイド「ワークショップ」","url":"https://atnd.org/events/44587","shortener_url":null,"started_at":"2013-10-19T18:00:00.000+09:00","ended_at":"2013-10-19T19:30:00.000+09:00","limit_number":null,"address":"神奈川県横浜市青葉区青葉台2-19-8","place":"Au Lapin Agile","lat":0.0,"lon":0.0,"state":"closed","id":null},{"event_id":"44368","title":"#MA9 Mashup Camp 大阪！！ 大賞200万円の日本最大の開発コンテストがおくる週末ハッカソンイベント！！10/19,20開催","url":"https://atnd.org/events/44368","shortener_url":null,"started_at":"2013-10-19T10:00:00.000+09:00","ended_at":"2013-10-20T19:30:00.000+09:00","limit_number":40,"address":"大阪府大阪市北区大深町3番1号 グランフロント大阪 ナレッジキャピタル タワーC 7階","place":"グローバルベンチャーハビタット大阪","lat":0.0,"lon":0.0,"state":"closed","id":null},{"event_id":"44071","title":"【本日決行】【二次会のお知らせ】＿【AID勉強会】コラボから生まれたAppStore総合１位とは？２組の開発者ゲスト講演！","url":"https://atnd.org/events/44071","shortener_url":null,"started_at":"2013-10-16T19:30:00.000+09:00","ended_at":"2013-10-16T22:00:00.000+09:00","limit_number":70,"address":"東京都新宿区新宿5-18-20","place":"TechBuzzSpace（新宿オミビル4階）","lat":0.0,"lon":0.0,"state":"closed","id":null},{"event_id":"43645","title":"#MA9 最大賞金200万のMashup Awards 9主催！　エンジニア、デザイナー、学生さんWelcome！！ アイデアワークショップ＠京都","url":"https://atnd.org/events/43645","shortener_url":null,"started_at":"2013-10-15T19:00:00.000+09:00","ended_at":"2013-10-15T22:30:00.000+09:00","limit_number":30,"address":"京都府京都市下京区中堂寺南町134番地","place":"京都リサーチパーク１号館４Ｆ ＡＶ会議室","lat":0.0,"lon":0.0,"state":"closed","id":null},{"event_id":"44299","title":"SWWDC 仙台iOS開発者もくもく会 10/14(月・祝)","url":"https://atnd.org/events/44299","shortener_url":null,"started_at":"2013-10-14T13:00:00.000+09:00","ended_at":"2013-10-14T18:00:00.000+09:00","limit_number":15,"address":"宮城県仙台市青葉区花京院 1丁目3番2号","place":"仙台市シルバーセンター 5F 会議室","lat":0.0,"lon":0.0,"state":"closed","id":null},{"event_id":"44283","title":"#MA9 Mashup Camp 福井！！ 大賞200万円の日本最大の開発コンテストがおくるハッカソンイベント！！10/14,21開催","url":"https://atnd.org/events/44283","shortener_url":null,"started_at":"2013-10-14T10:00:00.000+09:00","ended_at":"2013-10-21T21:00:00.000+09:00","limit_number":30,"address":"福井県坂井市丸岡町熊堂3-7-1-16","place":"福井県産業情報センタービル　会議室A・B(2F)","lat":0.0,"lon":0.0,"state":"closed","id":null},{"event_id":"44356","title":"【デザイナー・ディレクター歓迎】Webアプリ・スマートフォンアプリHackathon","url":"https://atnd.org/events/44356","shortener_url":null,"started_at":"2013-10-14T09:30:00.000+09:00","ended_at":"2013-10-17T08:59:59.000+09:00","limit_number":null,"address":"","place":"国立オリンピック記念青少年総合センター","lat":null,"lon":null,"state":"closed","id":null},{"event_id":"43407","title":"#MA9 シビックハック and Mashup Camp in 名古屋 懇親会","url":"https://atnd.org/events/43407","shortener_url":null,"started_at":"2013-10-13T19:00:00.000+09:00","ended_at":"2013-10-13T21:00:00.000+09:00","limit_number":40,"address":"〒451-6002 愛知県名古屋市西区牛島町6-1 名古屋ルーセントタワー2F","place":"芋蔵 ルーセント店","lat":0.0,"lon":0.0,"state":"closed","id":null},{"event_id":"44476","title":"第119回オフライン開発ミーティング","url":"https://atnd.org/events/44476","shortener_url":null,"started_at":"2013-10-13T09:00:00.000+09:00","ended_at":"2013-10-13T12:00:00.000+09:00","limit_number":null,"address":"東京都品川区大崎1-11-1","place":"ゲートシティ大崎B1アトリウムフリー座席","lat":0.0,"lon":0.0,"state":"closed","id":null},{"event_id":"43408","title":"天神Perl #2","url":"https://atnd.org/events/43408","shortener_url":null,"started_at":"2013-10-12T13:00:00.000+09:00","ended_at":"2013-10-12T18:00:00.000+09:00","limit_number":8,"address":"福岡県福岡市中央区天神4-8-2 天神ビルプラス8F","place":"株式会社イーハイブ","lat":33.595,"lon":130.4,"state":"closed","id":null},{"event_id":"43291","title":"#MA9 週末ハッカソンイベント!　シビックハック and Mashup Camp in 名古屋 10/12-13開催！","url":"https://atnd.org/events/43291","shortener_url":null,"started_at":"2013-10-12T10:00:00.000+09:00","ended_at":"2013-10-13T18:00:00.000+09:00","limit_number":40,"address":"名古屋市西区牛島町6番1号 名古屋ルーセントタワー32F (一番奥のエレベータをご利用ください!)","place":"株式会社エイチーム セミナールーム","lat":35.1749,"lon":136.881,"state":"closed","id":null},{"event_id":"44070","title":"#MA9 最大賞金200万（倍増しました！）のアプリ・サービス開発コンテスト主催！　エンジニア、デザイナー、学生さんWelcome！！ MashupAward解説イベント東京vol.02！","url":"https://atnd.org/events/44070","shortener_url":null,"started_at":"2013-10-10T19:00:00.000+09:00","ended_at":"2013-10-10T22:30:00.000+09:00","limit_number":30,"address":"東京都中央区銀座7-2-6 リクルートアネックス1ビル B1F","place":"メディアテクノロジーラボ　MTLカフェ","lat":0.0,"lon":0.0,"state":"closed","id":null},{"event_id":"43669","title":"#MA9 特別企画＠大阪　狙え！楽天賞！「次の時代のEコマースを生み出す」ハッカソン！ 10/3,10/9の2日間開催！","url":"https://atnd.org/events/43669","shortener_url":null,"started_at":"2013-10-09T19:00:00.000+09:00","ended_at":"2013-10-09T22:00:00.000+09:00","limit_number":30,"address":"大阪府大阪市北区大深町3−1","place":"グランフロント北館1F・ナレッジキャピタル カフェラボ エキシビジョンスペース","lat":0.0,"lon":0.0,"state":"closed","id":null},{"event_id":"44069","title":"#MA9 最大賞金200万（倍増しました！）のアプリ・サービス開発コンテスト主催！　エンジニア、デザイナー、学生さんWelcome！！ アイデアソンイベント＠札幌！","url":"https://atnd.org/events/44069","shortener_url":null,"started_at":"2013-10-08T19:00:00.000+09:00","ended_at":"2013-10-08T22:30:00.000+09:00","limit_number":30,"address":"札幌市中央区北3条西14丁目2-2","place":"Garage labs","lat":0.0,"lon":0.0,"state":"closed","id":null},{"event_id":"43747","title":"#02 Hokkaido CTF 勉強会（Hackathon）【初心者・ベテラン大歓迎】","url":"https://atnd.org/events/43747","shortener_url":null,"started_at":"2013-10-06T12:00:00.000+09:00","ended_at":"2013-10-06T18:00:00.000+09:00","limit_number":15,"address":"http://www.infiniteloop.co.jp/map/","place":"株式会社インフィニットループ　大会議室","lat":0.0,"lon":0.0,"state":"closed","id":null},{"event_id":"44100","title":"第118回オフライン開発ミーティング","url":"https://atnd.org/events/44100","shortener_url":null,"started_at":"2013-10-06T09:00:00.000+09:00","ended_at":"2013-10-06T12:00:00.000+09:00","limit_number":null,"address":"東京都品川区大崎1-11-1","place":"ゲートシティ大崎B1アトリウムフリー座席","lat":0.0,"lon":0.0,"state":"closed","id":null},{"event_id":"43675","title":"『スマホアプリを作ってみよう！』 ","url":"https://atnd.org/events/43675","shortener_url":null,"started_at":"2013-10-05T13:00:00.000+09:00","ended_at":"2013-10-05T17:00:00.000+09:00","limit_number":10,"address":"愛媛県松山市文京町3","place":"愛媛大学工学部2号館 6階601号室（予定） ","lat":0.0,"lon":0.0,"state":"closed","id":null},{"event_id":"43830","title":"#MA9 Mashup Camp 福岡！！ 大賞200万円の日本最大の開発コンテストがおくる週末ハッカソンイベント！！初心者大歓迎！10/5,6開催","url":"https://atnd.org/events/43830","shortener_url":null,"started_at":"2013-10-05T10:00:00.000+09:00","ended_at":"2013-10-06T19:00:00.000+09:00","limit_number":30,"address":"福岡県福岡市天神1-10-24 天神セントラルプレイス 2F","place":"OnRAMP","lat":0.0,"lon":0.0,"state":"closed","id":null},{"event_id":"43722","title":"Communicate Hack(ハッカソン)","url":"https://atnd.org/events/43722","shortener_url":null,"started_at":"2013-10-05T10:00:00.000+09:00","ended_at":"2013-10-05T18:00:00.000+09:00","limit_number":30,"address":"東京都千代田区大手町2-6-4","place":"パソナグループ本部","lat":0.0,"lon":0.0,"state":"closed","id":null},{"event_id":"43624","title":"東証「ソーシャルかぶコン2013」ハッカソン ～“Social Good!”な「株式市場」のプロモーションにつながるアプリ開発のためのハッカソン！～","url":"https://atnd.org/events/43624","shortener_url":null,"started_at":"2013-10-05T10:00:00.000+09:00","ended_at":"2013-10-05T19:00:00.000+09:00","limit_number":40,"address":"東京都中央区日本橋兜町2−1","place":"東証オープンプラットフォーム","lat":0.0,"lon":0.0,"state":"closed","id":null},{"event_id":"43343","title":"【増員＋10名！】#MA9 最大賞金200万（倍増しました！）のアプリ・サービス開発コンテスト主催！　エンジニア、デザイナー、学生さんWelcome！！  MA9 Caravan\u0026Meetup 信州！","url":"https://atnd.org/events/43343","shortener_url":null,"started_at":"2013-10-02T18:30:00.000+09:00","ended_at":"2013-10-02T21:00:00.000+09:00","limit_number":30,"address":"長野県塩尻市大門八番町1-2","place":"塩尻インキュベーションプラザSIP 1F多目的ホール","lat":0.0,"lon":0.0,"state":"closed","id":null},{"event_id":"43748","title":"#MA9 特別企画＠名古屋ベースキャンプ 目指せMashup Awards 9の星！楽天をHACKする アイデアソン！！※豪華副賞でるよ！！","url":"https://atnd.org/events/43748","shortener_url":null,"started_at":"2013-10-01T19:00:00.000+09:00","ended_at":"2013-10-01T23:00:00.000+09:00","limit_number":30,"address":"愛知県名古屋市中村区名駅3丁目18-5 モンマートビル5階","place":"ベースキャンプ名古屋","lat":0.0,"lon":0.0,"state":"closed","id":null}]