[{"event_id":"2468","title":"一人ハッカソン","url":"https://connpass.com/event/2468/","shortener_url":null,"started_at":"2013-05-20T05:00:00.000+09:00","ended_at":"2013-05-20T11:00:00.000+09:00","limit_number":1,"address":"","place":"","lat":null,"lon":null,"state":"active","id":null},{"event_id":"2353","title":"よしだけハッカソン","url":"https://connpass.com/event/2353/","shortener_url":null,"started_at":"2013-05-06T09:00:00.000+09:00","ended_at":"2013-05-07T08:59:00.000+09:00","limit_number":4,"address":"東京都葛飾区新小岩","place":"よしだけ","lat":35.7156,"lon":139.859,"state":"active","id":null},{"event_id":"2233","title":"pylons/pyramidはっかそん2013.05","url":"https://pylons.connpass.com/event/2233/","shortener_url":null,"started_at":"2013-05-11T21:00:00.000+09:00","ended_at":"2013-05-12T04:00:00.000+09:00","limit_number":12,"address":"東京都渋谷区千駄ヶ谷5-32-7 (NOF南新宿ビル4F)","place":"Be Proud 会議室","lat":35.6864,"lon":139.704,"state":"active","id":null},{"event_id":"2288","title":"モトスミHack vol.38 (GWハッカソン)","url":"https://connpass.com/event/2288/","shortener_url":null,"started_at":"2013-05-04T13:00:00.000+09:00","ended_at":"2013-05-05T19:00:00.000+09:00","limit_number":6,"address":"東京都千代田区神田紺屋町37 今井ビル2F","place":"ギークハウス神田秋葉原","lat":35.693,"lon":139.774,"state":"active","id":null},{"event_id":"2300","title":"A3直前ハッカソン [Android, Web]","url":"https://connpass.com/event/2300/","shortener_url":null,"started_at":"2013-05-03T18:00:00.000+09:00","ended_at":"2013-05-04T03:00:00.000+09:00","limit_number":20,"address":"福井県鯖江市新横江2-3-4","place":"株式会社jig.jp セミナースペース（めがね会館7F）","lat":35.9428,"lon":136.199,"state":"active","id":null},{"event_id":"39535","title":"たきざワッカソン #2","url":"https://atnd.org/events/39535","shortener_url":null,"started_at":"2013-05-31T18:15:00.000+09:00","ended_at":"2013-06-01T20:00:00.000+09:00","limit_number":null,"address":"滝沢村滝沢字巣子152-52","place":"岩手県立大学","lat":39.8019,"lon":141.137,"state":"closed","id":null},{"event_id":"39400","title":"第5回Web APIで学ぶPHP・JavaScript勉強会","url":"https://atnd.org/events/39400","shortener_url":null,"started_at":"2013-05-26T13:30:00.000+09:00","ended_at":"2013-05-26T18:00:00.000+09:00","limit_number":23,"address":"東京都新宿区西新宿1-6-1","place":"Webデザイン・プログラミングスクールWAVE新宿本校","lat":35.6922,"lon":139.697,"state":"closed","id":null},{"event_id":"39987","title":"第101回よちよちAndroid開発ミーティング","url":"https://atnd.org/events/39987","shortener_url":null,"started_at":"2013-05-26T09:00:00.000+09:00","ended_at":"2013-05-26T12:00:00.000+09:00","limit_number":null,"address":"東京都品川区大崎1-11-1","place":"ゲートシティ大崎B1アトリウムフリー座席","lat":35.6194,"lon":139.731,"state":"closed","id":null},{"event_id":"39505","title":"第４回 iphone_dev_jp 東京iPhone/Mac勉強会","url":"https://atnd.org/events/39505","shortener_url":null,"started_at":"2013-05-25T13:00:00.000+09:00","ended_at":"2013-05-25T18:00:00.000+09:00","limit_number":120,"address":"東京都渋谷区神泉町8-16 渋谷ファーストプレイス8F","place":"株式会社VOYAGE GROUP","lat":35.6553,"lon":139.694,"state":"closed","id":null},{"event_id":"39682","title":"第 7 回 もくもく会 in Creators Residence","url":"https://atnd.org/events/39682","shortener_url":null,"started_at":"2013-05-25T11:00:00.000+09:00","ended_at":"2013-05-25T22:00:00.000+09:00","limit_number":null,"address":"沖縄県中頭郡北谷町北谷2丁目1−5","place":"Creators Residence","lat":26.3051,"lon":127.762,"state":"closed","id":null},{"event_id":"38709","title":"型システム勉強会","url":"https://atnd.org/events/38709","shortener_url":null,"started_at":"2013-05-24T19:30:00.000+09:00","ended_at":"2013-05-24T21:30:00.000+09:00","limit_number":null,"address":"都内某住所","place":"都内某所","lat":0.0,"lon":0.0,"state":"closed","id":null},{"event_id":"39760","title":"よちあん100回記念飲み","url":"https://atnd.org/events/39760","shortener_url":null,"started_at":"2013-05-19T18:30:00.000+09:00","ended_at":"2013-05-22T08:59:59.000+09:00","limit_number":11,"address":"東京都新宿区新宿3-17-1 いさみやビル 4F","place":"居酒屋　北海道　新宿東口店","lat":35.6916,"lon":139.704,"state":"closed","id":null},{"event_id":"39677","title":"第100回よちよちAndroid開発ミーティング","url":"https://atnd.org/events/39677","shortener_url":null,"started_at":"2013-05-19T09:00:00.000+09:00","ended_at":"2013-05-22T08:59:59.000+09:00","limit_number":null,"address":"東京都品川区大崎1-11-1","place":"ゲートシティ大崎B1アトリウムフリー座席","lat":35.6194,"lon":139.731,"state":"closed","id":null},{"event_id":"39557","title":"日本Androidの会秋葉原支部ロボット部　第14回勉強会","url":"https://atnd.org/events/39557","shortener_url":null,"started_at":"2013-05-18T12:00:00.000+09:00","ended_at":"2013-05-18T17:00:00.000+09:00","limit_number":20,"address":"東京都千代田区麹町三丁目6番地","place":"KDDIウェブコミュニケーションズ 住友不動産麹町ビル３号 6F CloudCoreセミナールーム","lat":35.6846,"lon":139.738,"state":"closed","id":null},{"event_id":"39681","title":"第 6 回 もくもく会 in Creators Residence","url":"https://atnd.org/events/39681","shortener_url":null,"started_at":"2013-05-18T11:00:00.000+09:00","ended_at":"2013-05-18T22:00:00.000+09:00","limit_number":null,"address":"沖縄県中頭郡北谷町北谷2丁目1−5","place":"クリエイターズレジデンス","lat":26.3051,"lon":127.762,"state":"closed","id":null},{"event_id":"39092","title":"【MashupAwards 特別企画】つながる『ネット』と『クルマ』 -トヨタをHackするアイデアソン-#MA8","url":"https://atnd.org/events/39092","shortener_url":null,"started_at":"2013-05-12T14:00:00.000+09:00","ended_at":"2013-05-12T18:30:00.000+09:00","limit_number":50,"address":"東京都中央区銀座7-2-6 リクルートアネックス1ビル B1F","place":"メディアテクノロジーラボ カフェ(リクルート銀座アネックスビル）","lat":35.6709,"lon":139.761,"state":"closed","id":null},{"event_id":"39459","title":"第99回よちよちAndroid開発ミーティング","url":"https://atnd.org/events/39459","shortener_url":null,"started_at":"2013-05-12T09:00:00.000+09:00","ended_at":"2013-05-12T12:00:00.000+09:00","limit_number":null,"address":"東京都品川区大崎1-11-1","place":"ゲートシティ大崎B1アトリウムフリー座席","lat":35.6194,"lon":139.731,"state":"closed","id":null},{"event_id":"39229","title":"Hachioji.pm #28","url":"https://atnd.org/events/39229","shortener_url":null,"started_at":"2013-05-11T18:00:00.000+09:00","ended_at":"2013-05-14T08:59:59.000+09:00","limit_number":16,"address":"東京都八王子市明神町3-11-13","place":"南米ペルー料理　ＭＩＳＫＹ","lat":35.6553,"lon":139.344,"state":"closed","id":null},{"event_id":"39230","title":"Like a ハッカソン #7 (pre Hachioji.pm #28)","url":"https://atnd.org/events/39230","shortener_url":null,"started_at":"2013-05-11T14:00:00.000+09:00","ended_at":"2013-05-11T18:00:00.000+09:00","limit_number":8,"address":"八王子市明神町3-14-8","place":"八王子 喫茶パティオ","lat":35.6561,"lon":139.342,"state":"closed","id":null},{"event_id":"39321","title":"Chukλo関数型言語勉強会 第一回","url":"https://atnd.org/events/39321","shortener_url":null,"started_at":"2013-05-11T13:00:00.000+09:00","ended_at":"2013-05-11T18:00:00.000+09:00","limit_number":10,"address":"","place":"中京大学 豊田キャンパス 11号館4階ガーデン奥とか","lat":null,"lon":null,"state":"closed","id":null},{"event_id":"38584","title":"【増員】【#TechBuzz】第10回iPhoneGames スイーツ勉強会　〜ド素人集団がゲームアプリを作るまで【クレーンマニア】／スモメン大一番〜","url":"https://atnd.org/events/38584","shortener_url":null,"started_at":"2013-05-09T19:30:00.000+09:00","ended_at":"2013-05-09T22:00:00.000+09:00","limit_number":60,"address":"東京都新宿区新宿5丁目18番20号","place":"TechBuzzSpace（新宿オミビル4階）","lat":35.694,"lon":139.706,"state":"closed","id":null},{"event_id":"38435","title":"【増員】【#TechBuzz】Android 伝説のもくもく勉強会#3　～大興奮！？アプリ企画レビューもあるかも！？～","url":"https://atnd.org/events/38435","shortener_url":null,"started_at":"2013-05-02T19:30:00.000+09:00","ended_at":"2013-05-02T22:00:00.000+09:00","limit_number":16,"address":"東京都新宿区新宿5丁目18番20号","place":"TechBuzzSpace（新宿オミビル4階）","lat":35.694,"lon":139.706,"state":"closed","id":null},{"event_id":"39337","title":"第4回 Creators MeetUp","url":"https://atnd.org/events/39337","shortener_url":null,"started_at":"2013-05-25T15:00:00.000+09:00","ended_at":"2013-05-25T18:00:00.000+09:00","limit_number":70,"address":"東京都港区北青山2-5-8","place":"オラクル青山センター13F","lat":0.0,"lon":0.0,"state":"closed","id":null},{"event_id":"37678","title":"自宅ラック式オンサイト合宿　1.0","url":"https://atnd.org/events/37678","shortener_url":null,"started_at":"2013-05-03T15:00:00.000+09:00","ended_at":"2013-05-04T10:00:00.000+09:00","limit_number":12,"address":"新潟県南魚沼郡湯沢町大字土樽5135","place":"新潟県南魚沼郡湯沢町某所（越後中里駅から徒歩0分）","lat":36.9133,"lon":138.845,"state":"closed","id":null},{"event_id":"36124","title":"第1回「ミスボド合宿」","url":"https://atnd.org/events/36124","shortener_url":null,"started_at":"2013-05-03T09:00:00.000+09:00","ended_at":"2013-05-05T17:00:00.000+09:00","limit_number":null,"address":"","place":"","lat":null,"lon":null,"state":"closed","id":null}]