[{"event_id":"4574","title":"年越しハッカソン","url":"https://connpass.com/event/4574/","shortener_url":null,"started_at":"2013-12-31T13:00:00.000+09:00","ended_at":"2014-01-01T03:00:00.000+09:00","limit_number":10,"address":"","place":"インターネット","lat":null,"lon":null,"state":"active","id":null},{"event_id":"4516","title":"年越しソン","url":"https://connpass.com/event/4516/","shortener_url":null,"started_at":"2013-12-31T21:00:00.000+09:00","ended_at":"2014-01-01T07:00:00.000+09:00","limit_number":20,"address":"ネットの届く場所","place":"オンライン","lat":null,"lon":null,"state":"active","id":null},{"event_id":"4376","title":"えふしん氏＆スマートニュース浜本氏講演。リクルートハッカソン【ReHack】","url":"https://connpass.com/event/4376/","shortener_url":null,"started_at":"2013-12-21T12:30:00.000+09:00","ended_at":"2013-12-21T20:10:00.000+09:00","limit_number":null,"address":"東京都港区六本木6-10-1 ","place":"六本木アカデミーヒルズ　タワーホール","lat":35.6604,"lon":139.729,"state":"active","id":null},{"event_id":"4377","title":"すごいHaskell こはまさんと学ぼう #13 - 関数型問題解決法 -","url":"https://sugoi-h-c0hama.connpass.com/event/4377/","shortener_url":null,"started_at":"2013-12-17T19:30:00.000+09:00","ended_at":"2013-12-17T21:30:00.000+09:00","limit_number":18,"address":"愛知県名古屋市東区葵3丁目22-8","place":"ニューキャスト様セミナールーム","lat":35.1698,"lon":136.928,"state":"active","id":null},{"event_id":"4379","title":"日本Androidの会浜松支部　第32回ミーティング #jaghama","url":"https://connpass.com/event/4379/","shortener_url":null,"started_at":"2013-12-14T04:00:00.000+09:00","ended_at":"2013-12-14T08:30:00.000+09:00","limit_number":10,"address":"静岡県浜松市中区砂山町 348-12","place":"株式会社CAIメディア コワーキングスペース","lat":34.7028,"lon":137.738,"state":"active","id":null},{"event_id":"4408","title":"第34回 デザイナー向けプログラム部 #p4d at forkwell","url":"https://p4d.connpass.com/event/4408/","shortener_url":null,"started_at":"2013-12-19T19:30:00.000+09:00","ended_at":"2013-12-19T21:30:00.000+09:00","limit_number":8,"address":"東京都港区南青山5-6-24 (南青山ステラハウス4F　株）garbs内)","place":"Forkwell ミーティングルーム","lat":35.6637,"lon":139.712,"state":"active","id":null},{"event_id":"4284","title":"エグゼクティブ・シニアのためのビッグデータ講座","url":"https://connpass.com/event/4284/","shortener_url":null,"started_at":"2013-12-19T14:00:00.000+09:00","ended_at":"2013-12-19T18:00:00.000+09:00","limit_number":50,"address":"東京都港区赤坂8-5-32　(田中駒ビル6階)","place":"匠ソホラ　6階セミナールーム","lat":35.672,"lon":139.726,"state":"active","id":null},{"event_id":"4327","title":"Xmathon in Tokyo","url":"https://connpass.com/event/4327/","shortener_url":null,"started_at":"2013-12-22T13:00:00.000+09:00","ended_at":"2013-12-22T19:30:00.000+09:00","limit_number":6,"address":"東京都渋谷区渋谷駅","place":"にゃるせ氏宅","lat":35.6585,"lon":139.701,"state":"active","id":null},{"event_id":"4164","title":"WebAPIつかってアプリをつくろうハッカソン 〜教育編〜","url":"https://web-api-hackathon.connpass.com/event/4164/","shortener_url":null,"started_at":"2013-12-15T01:00:00.000+09:00","ended_at":"2013-12-15T11:30:00.000+09:00","limit_number":36,"address":"東京都渋谷区渋谷1-8-7　(第27SYビル3階A)","place":"EdTech Lab (β)","lat":35.6603,"lon":139.705,"state":"active","id":null},{"event_id":"4069","title":"第5回 LOCAL学生部総大会","url":"https://connpass.com/event/4069/","shortener_url":null,"started_at":"2013-12-28T13:00:00.000+09:00","ended_at":"2013-12-29T18:00:00.000+09:00","limit_number":null,"address":"札幌市中央区北1条東4丁目1番地1 サッポロファクトリー1条館　3階","place":"株式会社インフィニットループ 会議室","lat":43.0656,"lon":141.374,"state":"active","id":null},{"event_id":"3923","title":"Raspberry Jam Tokyo #4 at KDDI Web Com.","url":"https://connpass.com/event/3923/","shortener_url":null,"started_at":"2013-12-07T04:00:00.000+09:00","ended_at":"2013-12-07T07:30:00.000+09:00","limit_number":30,"address":" 東京都千代田区麹町三丁目６番地 住友不動産麹町ビル３号館","place":"KDDI ウェブコミュニケーションズ","lat":35.6846,"lon":139.738,"state":"active","id":null},{"event_id":"3866","title":"関東LibreOfficeハッカソン(#1)","url":"https://kantolibo.connpass.com/event/3866/","shortener_url":null,"started_at":"2013-12-21T12:00:00.000+09:00","ended_at":"2013-12-21T21:00:00.000+09:00","limit_number":20,"address":"東京都千代田区麹町三丁目６番地 (麹町ビル３号館)","place":"KDDIウエブコミュニケーションズ 6Fセミナールーム","lat":35.6846,"lon":139.738,"state":"active","id":null},{"event_id":"3809","title":"http2.0 ミニハッカソン #2","url":"https://http2study.connpass.com/event/3809/","shortener_url":null,"started_at":"2013-12-15T03:00:00.000+09:00","ended_at":"2013-12-15T09:00:00.000+09:00","limit_number":9,"address":"〒150-0045　東京都渋谷区神泉町8-16　渋谷ファーストプレイス8F","place":"VOYAGE GROUP","lat":35.6553,"lon":139.694,"state":"active","id":null},{"event_id":"47395","title":"EPSON Moverio ハッカソン","url":"https://atnd.org/events/47395","shortener_url":null,"started_at":"2013-12-31T15:00:00.000+09:00","ended_at":"2014-01-02T23:59:59.000+09:00","limit_number":15,"address":"埼玉県さいたま市大宮区宮町1-5 銀座ビル7階","place":"コワーキングスペース　７F","lat":35.9077,"lon":139.625,"state":"closed","id":null},{"event_id":"46040","title":"大晦日ハッカソン2013","url":"https://atnd.org/events/46040","shortener_url":null,"started_at":"2013-12-30T15:00:00.000+09:00","ended_at":"2013-12-31T14:59:00.000+09:00","limit_number":null,"address":"","place":"各自で。","lat":null,"lon":null,"state":"closed","id":null},{"event_id":"46641","title":"おつかれさま2013 年の瀬シッポリ忘年会","url":"https://atnd.org/events/46641","shortener_url":null,"started_at":"2013-12-29T09:00:00.000+09:00","ended_at":"2013-12-31T23:59:59.000+09:00","limit_number":10,"address":"大分県大分市府内町2-1-20 グラムビル1F","place":"シャカ・ロック","lat":33.2368,"lon":131.609,"state":"closed","id":null},{"event_id":"46338","title":"openSUSE の部室 2013-12 \u0026 openSUSE 忘年会","url":"https://atnd.org/events/46338","shortener_url":null,"started_at":"2013-12-29T01:00:00.000+09:00","ended_at":"2013-12-29T09:00:00.000+09:00","limit_number":5,"address":"世田谷区代田 6-11-14","place":"下北沢オープンソースCafe","lat":35.6655,"lon":139.663,"state":"closed","id":null},{"event_id":"46659","title":"Mozilla 年忘れハッカソン","url":"https://atnd.org/events/46659","shortener_url":null,"started_at":"2013-12-28T22:00:00.000+09:00","ended_at":"2013-12-29T13:00:00.000+09:00","limit_number":20,"address":"東京都港区六本木7-5-6","place":"Mozilla オフィス","lat":35.6652,"lon":139.728,"state":"closed","id":null},{"event_id":"46535","title":"スマートグラス ハッカソン（第１回　アイデアソン）","url":"https://atnd.org/events/46535","shortener_url":null,"started_at":"2013-12-28T04:30:00.000+09:00","ended_at":"2013-12-30T23:59:59.000+09:00","limit_number":20,"address":"熊本市草葉町5-1","place":"熊本市中央公民館（5階 第１研修室）","lat":32.8046,"lon":130.715,"state":"closed","id":null},{"event_id":"44999","title":"そんなことよりHaskellしようぜ@浜松","url":"https://atnd.org/events/44999","shortener_url":null,"started_at":"2013-12-28T03:00:00.000+09:00","ended_at":"2013-12-28T08:00:00.000+09:00","limit_number":20,"address":"静岡県浜松市中区中央3-9-1","place":"アクトシティ研修交流センター 403会議室","lat":34.7066,"lon":137.739,"state":"closed","id":null},{"event_id":"46468","title":"アプリ開発アイデアソン","url":"https://atnd.org/events/46468","shortener_url":null,"started_at":"2013-12-26T01:30:00.000+09:00","ended_at":"2013-12-26T08:00:00.000+09:00","limit_number":30,"address":"広島市佐伯区三宅2-1-1","place":"広島工業大学N4-211","lat":34.3706,"lon":132.343,"state":"closed","id":null},{"event_id":"46273","title":"スマートグラス ハッカソン 2013 in Winter (横浜支部 第１回)","url":"https://atnd.org/events/46273","shortener_url":null,"started_at":"2013-12-23T04:00:00.000+09:00","ended_at":"2013-12-23T08:00:00.000+09:00","limit_number":30,"address":"横浜市中区相生町3-61","place":"さくらWORKS","lat":35.4467,"lon":139.638,"state":"closed","id":null},{"event_id":"46515","title":"第129回オフライン開発ミーティング","url":"https://atnd.org/events/46515","shortener_url":null,"started_at":"2013-12-22T01:00:00.000+09:00","ended_at":"2013-12-22T03:00:00.000+09:00","limit_number":null,"address":"東京都品川区大崎1-11-1","place":"ゲートシティ大崎B1アトリウムフリー座席","lat":35.6194,"lon":139.731,"state":"closed","id":null},{"event_id":"44926","title":"Hachioji.pm #36","url":"https://atnd.org/events/44926","shortener_url":null,"started_at":"2013-12-21T09:00:00.000+09:00","ended_at":"2013-12-23T23:59:59.000+09:00","limit_number":20,"address":"東京都八王子市旭町2-5 ツインタワーA館6F","place":"八王子の北海道","lat":35.6564,"lon":139.338,"state":"closed","id":null},{"event_id":"46525","title":"夜通しハッカソン","url":"https://atnd.org/events/46525","shortener_url":null,"started_at":"2013-12-21T07:00:00.000+09:00","ended_at":"2013-12-22T03:00:00.000+09:00","limit_number":20,"address":"東京都中央区新川 1-3-4 PAビル5F","place":"コワーキングスペース茅場町 Co-Edo","lat":35.6786,"lon":139.782,"state":"closed","id":null},{"event_id":"45960","title":"スマートニュース社／浜本氏『Google Playアプリオブザイヤー2013「SmartNews」、UI/UXへのこだわりと独自のニュース収集アルゴリズムについて』 えふしん氏『モバイルインターネット時代に、エンジニアがいきいき活躍するための３つのキャリアデザインパターン』講演。 リクルートハッカソンイベント【ReHack】","url":"https://atnd.org/events/45960","shortener_url":null,"started_at":"2013-12-21T04:00:00.000+09:00","ended_at":"2013-12-21T10:00:00.000+09:00","limit_number":200,"address":"東京都港区六本木6-10-1","place":"六本木アカデミーヒルズ　タワーホール","lat":35.6604,"lon":139.729,"state":"closed","id":null},{"event_id":"45542","title":"【えふしん氏＆スマートニュース浜本 階生氏】カンファレンス登壇！リクルートグループハッカソンイベント【ReHack】","url":"https://atnd.org/events/45542","shortener_url":null,"started_at":"2013-12-21T04:00:00.000+09:00","ended_at":"2013-12-21T09:30:00.000+09:00","limit_number":null,"address":"東京都港区六本木6-10-1","place":"六本木アカデミーヒルズ　タワーホール","lat":35.6604,"lon":139.729,"state":"closed","id":null},{"event_id":"44022","title":"【えふしん氏＆スマートニュース浜本 階生氏】カンファレンス登壇！リクルートグループハッカソンイベント【ReHack】","url":"https://atnd.org/events/44022","shortener_url":null,"started_at":"2013-12-21T04:00:00.000+09:00","ended_at":"2013-12-21T09:30:00.000+09:00","limit_number":null,"address":"東京都港区六本木6-10-1","place":"六本木アカデミーヒルズ　タワーホール","lat":35.6604,"lon":139.729,"state":"closed","id":null},{"event_id":"46243","title":"Salesforce Developer User Group [Tokyo] Meetup #4","url":"https://atnd.org/events/46243","shortener_url":null,"started_at":"2013-12-18T10:00:00.000+09:00","ended_at":"2013-12-18T12:30:00.000+09:00","limit_number":30,"address":"東京都千代田区丸の内2-7-2 JPタワー12階","place":"セールスフォース・ドットコム 東京オフィス","lat":35.6798,"lon":139.765,"state":"closed","id":null},{"event_id":"45387","title":"【ヒカ☆ラボ】【初心者歓迎ハンズオン☆】わずか70分で学べる！iPhoneアプリ超初心者に送るMapView講座！！～iPhoneアプリにMapvViewを取り入れてみよう！～","url":"https://atnd.org/events/45387","shortener_url":null,"started_at":"2013-12-17T10:30:00.000+09:00","ended_at":"2013-12-19T23:59:59.000+09:00","limit_number":20,"address":"東京都渋谷区渋谷2-21-1","place":"レバレジーズ株式会社(渋谷ヒカリエ17階)","lat":35.659,"lon":139.703,"state":"closed","id":null},{"event_id":"44187","title":"「就職までに身につけたいホントのWebTips」第4回","url":"https://atnd.org/events/44187","shortener_url":null,"started_at":"2013-12-15T04:00:00.000+09:00","ended_at":"2013-12-15T06:30:00.000+09:00","limit_number":28,"address":"愛知県名古屋市中村区名駅3-18-5  モンマートビル5階","place":"ベースキャンプ名古屋","lat":35.1728,"lon":136.887,"state":"closed","id":null},{"event_id":"46339","title":"第128回オフライン開発ミーティング","url":"https://atnd.org/events/46339","shortener_url":null,"started_at":"2013-12-15T01:00:00.000+09:00","ended_at":"2013-12-15T03:00:00.000+09:00","limit_number":null,"address":"東京都品川区大崎1-11-1","place":"ゲートシティ大崎B1アトリウムフリー座席","lat":35.6194,"lon":139.731,"state":"closed","id":null},{"event_id":"45724","title":"天神Perl #4","url":"https://atnd.org/events/45724","shortener_url":null,"started_at":"2013-12-14T04:00:00.000+09:00","ended_at":"2013-12-14T09:00:00.000+09:00","limit_number":8,"address":"福岡県福岡市中央区天神4-8-2 天神ビルプラス8F","place":"株式会社イーハイブ","lat":33.595,"lon":130.4,"state":"closed","id":null},{"event_id":"45338","title":"【Unity】第1回 Oculus Game Jam in Japan 関西","url":"https://atnd.org/events/45338","shortener_url":null,"started_at":"2013-12-14T01:00:00.000+09:00","ended_at":"2013-12-14T09:30:00.000+09:00","limit_number":30,"address":"大阪府大阪市中央区北浜4-7-28 住友ビルディング第2号館","place":"IIJさま 関西支社","lat":34.6911,"lon":135.498,"state":"closed","id":null},{"event_id":"45905","title":"いよいよ明日開催！【森ビルから弊社までの案内】　　　　　　　　　テックヒルズサミット参加者様必読　　　　　　　　　　　　　　　　テックヒルズ サミット開催！　　　　　　　　　　　　　『Unity2Dでツクル シューティングゲーム』","url":"https://atnd.org/events/45905","shortener_url":null,"started_at":"2013-12-10T09:30:00.000+09:00","ended_at":"2013-12-10T12:30:00.000+09:00","limit_number":30,"address":"東京都港区六本木6-10-1 六本木ヒルズ38階","place":"CROOZ株式会社","lat":35.6605,"lon":139.729,"state":"closed","id":null},{"event_id":"46023","title":"日本Androidの会秋葉原支部ロボット部　第21回勉強会","url":"https://atnd.org/events/46023","shortener_url":null,"started_at":"2013-12-08T04:00:00.000+09:00","ended_at":"2013-12-08T09:00:00.000+09:00","limit_number":15,"address":"東京都板橋区志村1-1-2 2F","place":"Robotma.com（ろぼとまどっとこむ）","lat":35.7721,"lon":139.699,"state":"closed","id":null},{"event_id":"46144","title":"第127回オフライン開発ミーティング","url":"https://atnd.org/events/46144","shortener_url":null,"started_at":"2013-12-08T01:00:00.000+09:00","ended_at":"2013-12-08T03:00:00.000+09:00","limit_number":null,"address":"東京都品川区大崎1-11-1","place":"ゲートシティ大崎B1アトリウムフリー座席","lat":35.6194,"lon":139.731,"state":"closed","id":null},{"event_id":"45169","title":"たきざワッカソン #4","url":"https://atnd.org/events/45169","shortener_url":null,"started_at":"2013-12-06T09:15:00.000+09:00","ended_at":"2013-12-07T12:00:00.000+09:00","limit_number":30,"address":"岩手県岩手郡滝沢村滝沢字巣子152-52","place":"岩手県立大学","lat":39.8019,"lon":141.137,"state":"closed","id":null},{"event_id":"44186","title":"「就職までに身につけたいホントのWebTips」第3回","url":"https://atnd.org/events/44186","shortener_url":null,"started_at":"2013-12-01T04:00:00.000+09:00","ended_at":"2013-12-01T06:30:00.000+09:00","limit_number":20,"address":"愛知県名古屋市中村区名駅3-18-5  モンマートビル5階","place":"ベースキャンプ名古屋","lat":35.1728,"lon":136.887,"state":"closed","id":null},{"event_id":"45879","title":"第126回オフライン開発ミーティング","url":"https://atnd.org/events/45879","shortener_url":null,"started_at":"2013-12-01T01:00:00.000+09:00","ended_at":"2013-12-01T03:00:00.000+09:00","limit_number":null,"address":"東京都品川区大崎1-11-1","place":"ゲートシティ大崎B1アトリウムフリー座席","lat":35.6194,"lon":139.731,"state":"closed","id":null},{"event_id":"46292","title":"第11回Creators MeetUp","url":"https://atnd.org/events/46292","shortener_url":null,"started_at":"2013-12-21T06:00:00.000+09:00","ended_at":"2013-12-21T09:00:00.000+09:00","limit_number":60,"address":"東京都目黒区青葉台3-6-28","place":"IMJ本社","lat":35.6527,"lon":139.69,"state":"closed","id":null},{"event_id":"4217","title":"(第38回)Python mini Hack-a-thon","url":"https://pyhack.connpass.com/event/4217/","shortener_url":null,"started_at":"2013-12-21T02:00:00.000+09:00","ended_at":"2013-12-21T10:00:00.000+09:00","limit_number":20,"address":"渋谷区千駄ヶ谷5-32-7 野村不動産南新宿ビル4F","place":"ビープラウド会議室","lat":35.6864,"lon":139.704,"state":"active","id":null}]