[{"event_id":"1895","title":"第9回 MML mini Hack-a-thon","url":"https://mmlhack.connpass.com/event/1895/","shortener_url":null,"started_at":"2013-03-30T10:00:00.000+09:00","ended_at":"2013-03-30T18:00:00.000+09:00","limit_number":20,"address":"東京都新宿区新宿5丁目18-20　新宿オミビル4階","place":"株式会社ハッチアップ","lat":35.6939,"lon":139.706,"state":"active","id":null},{"event_id":"1925","title":"肉を喰らう会 第2回","url":"https://meat.connpass.com/event/1925/","shortener_url":null,"started_at":"2013-03-16T18:00:00.000+09:00","ended_at":"2013-03-16T20:00:00.000+09:00","limit_number":4,"address":"東京都渋谷区宇田川町32-15(ビアビル5F)","place":"風風亭 渋谷店","lat":35.661,"lon":139.698,"state":"active","id":null},{"event_id":"1869","title":"Yokohama.groovy #13 #yokohamagroovy","url":"https://connpass.com/event/1869/","shortener_url":null,"started_at":"2013-03-17T04:30:00.000+09:00","ended_at":"2013-03-17T10:00:00.000+09:00","limit_number":6,"address":"神奈川県横浜市西区岡野1-3-10 サニーコート横浜 1F","place":"横浜タネマキ","lat":35.4611,"lon":139.616,"state":"active","id":null},{"event_id":"37943","title":"JsCafe vol.4 (javascript基礎勉強会)ついにprototype!","url":"https://atnd.org/events/37943","shortener_url":null,"started_at":"2013-03-31T06:00:00.000+09:00","ended_at":"2013-03-31T08:00:00.000+09:00","limit_number":30,"address":"東京都新宿区新宿5-18-20 オミビル 4F","place":"TechBuzz Space(オミビル 4F)","lat":35.694,"lon":139.706,"state":"closed","id":null},{"event_id":"37548","title":"第95回よちよちAndroid開発ミーティング","url":"https://atnd.org/events/37548","shortener_url":null,"started_at":"2013-03-31T00:00:00.000+09:00","ended_at":"2013-03-31T03:00:00.000+09:00","limit_number":null,"address":"東京都品川区大崎1-11-1","place":"ゲートシティ大崎B1アトリウムフリー座席","lat":35.6194,"lon":139.731,"state":"closed","id":null},{"event_id":"38176","title":"馬ッ鹿ソン","url":"https://atnd.org/events/38176","shortener_url":null,"started_at":"2013-03-30T03:00:00.000+09:00","ended_at":"2013-03-31T22:00:00.000+09:00","limit_number":12,"address":"東京都港区六本木","place":"ぼくんち","lat":35.6641,"lon":139.729,"state":"closed","id":null},{"event_id":"37230","title":"第4回もくもく会 in Creators Residence","url":"https://atnd.org/events/37230","shortener_url":null,"started_at":"2013-03-30T02:00:00.000+09:00","ended_at":"2013-03-30T13:00:00.000+09:00","limit_number":null,"address":"沖縄県中頭郡北谷町北谷2丁目1−5","place":"Creators Residence","lat":26.3051,"lon":127.762,"state":"closed","id":null},{"event_id":"37833","title":"第3回Web APIで学ぶPHP・JavaScript勉強会","url":"https://atnd.org/events/37833","shortener_url":null,"started_at":"2013-03-24T05:00:00.000+09:00","ended_at":"2013-03-24T09:00:00.000+09:00","limit_number":25,"address":"東京都新宿区西新宿1-6-1","place":"マルチメディアスクールWAVE新宿本校","lat":35.6922,"lon":139.697,"state":"closed","id":null},{"event_id":"37547","title":"第94回よちよちAndroid開発ミーティング","url":"https://atnd.org/events/37547","shortener_url":null,"started_at":"2013-03-24T00:00:00.000+09:00","ended_at":"2013-03-24T03:00:00.000+09:00","limit_number":null,"address":"東京都品川区大崎1-11-1","place":"ゲートシティ大崎B1アトリウムフリー座席","lat":35.6194,"lon":139.731,"state":"closed","id":null},{"event_id":"37221","title":"F# HACKATHON in sapporo","url":"https://atnd.org/events/37221","shortener_url":null,"started_at":"2013-03-23T05:00:00.000+09:00","ended_at":"2013-03-25T23:59:59.000+09:00","limit_number":8,"address":"札幌市中央区北3条西14丁目2-2","place":"Garage labs (会議室)","lat":43.0623,"lon":141.334,"state":"closed","id":null},{"event_id":"37005","title":"【#TechBuzz】第2回Cocos2d-x実践講座 in 鹿児島　〜基本講義＆お試しハンズオン〜　cocos2d-xとCocosBuilderとの連携 cocos2d-xとCocosBuilderでゲームを作成する","url":"https://atnd.org/events/37005","shortener_url":null,"started_at":"2013-03-23T04:00:00.000+09:00","ended_at":"2013-03-23T07:00:00.000+09:00","limit_number":40,"address":"鹿児島市郡元1-9-5","place":"KCS鹿児島情報専門学校","lat":31.5672,"lon":130.542,"state":"closed","id":null},{"event_id":"37978","title":"ギークハウス御徒町ハッカソン vol.3","url":"https://atnd.org/events/37978","shortener_url":null,"started_at":"2013-03-23T01:00:00.000+09:00","ended_at":"2013-03-24T13:00:00.000+09:00","limit_number":5,"address":"台東区元浅草1-15-9","place":"ギークハウス御徒町","lat":35.7091,"lon":139.784,"state":"closed","id":null},{"event_id":"37290","title":"Qiita/Kobito Meetup #6","url":"https://atnd.org/events/37290","shortener_url":null,"started_at":"2013-03-22T09:45:00.000+09:00","ended_at":"2013-03-22T12:00:00.000+09:00","limit_number":45,"address":"東京都渋谷区恵比寿南3丁目5番7号","place":"Open Network Space Daikanyama","lat":35.6462,"lon":139.704,"state":"closed","id":null},{"event_id":"37004","title":"【#TechBuzz】第2回Cocos2d-x公開講座 in 鹿児島　〜基本講義＆お試しハンズオン〜　cocos2d-xとCocosBuilderとの連携でゲームを作成する","url":"https://atnd.org/events/37004","shortener_url":null,"started_at":"2013-03-22T05:30:00.000+09:00","ended_at":"2013-03-22T07:30:00.000+09:00","limit_number":40,"address":"鹿児島市郡元1-9-5","place":"KCS鹿児島情報専門学校","lat":31.5672,"lon":130.542,"state":"closed","id":null},{"event_id":"36954","title":"shinjuku.cocos2d-x 〜初心者ハンズオン勉強会〜 MacでCocos2d-xを使用した、Androidアプリの開発環境構築について","url":"https://atnd.org/events/36954","shortener_url":null,"started_at":"2013-03-21T10:30:00.000+09:00","ended_at":"2013-03-21T13:00:00.000+09:00","limit_number":20,"address":"新宿区新宿5-18-20","place":"TechBuzzSpace（新宿オミビル4階）","lat":35.694,"lon":139.706,"state":"closed","id":null},{"event_id":"37305","title":"第3回Smalltalkハッカソン","url":"https://atnd.org/events/37305","shortener_url":null,"started_at":"2013-03-20T04:00:00.000+09:00","ended_at":"2013-03-20T09:00:00.000+09:00","limit_number":15,"address":"東京都中野区新井1-25-6 中野フコク生命ビル4F","place":"株式会社フルネス","lat":35.7119,"lon":139.666,"state":"closed","id":null},{"event_id":"37546","title":"第93回よちよちAndroid開発ミーティング","url":"https://atnd.org/events/37546","shortener_url":null,"started_at":"2013-03-17T00:00:00.000+09:00","ended_at":"2013-03-17T03:00:00.000+09:00","limit_number":null,"address":"東京都品川区大崎1-11-1","place":"ゲートシティ大崎B1アトリウムフリー座席","lat":35.6194,"lon":139.731,"state":"closed","id":null},{"event_id":"37880","title":"ギークハウス御徒町ハッカソン vol.2","url":"https://atnd.org/events/37880","shortener_url":null,"started_at":"2013-03-16T01:00:00.000+09:00","ended_at":"2013-03-16T13:00:00.000+09:00","limit_number":5,"address":"台東区元浅草1-15-9","place":"ギークハウス御徒町","lat":35.7091,"lon":139.784,"state":"closed","id":null},{"event_id":"36796","title":"【#TechBuzz】第6回Shinjuku.cocos2d-x 〜少人数ハンズオン勉強会〜 cocos2d-xとネイティブ間の連携方法  懇親会やります〜！　at http://socialtoprunners.jp/ #cocos2d #iphonejp #game","url":"https://atnd.org/events/36796","shortener_url":null,"started_at":"2013-03-14T10:30:00.000+09:00","ended_at":"2013-03-14T13:00:00.000+09:00","limit_number":50,"address":"東京都新宿区新宿5丁目18番20号","place":"TechBuzzSpace（新宿オミビル4階）","lat":35.694,"lon":139.706,"state":"closed","id":null},{"event_id":"37545","title":"第92回よちよちAndroid開発ミーティング","url":"https://atnd.org/events/37545","shortener_url":null,"started_at":"2013-03-10T00:00:00.000+09:00","ended_at":"2013-03-10T03:00:00.000+09:00","limit_number":null,"address":"東京都品川区大崎1-11-1","place":"ゲートシティ大崎B1アトリウムフリー座席","lat":35.6194,"lon":139.731,"state":"closed","id":null},{"event_id":"37260","title":"一夜だけのギークハウス  in 徳島 20130309","url":"https://atnd.org/events/37260","shortener_url":null,"started_at":"2013-03-09T11:00:00.000+09:00","ended_at":"2013-03-10T11:00:00.000+09:00","limit_number":10,"address":"徳島県勝浦郡上勝町大字福原字平間25","place":"くるくるハウス","lat":33.8851,"lon":134.416,"state":"closed","id":null},{"event_id":"37370","title":"よちよちAndroid飲み会","url":"https://atnd.org/events/37370","shortener_url":null,"started_at":"2013-03-09T10:30:00.000+09:00","ended_at":"2013-03-09T12:30:00.000+09:00","limit_number":6,"address":"東京都新宿区歌舞伎町1-21-1 第2東亜会館ビルB1","place":"新宿のどこか","lat":35.6952,"lon":139.701,"state":"closed","id":null},{"event_id":"36420","title":"Visual Studio勉強会","url":"https://atnd.org/events/36420","shortener_url":null,"started_at":"2013-03-09T05:00:00.000+09:00","ended_at":"2013-03-09T08:30:00.000+09:00","limit_number":45,"address":"大阪府大阪市北区鶴野町1-9 梅田ゲートタワー10F","place":"グリー株式会社 大阪オフィス　様","lat":34.7068,"lon":135.501,"state":"closed","id":null},{"event_id":"36133","title":"Hokkaido.pm #9","url":"https://atnd.org/events/36133","shortener_url":null,"started_at":"2013-03-09T04:30:00.000+09:00","ended_at":"2013-03-09T08:00:00.000+09:00","limit_number":42,"address":"札幌市白石区東札幌5条1丁目1-1","place":"札幌市産業振興センタールーム９","lat":43.0562,"lon":141.386,"state":"closed","id":null},{"event_id":"36909","title":"【増員】【#TechBuzz】全6回でCorona Developerになろう！Code Less, Play More !　CoronaSDKで簡単にアプリを作ろう♪#2","url":"https://atnd.org/events/36909","shortener_url":null,"started_at":"2013-03-09T04:00:00.000+09:00","ended_at":"2013-03-09T06:00:00.000+09:00","limit_number":25,"address":"東京都新宿区新宿5丁目18番20号","place":"TechBuzzSpace（新宿オミビル4階）","lat":35.694,"lon":139.706,"state":"closed","id":null},{"event_id":"36913","title":"【TechBuzz】Android 伝説のもくもく勉強会#1　～大興奮！？アプリ企画レビューもあるかも！？～","url":"https://atnd.org/events/36913","shortener_url":null,"started_at":"2013-03-08T10:30:00.000+09:00","ended_at":"2013-03-08T13:00:00.000+09:00","limit_number":10,"address":"東京都新宿区新宿5丁目18番20号","place":"TechBuzzSpace（新宿オミビル4階）","lat":35.694,"lon":139.706,"state":"closed","id":null},{"event_id":"37174","title":"【chukyo-u】Chukλo関数型言語勉強会【#L_Semi】","url":"https://atnd.org/events/37174","shortener_url":null,"started_at":"2013-03-07T04:00:00.000+09:00","ended_at":"2013-03-07T09:00:00.000+09:00","limit_number":10,"address":"","place":"中京大学 豊田キャンパス 11号館4階ガーデン奥とか","lat":null,"lon":null,"state":"closed","id":null},{"event_id":"37088","title":"日本Androidの会 秋葉原支部 ロボット部 第12回 勉強会","url":"https://atnd.org/events/37088","shortener_url":null,"started_at":"2013-03-03T03:00:00.000+09:00","ended_at":"2013-03-03T08:00:00.000+09:00","limit_number":20,"address":"東京都千代田区麹町三丁目6番地","place":"KDDIウェブコミュニケーションズ 住友不動産麹町ビル３号 6F CloudCoreセミナールーム","lat":35.6846,"lon":139.738,"state":"closed","id":null},{"event_id":"36986","title":"第91回よちよちAndroid開発ミーティング","url":"https://atnd.org/events/36986","shortener_url":null,"started_at":"2013-03-03T00:00:00.000+09:00","ended_at":"2013-03-03T03:00:00.000+09:00","limit_number":null,"address":"東京都品川区大崎1-11-1","place":"ゲートシティ大崎B1アトリウムフリー座席","lat":35.6194,"lon":139.731,"state":"closed","id":null},{"event_id":"36628","title":"静岡IT壁登り交流会","url":"https://atnd.org/events/36628","shortener_url":null,"started_at":"2013-03-02T05:00:00.000+09:00","ended_at":"2013-03-04T23:59:59.000+09:00","limit_number":10,"address":"静岡市駿河区池田128-1","place":"Climbing JAM","lat":34.9839,"lon":138.419,"state":"closed","id":null},{"event_id":"36841","title":"沖縄高専xギー沖発火村","url":"https://atnd.org/events/36841","shortener_url":null,"started_at":"2013-03-01T09:00:00.000+09:00","ended_at":"2013-03-02T12:30:00.000+09:00","limit_number":15,"address":"","place":"ギークハウス沖縄, 辺野古IT工房seed","lat":null,"lon":null,"state":"closed","id":null},{"event_id":"37219","title":"インフラ合宿検討会(プレ)","url":"https://atnd.org/events/37219","shortener_url":null,"started_at":"2013-03-02T02:00:00.000+09:00","ended_at":"2013-03-02T08:30:00.000+09:00","limit_number":6,"address":"千葉県松戸市馬橋121番地","place":"マンション(馬橋駅からタクシーで10分位)","lat":35.8116,"lon":139.917,"state":"closed","id":null}]