[{"event_id":"2676","title":"InfiniBand mini Hack-a-thon [03]","url":"https://connpass.com/event/2676/","shortener_url":null,"started_at":"2013-07-20T04:00:00.000+09:00","ended_at":"2013-07-20T09:00:00.000+09:00","limit_number":20,"address":"東京都千代田区神田佐久間町1-14  (第二東ビル B1F)","place":"村役場 秋葉原店","lat":35.6978,"lon":139.774,"state":"active","id":null},{"event_id":"2108","title":"電車でGo!","url":"https://gocon.connpass.com/event/2108/","shortener_url":null,"started_at":"2013-07-20T02:00:00.000+09:00","ended_at":"2013-07-20T04:30:00.000+09:00","limit_number":22,"address":"東京都新宿区西早稲田一丁目23","place":"都電荒川線 早稲田駅","lat":35.7126,"lon":139.718,"state":"active","id":null},{"event_id":"41773","title":"第110回よちよちAndroid開発ミーティング","url":"https://atnd.org/events/41773","shortener_url":null,"started_at":"2013-07-28T00:00:00.000+09:00","ended_at":"2013-07-28T03:00:00.000+09:00","limit_number":null,"address":"東京都品川区大崎1-11-1","place":"ゲートシティ大崎B1アトリウムフリー座席","lat":35.6194,"lon":139.731,"state":"closed","id":null},{"event_id":"41629","title":"第109回よちよちAndroid開発ミーティング","url":"https://atnd.org/events/41629","shortener_url":null,"started_at":"2013-07-21T00:00:00.000+09:00","ended_at":"2013-07-21T03:00:00.000+09:00","limit_number":null,"address":"東京都品川区大崎1-11-1","place":"ゲートシティ大崎B1アトリウムフリー座席","lat":35.6194,"lon":139.731,"state":"closed","id":null},{"event_id":"41082","title":"【増員！！90名】【#MA9 Mashup Awards 9 特別企画】合宿型Mashup Camp Supported by Startup Weekend Japan〜この夏最大のHackathon〜","url":"https://atnd.org/events/41082","shortener_url":null,"started_at":"2013-07-19T10:00:00.000+09:00","ended_at":"2013-07-21T12:00:00.000+09:00","limit_number":90,"address":"東京都江東区青海二丁目5番10号","place":"モノづくりを愛する起業家達のためのコワーキングオフィスMONO　　テレコムセンタービル東棟14階","lat":35.6174,"lon":139.78,"state":"closed","id":null},{"event_id":"41196","title":"【 MashupAwards 特別企画:銀座編】ビッグデータ・オープンデータが「くらし」を「変える」－住みよいまちをみんなで考えるアイデアソン！ - #ma9","url":"https://atnd.org/events/41196","shortener_url":null,"started_at":"2013-07-16T10:00:00.000+09:00","ended_at":"2013-07-16T13:30:00.000+09:00","limit_number":30,"address":"東京都中央区銀座7-2-6 リクルートアネックス1ビル B1F","place":"　メディアテクノロジーラボ　MTLカフェ","lat":35.6709,"lon":139.761,"state":"closed","id":null},{"event_id":"41301","title":"第108回よちよちAndroid開発ミーティング","url":"https://atnd.org/events/41301","shortener_url":null,"started_at":"2013-07-14T00:00:00.000+09:00","ended_at":"2013-07-14T03:00:00.000+09:00","limit_number":null,"address":"東京都品川区大崎1-11-1","place":"ゲートシティ大崎B1アトリウムフリー座席","lat":35.6194,"lon":139.731,"state":"closed","id":null},{"event_id":"40404","title":"nagoya.php vol.2 〜名古屋でPHP Matsuri前夜祭〜","url":"https://atnd.org/events/40404","shortener_url":null,"started_at":"2013-07-13T04:30:00.000+09:00","ended_at":"2013-07-15T23:59:59.000+09:00","limit_number":20,"address":"名古屋市中区錦3-5-30 三晃錦ビル9F","place":"","lat":35.1732,"lon":136.907,"state":"closed","id":null},{"event_id":"41118","title":"日本Androidの会秋葉原支部ロボット部　第16回勉強会","url":"https://atnd.org/events/41118","shortener_url":null,"started_at":"2013-07-13T04:00:00.000+09:00","ended_at":"2013-07-13T09:00:00.000+09:00","limit_number":15,"address":"東京都板橋区志村1-1-2 2F","place":"Robotma.com（ろぼとまどっとこむ）","lat":35.7721,"lon":139.699,"state":"closed","id":null},{"event_id":"40647","title":"Unity勉強会　池袋　Part 6","url":"https://atnd.org/events/40647","shortener_url":null,"started_at":"2013-07-07T04:30:00.000+09:00","ended_at":"2013-07-07T07:30:00.000+09:00","limit_number":40,"address":"東京都豊島区西池袋2-37-4","place":"池袋勤労福祉会館　第５・６会議室","lat":35.7277,"lon":139.707,"state":"closed","id":null},{"event_id":"40672","title":"集中開発日（ハッカソン）・2013年７月開催WebサービスAPI勉強会","url":"https://atnd.org/events/40672","shortener_url":null,"started_at":"2013-07-07T04:00:00.000+09:00","ended_at":"2013-07-07T08:30:00.000+09:00","limit_number":20,"address":"東京都新宿区西新宿1-6-1","place":"Webデザイン・プログラミングスクールWAVE新宿本校","lat":35.6922,"lon":139.697,"state":"closed","id":null},{"event_id":"41093","title":"第107回よちよちAndroid開発ミーティング","url":"https://atnd.org/events/41093","shortener_url":null,"started_at":"2013-07-07T00:00:00.000+09:00","ended_at":"2013-07-07T03:00:00.000+09:00","limit_number":null,"address":"東京都品川区大崎1-11-1","place":"ゲートシティ大崎B1アトリウムフリー座席","lat":35.6194,"lon":139.731,"state":"closed","id":null},{"event_id":"41094","title":"第18回Android勉強会in札幌","url":"https://atnd.org/events/41094","shortener_url":null,"started_at":"2013-07-06T04:00:00.000+09:00","ended_at":"2013-07-06T08:00:00.000+09:00","limit_number":40,"address":"札幌市白石区東札幌5条1丁目","place":"札幌産業振興センター産業振興棟2F セミナールームB","lat":43.0554,"lon":141.388,"state":"closed","id":null},{"event_id":"40801","title":"【Webプラットフォーム勉強会 1307】 #TizenJP #FXOS #d_hack #HTML5J","url":"https://atnd.org/events/40801","shortener_url":null,"started_at":"2013-07-06T04:00:00.000+09:00","ended_at":"2013-07-06T08:30:00.000+09:00","limit_number":40,"address":"東京都新宿区西新宿二丁目1番1号 新宿三井ビルディング","place":"豆蔵トレーニングルーム","lat":35.6919,"lon":139.694,"state":"closed","id":null},{"event_id":"40230","title":"たきざワッカソン #3","url":"https://atnd.org/events/40230","shortener_url":null,"started_at":"2013-07-05T09:15:00.000+09:00","ended_at":"2013-07-07T05:00:00.000+09:00","limit_number":null,"address":"岩手県岩手郡滝沢村滝沢字巣子152-52","place":"岩手県立大学","lat":39.8019,"lon":141.137,"state":"closed","id":null},{"event_id":"40838","title":"【 MashupAwards 特別企画:札幌編 】つながる『ネット』と『クルマ』 -トヨタをHackするアイデアソン-#MA9","url":"https://atnd.org/events/40838","shortener_url":null,"started_at":"2013-07-04T10:00:00.000+09:00","ended_at":"2013-07-04T13:30:00.000+09:00","limit_number":30,"address":"札幌市中央区北3条西14丁目2-2","place":"Garage Labs","lat":43.0623,"lon":141.334,"state":"closed","id":null},{"event_id":"40908","title":"【 MashupAwards 特別企画:銀座編 】つながる『ネット』と『クルマ』 -トヨタをHackするアイデアソン-#MA9","url":"https://atnd.org/events/40908","shortener_url":null,"started_at":"2013-07-03T10:00:00.000+09:00","ended_at":"2013-07-03T13:30:00.000+09:00","limit_number":40,"address":"メディアテクノロジーラボ カフェ","place":"東京都中央区銀座7-2-6　リクルートアネックス1ビル　B1F","lat":0.0,"lon":0.0,"state":"closed","id":null},{"event_id":"41216","title":"メガデモ勉強会","url":"https://atnd.org/events/41216","shortener_url":null,"started_at":"2013-07-20T04:00:00.000+09:00","ended_at":"2013-07-20T08:00:00.000+09:00","limit_number":30,"address":"東京都新宿区西新宿4-33-4 住友不動産西新宿ビル4号館 6F","place":"さくらインターネット セミナールーム","lat":35.6866,"lon":139.689,"state":"closed","id":null},{"event_id":"39891","title":"a-blog cms Summer Camp 2013","url":"https://atnd.org/events/39891","shortener_url":null,"started_at":"2013-07-19T04:00:00.000+09:00","ended_at":"2013-07-20T03:00:00.000+09:00","limit_number":30,"address":"愛知県知多郡南知多町大字師崎字高岩57","place":"師崎荘","lat":34.7012,"lon":136.967,"state":"closed","id":null},{"event_id":"40076","title":"自宅ラック式オンサイト合宿　2.0","url":"https://atnd.org/events/40076","shortener_url":null,"started_at":"2013-07-13T03:00:00.000+09:00","ended_at":"2013-07-14T01:00:00.000+09:00","limit_number":13,"address":"新潟県南魚沼郡湯沢町大字土樽5135","place":"新潟県南魚沼郡湯沢町某所（越後中里駅から徒歩0分） ","lat":36.9092,"lon":138.848,"state":"closed","id":null},{"event_id":"2755","title":"(第33回)Python mini Hack-a-thon","url":"https://pyhack.connpass.com/event/2755/","shortener_url":null,"started_at":"2013-07-13T02:00:00.000+09:00","ended_at":"2013-07-13T10:00:00.000+09:00","limit_number":30,"address":"東京都港区虎ノ門3-4-7 (虎ノ門36森ビル 7階)","place":"アリエル・ネットワーク 会議室","lat":35.6662,"lon":139.747,"state":"active","id":null}]