[{"event_id":"3171","title":"ふりーだむハッカソン＠おーさか","url":"https://connpass.com/event/3171/","shortener_url":null,"started_at":"2013-08-17T00:00:00.000+09:00","ended_at":"2013-08-18T13:00:00.000+09:00","limit_number":4,"address":"","place":"スーパーもみあげハウス","lat":null,"lon":null,"state":"active","id":null},{"event_id":"3197","title":"【リスケ】肉を喰らう会 第4回","url":"https://meat.connpass.com/event/3197/","shortener_url":null,"started_at":"2013-08-24T18:00:00.000+09:00","ended_at":"2013-09-01T20:00:00.000+09:00","limit_number":8,"address":"東京都渋谷区宇田川町32-15(ビアビル5F)","place":"風風亭 渋谷店","lat":35.661,"lon":139.698,"state":"active","id":null},{"event_id":"2772","title":"プリキュアハッカソン","url":"https://cure-hack.connpass.com/event/2772/","shortener_url":null,"started_at":"2013-08-03T13:00:00.000+09:00","ended_at":"2013-08-03T21:00:00.000+09:00","limit_number":32,"address":"東京都目黒区下目黒1丁目8-1","place":"株式会社ドリコム カフェスペース（アルコタワー17F）","lat":35.6314,"lon":139.714,"state":"active","id":null},{"event_id":"2699","title":"【中止】V6移植ハッカソン（3日目）","url":"https://connpass.com/event/2699/","shortener_url":null,"started_at":"2013-08-14T13:00:00.000+09:00","ended_at":"2013-08-14T18:00:00.000+09:00","limit_number":15,"address":"東京都豊島区池袋 2-12-11 (三共池袋ビル 4階 401号室)","place":"池袋バイナリ勉強会","lat":35.7325,"lon":139.707,"state":"active","id":null},{"event_id":"2700","title":"【中止】V6移植ハッカソン（4日目）","url":"https://connpass.com/event/2700/","shortener_url":null,"started_at":"2013-08-15T13:00:00.000+09:00","ended_at":"2013-08-15T18:00:00.000+09:00","limit_number":15,"address":"東京都豊島区池袋 2-12-11 (三共池袋ビル 4階 401号室)","place":"池袋バイナリ勉強会","lat":35.7325,"lon":139.707,"state":"active","id":null},{"event_id":"2697","title":"【中止】V6移植ハッカソン（1日目）","url":"https://connpass.com/event/2697/","shortener_url":null,"started_at":"2013-08-12T13:00:00.000+09:00","ended_at":"2013-08-12T18:00:00.000+09:00","limit_number":15,"address":"東京都豊島区池袋 2-12-11 (三共池袋ビル 4階 401号室)","place":"池袋バイナリ勉強会","lat":35.7325,"lon":139.707,"state":"active","id":null},{"event_id":"2698","title":"【中止】V6移植ハッカソン（2日目）","url":"https://connpass.com/event/2698/","shortener_url":null,"started_at":"2013-08-13T13:00:00.000+09:00","ended_at":"2013-08-13T18:00:00.000+09:00","limit_number":15,"address":"東京都豊島区池袋 2-12-11 (三共池袋ビル 4階 401号室)","place":"池袋バイナリ勉強会","lat":35.7325,"lon":139.707,"state":"active","id":null},{"event_id":"2574","title":"関西GPGPU勉強会#4 Hackathon","url":"https://connpass.com/event/2574/","shortener_url":null,"started_at":"2013-08-17T00:30:00.000+09:00","ended_at":"2013-08-17T08:00:00.000+09:00","limit_number":10,"address":"〒535-0031 大阪市旭区高殿6丁目14番6号","place":"城北市民学習センター 和室","lat":34.7177,"lon":135.546,"state":"active","id":null},{"event_id":"42029","title":"第6回関西ゼロからはじめるＲ言語勉強会","url":"https://atnd.org/events/42029","shortener_url":null,"started_at":"2013-08-31T06:00:00.000+09:00","ended_at":"2013-09-02T23:59:59.000+09:00","limit_number":30,"address":"大阪府大阪市北区西天満2-6-8","place":"堂島ビルヂング9F 会議室 ","lat":34.6956,"lon":135.502,"state":"closed","id":null},{"event_id":"41429","title":"Hokkaido.pm #10","url":"https://atnd.org/events/41429","shortener_url":null,"started_at":"2013-08-31T04:00:00.000+09:00","ended_at":"2013-08-31T08:00:00.000+09:00","limit_number":40,"address":"札幌市白石区東札幌5条1丁目1-1","place":"札幌市産業振興センター セミナールーム3","lat":43.0562,"lon":141.386,"state":"closed","id":null},{"event_id":"42085","title":"Get Great Git #1 by Qiita","url":"https://atnd.org/events/42085","shortener_url":null,"started_at":"2013-08-27T10:00:00.000+09:00","ended_at":"2013-08-27T12:30:00.000+09:00","limit_number":100,"address":"東京都渋谷区東1-2-20  住友不動産渋谷ファーストタワー7F","place":"株式会社ミクシィ","lat":35.658,"lon":139.709,"state":"closed","id":null},{"event_id":"42742","title":"第112回よちよちAndroid開発ミーティング","url":"https://atnd.org/events/42742","shortener_url":null,"started_at":"2013-08-25T00:00:00.000+09:00","ended_at":"2013-08-25T03:00:00.000+09:00","limit_number":null,"address":"東京都品川区大崎1-11-1","place":"ゲートシティ大崎B1アトリウムフリー座席","lat":35.6194,"lon":139.731,"state":"closed","id":null},{"event_id":"42268","title":"第2回 LINQ勉強会 ","url":"https://atnd.org/events/42268","shortener_url":null,"started_at":"2013-08-24T04:00:00.000+09:00","ended_at":"2013-08-24T09:00:00.000+09:00","limit_number":40,"address":"大阪府大阪市西区靱本町2−1−14","place":"靱公園テニスセンター 会議室４","lat":34.6845,"lon":135.493,"state":"closed","id":null},{"event_id":"40339","title":"私立・プログラミングキャンプ 2013 関西大会 - #upcamp #upcampKansai","url":"https://atnd.org/events/40339","shortener_url":null,"started_at":"2013-08-23T23:30:00.000+09:00","ended_at":"2013-08-24T12:00:00.000+09:00","limit_number":40,"address":"","place":" 立命館大学 びわこ くさつ キャンパス クリエーションコア6F CC601","lat":null,"lon":null,"state":"closed","id":null},{"event_id":"42371","title":"使いたくなる UI をつくる！ フロントエンド 勉強会","url":"https://atnd.org/events/42371","shortener_url":null,"started_at":"2013-08-23T16:30:00.000+09:00","ended_at":"2013-08-25T23:59:59.000+09:00","limit_number":60,"address":"東京都新宿区西新宿二丁目7番1号 小田急第一生命ビル15階","place":"豆蔵トレーニングルーム","lat":35.6917,"lon":139.691,"state":"closed","id":null},{"event_id":"42499","title":"#MA9 サービス開発して100万をゲットしたい エンジニア、デザイナー、学生さん！Welcome！！　Mashup Caravan\u0026Meetup札幌vol.01　 開催前フライング企画！！","url":"https://atnd.org/events/42499","shortener_url":null,"started_at":"2013-08-22T10:00:00.000+09:00","ended_at":"2013-08-22T13:30:00.000+09:00","limit_number":30,"address":"札幌市中央区北3条西14丁目2-2","place":"Garage labs","lat":0.0,"lon":0.0,"state":"closed","id":null},{"event_id":"41385","title":"【増員！130名】【#TechBuzz】第16回 Unity 勉強会 Unityでつくるデジタルサイネージ / 学生がUnityで2Dゲームを作るとこうなる / IGDA Japan 福島GameJam2013開催報告と3年目の福島","url":"https://atnd.org/events/41385","shortener_url":null,"started_at":"2013-08-20T10:30:00.000+09:00","ended_at":"2013-08-20T13:00:00.000+09:00","limit_number":130,"address":"東京都新宿区新宿5丁目18番20号","place":"TechBuzzSpace（新宿オミビル4階）","lat":35.694,"lon":139.706,"state":"closed","id":null},{"event_id":"42030","title":"もくもく会","url":"https://atnd.org/events/42030","shortener_url":null,"started_at":"2013-08-18T02:00:00.000+09:00","ended_at":"2013-08-20T23:59:59.000+09:00","limit_number":10,"address":"大阪市北区西天満4-11-8武智産業ビルディング701","place":"Biz　Library","lat":34.6968,"lon":135.504,"state":"closed","id":null},{"event_id":"42248","title":"【 MashupAwards 特別企画:奈良編】ビッグデータ・オープンデータが「くらし」を「変える」－住みよいまちをみんなで考えるアイデアソン！ - #ma9","url":"https://atnd.org/events/42248","shortener_url":null,"started_at":"2013-08-15T10:00:00.000+09:00","ended_at":"2013-08-15T13:30:00.000+09:00","limit_number":30,"address":"奈良県奈良市二条大路南1丁目1−1","place":"奈良市役所　本庁6階　第１研修室","lat":34.6851,"lon":135.805,"state":"closed","id":null},{"event_id":"42366","title":"ハッカ盆 2013 with Leap Motion","url":"https://atnd.org/events/42366","shortener_url":null,"started_at":"2013-08-14T01:00:00.000+09:00","ended_at":"2013-08-14T09:00:00.000+09:00","limit_number":8,"address":"東京都渋谷区渋谷3-19-1","place":"カフェ・ミヤマ渋谷東口駅前店","lat":35.6577,"lon":139.703,"state":"closed","id":null},{"event_id":"42247","title":"【 MashupAwards 特別企画:福岡編】ビッグデータ・オープンデータが「くらし」を「変える」－住みよいまちをみんなで考えるアイデアソン！ - #ma9","url":"https://atnd.org/events/42247","shortener_url":null,"started_at":"2013-08-12T10:00:00.000+09:00","ended_at":"2013-08-12T13:30:00.000+09:00","limit_number":30,"address":"福岡県福岡市博多区博多駅前3-26-29                  九勧博多ビル","place":" 日本アイ・ビー・エム（株） 福岡事業所　会議室","lat":33.5896,"lon":130.416,"state":"closed","id":null},{"event_id":"42334","title":"ズボイミ会","url":"https://atnd.org/events/42334","shortener_url":null,"started_at":"2013-08-12T02:30:00.000+09:00","ended_at":"2013-08-13T09:30:00.000+09:00","limit_number":5,"address":"中崎町","place":"Gokubuto.S 自宅","lat":34.7069,"lon":135.505,"state":"closed","id":null},{"event_id":"38523","title":"テクニカーニバル！（スピーカー募集）","url":"https://atnd.org/events/38523","shortener_url":null,"started_at":"2013-08-11T04:00:00.000+09:00","ended_at":"2013-08-11T09:00:00.000+09:00","limit_number":null,"address":"岐阜県大垣市小野4丁目35−10","place":"大垣市情報工房 2階 会議室4 ","lat":35.3677,"lon":136.641,"state":"closed","id":null},{"event_id":"42111","title":"第1回 Design Idea Meeting","url":"https://atnd.org/events/42111","shortener_url":null,"started_at":"2013-08-11T01:00:00.000+09:00","ended_at":"2013-08-11T09:00:00.000+09:00","limit_number":20,"address":"東京都北区赤羽1-59-9","place":"ネスト赤羽 2F会議室","lat":35.7829,"lon":139.72,"state":"closed","id":null},{"event_id":"41807","title":"【#MA9】つながる『ネット』と『クルマ』 -トヨタをHackするアイデアソンVol.03-#MA9","url":"https://atnd.org/events/41807","shortener_url":null,"started_at":"2013-08-07T10:00:00.000+09:00","ended_at":"2013-08-07T13:30:00.000+09:00","limit_number":30,"address":"東京都中央区銀座7-2-6 リクルートアネックス1ビル B1F","place":"メディアテクノロジーラボ　MTLカフェ","lat":35.6709,"lon":139.761,"state":"closed","id":null},{"event_id":"42020","title":"第111回よちよちAndroid開発ミーティング","url":"https://atnd.org/events/42020","shortener_url":null,"started_at":"2013-08-04T00:00:00.000+09:00","ended_at":"2013-08-04T03:00:00.000+09:00","limit_number":null,"address":"東京都品川区大崎1-11-1","place":"ゲートシティ大崎B1アトリウムフリー座席","lat":35.6194,"lon":139.731,"state":"closed","id":null},{"event_id":"41405","title":"あいうらハッカソン #00","url":"https://atnd.org/events/41405","shortener_url":null,"started_at":"2013-08-03T01:00:00.000+09:00","ended_at":"2013-08-03T13:00:00.000+09:00","limit_number":null,"address":"","place":"","lat":null,"lon":null,"state":"closed","id":null},{"event_id":"40096","title":"福島GameJam2013京都会場","url":"https://atnd.org/events/40096","shortener_url":null,"started_at":"2013-08-03T01:00:00.000+09:00","ended_at":"2013-08-04T09:30:00.000+09:00","limit_number":12,"address":"京都府京都市右京区太秦多藪町45-19 ヤマモトビル2F","place":"京都太秦クリエーター支援拠点（UZU）","lat":35.0136,"lon":135.703,"state":"closed","id":null},{"event_id":"39898","title":"第２４回オープンＣＡＥ勉強会","url":"https://atnd.org/events/39898","shortener_url":null,"started_at":"2013-08-10T00:00:00.000+09:00","ended_at":"2013-08-11T05:00:00.000+09:00","limit_number":30,"address":"岐阜県大垣市加賀野4丁目1番地の7","place":"ソフトピアジャパン　ドリームコア２階　岐阜イノベーションセンター研修室","lat":35.3676,"lon":136.639,"state":"closed","id":null},{"event_id":"3170","title":"8/31-9/1 炎の就活スタートアップセミナー　【定番就活】から【はみだし就活】へ！","url":"https://connpass.com/event/3170/","shortener_url":null,"started_at":"2013-08-31T01:00:00.000+09:00","ended_at":"2013-09-01T08:00:00.000+09:00","limit_number":10,"address":"神戸市中央区元町通2-4-5","place":"ガリレオオフィス","lat":34.688,"lon":135.187,"state":"active","id":null},{"event_id":"2786","title":"音読療法協会　1・2級ボイスセラピスト合宿講座","url":"https://connpass.com/event/2786/","shortener_url":null,"started_at":"2013-08-12T01:00:00.000+09:00","ended_at":"2013-08-14T08:00:00.000+09:00","limit_number":20,"address":"","place":"渋谷区代々木","lat":null,"lon":null,"state":"active","id":null},{"event_id":"2651","title":"Python mini hack-a-thon 夏山合宿 2013","url":"https://pyhack.connpass.com/event/2651/","shortener_url":null,"started_at":"2013-08-30T04:00:00.000+09:00","ended_at":"2013-09-01T05:00:00.000+09:00","limit_number":25,"address":"長野県須坂市大字仁礼峰の原高原3153-720","place":"ペンション マウンテンパパ","lat":36.5531,"lon":138.35,"state":"active","id":null}]