[{"event_id":"1686","title":"きょんくんちふわっかソン","url":"https://connpass.com/event/1686/","shortener_url":null,"started_at":"2013-02-02T14:00:00.000+09:00","ended_at":"2013-02-03T14:00:00.000+09:00","limit_number":5,"address":"","place":"kyon_mmの自宅","lat":35.1814,"lon":136.906,"state":"active","id":null},{"event_id":"1723","title":"Yokohama.groovy #12 #yokohamagroovy","url":"https://connpass.com/event/1723/","shortener_url":null,"started_at":"2013-02-17T04:30:00.000+09:00","ended_at":"2013-02-17T10:00:00.000+09:00","limit_number":8,"address":"神奈川県横浜市西区岡野1-3-10 サニーコート横浜 1F","place":"横浜タネマキ","lat":35.4611,"lon":139.616,"state":"active","id":null},{"event_id":"1661","title":"そのカラーが自分を高める ～パーソナルカラー入門～ (参加費 無償)","url":"https://connpass.com/event/1661/","shortener_url":null,"started_at":"2013-02-23T10:00:00.000+09:00","ended_at":"2013-02-23T10:45:00.000+09:00","limit_number":40,"address":"東京都日野市程久保2-1-1","place":"明星大学 日野キャンパス","lat":35.6452,"lon":139.409,"state":"active","id":null},{"event_id":"1379","title":"SphinxCon JP 2013 Spring (OSC併設イベント)","url":"https://sphinxjp.connpass.com/event/1379/","shortener_url":null,"started_at":"2013-02-23T10:00:00.000+09:00","ended_at":"2013-02-23T15:00:00.000+09:00","limit_number":40,"address":"東京都日野市程久保２丁目１−１","place":"明星大学","lat":35.6452,"lon":139.409,"state":"active","id":null},{"event_id":"36077","title":"【増員】【#TechBuzz】第13回 #Unity Study 週末プログラミングで作るカジュアルゲーム　～シューティング編～／Unity 4 の最適化 http://www.socialtoprunners.jp/","url":"https://atnd.org/events/36077","shortener_url":null,"started_at":"2013-02-28T10:30:00.000+09:00","ended_at":"2013-02-28T13:00:00.000+09:00","limit_number":120,"address":"新宿区新宿5-18-20","place":"TechBuzzSpace（新宿オミビル4階）","lat":35.694,"lon":139.706,"state":"closed","id":null},{"event_id":"36259","title":"【#TechBuzz】第1回スマホアプリグローバルマーケ勉強会【中国最新動向】/ 「怖くない」日本からでもできるアプリ海外展開とGoogle Playランキング向上プロモーション at http://www.socialtoprunners.jp/","url":"https://atnd.org/events/36259","shortener_url":null,"started_at":"2013-02-27T10:30:00.000+09:00","ended_at":"2013-02-27T12:30:00.000+09:00","limit_number":50,"address":"新宿区新宿5-18-20","place":"TechBuzzSpace（新宿オミビル4階）","lat":35.694,"lon":139.706,"state":"closed","id":null},{"event_id":"37065","title":"Google技術わいわい会＠松山","url":"https://atnd.org/events/37065","shortener_url":null,"started_at":"2013-02-26T10:00:00.000+09:00","ended_at":"2013-02-26T12:00:00.000+09:00","limit_number":10,"address":"松山市大手町1丁目14−2","place":"ダイヤモンドクロス","lat":33.8404,"lon":132.756,"state":"closed","id":null},{"event_id":"36234","title":"【増員】【TechBuzz】第4回.js系開発技術勉強会 　はじめよう Backbone.js / 【入門】enchant.js でゲームを作ろう","url":"https://atnd.org/events/36234","shortener_url":null,"started_at":"2013-02-25T10:00:00.000+09:00","ended_at":"2013-02-25T13:00:00.000+09:00","limit_number":70,"address":"東京都新宿区新宿5丁目18番20号","place":"Tech Buzz Space（新宿オミビル4階）","lat":35.694,"lon":139.706,"state":"closed","id":null},{"event_id":"37024","title":"第2回Web APIで学ぶPHP・JavaScript勉強会","url":"https://atnd.org/events/37024","shortener_url":null,"started_at":"2013-02-24T04:30:00.000+09:00","ended_at":"2013-02-24T09:00:00.000+09:00","limit_number":25,"address":"東京都新宿区西新宿1-6-1","place":"マルチメディアスクールWAVE新宿本校","lat":35.6922,"lon":139.697,"state":"closed","id":null},{"event_id":"36656","title":"PRMLカラオケクラスタひみつ集会〈リベンジ編〉","url":"https://atnd.org/events/36656","shortener_url":null,"started_at":"2013-02-24T04:00:00.000+09:00","ended_at":"2013-02-24T10:00:00.000+09:00","limit_number":8,"address":"東京都渋谷区代々木1-37-7","place":"カラオケ館 代々木店","lat":35.6834,"lon":139.701,"state":"closed","id":null},{"event_id":"36985","title":"第90回よちよちAndroid開発ミーティング","url":"https://atnd.org/events/36985","shortener_url":null,"started_at":"2013-02-24T00:00:00.000+09:00","ended_at":"2013-02-24T03:00:00.000+09:00","limit_number":null,"address":"東京都品川区大崎1-11-1","place":"ゲートシティ大崎B1アトリウムフリー座席","lat":35.6194,"lon":139.731,"state":"closed","id":null},{"event_id":"36412","title":"Hachioji.pm #26","url":"https://atnd.org/events/36412","shortener_url":null,"started_at":"2013-02-23T09:00:00.000+09:00","ended_at":"2013-02-25T23:59:59.000+09:00","limit_number":16,"address":"東京都八王子市子安町","place":"未定","lat":35.653,"lon":139.339,"state":"closed","id":null},{"event_id":"36066","title":"【#TechBuzz】Unity実践講座 in 鹿児島　〜お試しハンズオン〜","url":"https://atnd.org/events/36066","shortener_url":null,"started_at":"2013-02-23T05:30:00.000+09:00","ended_at":"2013-02-23T07:30:00.000+09:00","limit_number":30,"address":"鹿児島市郡元1-9-5","place":"KCS鹿児島情報専門学校（鹿児島市郡元1-9-5）","lat":31.5672,"lon":130.542,"state":"closed","id":null},{"event_id":"36982","title":"浜松ハッカソンもくもく会 at スマホ道場 -- 2013年2月23日(土)","url":"https://atnd.org/events/36982","shortener_url":null,"started_at":"2013-02-23T04:00:00.000+09:00","ended_at":"2013-02-23T10:00:00.000+09:00","limit_number":11,"address":"浜松市中区塩町59-1","place":"実践！スマホ道場（AZビル3F東）","lat":34.7012,"lon":137.729,"state":"closed","id":null},{"event_id":"36403","title":"第三回 もくもく会 in Creators Residence","url":"https://atnd.org/events/36403","shortener_url":null,"started_at":"2013-02-23T02:00:00.000+09:00","ended_at":"2013-02-23T13:00:00.000+09:00","limit_number":null,"address":"沖縄県中頭郡北谷町北谷2丁目1−5","place":"Creators Residence","lat":26.3051,"lon":127.762,"state":"closed","id":null},{"event_id":"36901","title":"Sphinxハンズオン","url":"https://atnd.org/events/36901","shortener_url":null,"started_at":"2013-02-23T01:30:00.000+09:00","ended_at":"2013-02-23T02:10:00.000+09:00","limit_number":30,"address":"東京都日野市程久保2丁目1−1","place":"明星大学","lat":35.6452,"lon":139.409,"state":"closed","id":null},{"event_id":"36413","title":"Like a ハッカソン #5 (pre Hachioji.pm #26)","url":"https://atnd.org/events/36413","shortener_url":null,"started_at":"2013-02-23T01:00:00.000+09:00","ended_at":"2013-02-25T23:59:59.000+09:00","limit_number":16,"address":"東京都八王子市子安町4-9-6","place":"八王子南口ＭＴビル時間貸し会議室","lat":35.6535,"lon":139.338,"state":"closed","id":null},{"event_id":"37191","title":"Mojoliciousやmod_perlを話題にした飲み会","url":"https://atnd.org/events/37191","shortener_url":null,"started_at":"2013-02-22T10:00:00.000+09:00","ended_at":"2013-02-22T14:00:00.000+09:00","limit_number":6,"address":"東京都品川区西五反田2-5-8 野津ビル2F・3F","place":"原価BAR 五反田店","lat":35.6268,"lon":139.723,"state":"closed","id":null},{"event_id":"36065","title":"【#TechBuzz】Unity公開講座 in 鹿児島　〜基本講義＆お試しハンズオン〜","url":"https://atnd.org/events/36065","shortener_url":null,"started_at":"2013-02-22T05:30:00.000+09:00","ended_at":"2013-02-22T07:30:00.000+09:00","limit_number":30,"address":"鹿児島市郡元1-9-5","place":"KCS鹿児島情報専門学校（鹿児島市郡元1-9-5）","lat":31.5672,"lon":130.542,"state":"closed","id":null},{"event_id":"35784","title":"【満員御礼】【#TechBuzz】第5回Shinjuku.cocos2d-x 〜少人数ハンズオン勉強会〜 かんたんなゲームをつくってみよう！  at http://socialtoprunners.jp/ #cocos2d #iphonejp #game","url":"https://atnd.org/events/35784","shortener_url":null,"started_at":"2013-02-21T10:30:00.000+09:00","ended_at":"2013-02-21T13:00:00.000+09:00","limit_number":60,"address":"東京都新宿区新宿5丁目18番20号","place":"TechBuzzSpace（新宿オミビル4階）","lat":35.694,"lon":139.706,"state":"closed","id":null},{"event_id":"36002","title":"【増員】【#TechBuzz】第9回iPhoneGames勉強会 累計150万ダウンロード！【ひよこまみれ】／爽快パズルゲーム！【ぷるぷるぱっちん】 ／冒険RPG【まなでし！】 at http://socialtoprunners.jp/","url":"https://atnd.org/events/36002","shortener_url":null,"started_at":"2013-02-20T10:30:00.000+09:00","ended_at":"2013-02-20T13:00:00.000+09:00","limit_number":100,"address":"東京都新宿区新宿5丁目18番20号","place":"Tech Buzz Space（新宿オミビル4階）","lat":35.694,"lon":139.706,"state":"closed","id":null},{"event_id":"36984","title":"第89回よちよちAndroid開発ミーティング","url":"https://atnd.org/events/36984","shortener_url":null,"started_at":"2013-02-17T00:00:00.000+09:00","ended_at":"2013-02-17T03:00:00.000+09:00","limit_number":null,"address":"東京都品川区大崎1-11-1","place":"ゲートシティ大崎B1アトリウムフリー座席","lat":35.6194,"lon":139.731,"state":"closed","id":null},{"event_id":"36925","title":"Game hack-a-thon #10","url":"https://atnd.org/events/36925","shortener_url":null,"started_at":"2013-02-16T02:00:00.000+09:00","ended_at":"2013-02-16T14:00:00.000+09:00","limit_number":15,"address":"東京都港区六本木6-10-1 六本木ヒルズ森タワー","place":"グリー株式会社 会議室","lat":35.6606,"lon":139.729,"state":"closed","id":null},{"event_id":"36739","title":"OpenSolaris ユーザグループ・ミーティング 2013.02","url":"https://atnd.org/events/36739","shortener_url":null,"started_at":"2013-02-15T10:00:00.000+09:00","ended_at":"2013-02-15T12:00:00.000+09:00","limit_number":30,"address":"東京都港区北青山2−5−8 青山OMスクエア","place":"オラクル青山センター 13F 会議室","lat":35.6712,"lon":139.719,"state":"closed","id":null},{"event_id":"36788","title":"第88回よちよちAndroid開発ミーティング","url":"https://atnd.org/events/36788","shortener_url":null,"started_at":"2013-02-10T00:00:00.000+09:00","ended_at":"2013-02-10T03:00:00.000+09:00","limit_number":null,"address":"東京都品川区大崎1-11-1","place":"ゲートシティ大崎B1アトリウムフリー座席","lat":35.6194,"lon":139.731,"state":"closed","id":null},{"event_id":"35921","title":"Gunma.web #12","url":"https://atnd.org/events/35921","shortener_url":null,"started_at":"2013-02-09T05:00:00.000+09:00","ended_at":"2013-02-09T08:00:00.000+09:00","limit_number":35,"address":"群馬県高崎市東町80-1","place":"高崎市労使会館","lat":36.3266,"lon":139.014,"state":"closed","id":null},{"event_id":"36404","title":"第2回 もくもく会 in Creators Residence","url":"https://atnd.org/events/36404","shortener_url":null,"started_at":"2013-02-09T02:00:00.000+09:00","ended_at":"2013-02-09T13:00:00.000+09:00","limit_number":null,"address":"沖縄県中頭郡北谷町北谷2丁目1−5","place":"Creators Residence","lat":26.3051,"lon":127.762,"state":"closed","id":null},{"event_id":"36174","title":"iOS Dev ハッカソン 関西 Vol.03 #iosdevthon_kansai","url":"https://atnd.org/events/36174","shortener_url":null,"started_at":"2013-02-09T02:00:00.000+09:00","ended_at":"2013-02-10T03:00:00.000+09:00","limit_number":9,"address":"堺市東区/最寄り駅:南海高野線 萩原天神駅","place":"","lat":0.0,"lon":0.0,"state":"closed","id":null},{"event_id":"36715","title":"世界最大規模ハッカソン「Global Game Jam」 大阪会場","url":"https://atnd.org/events/36715","shortener_url":null,"started_at":"2013-02-05T08:30:00.000+09:00","ended_at":"2013-02-07T23:59:59.000+09:00","limit_number":null,"address":"大阪市北区西天満4丁目11-8-701","place":"BizLibrary ","lat":34.6976,"lon":135.503,"state":"closed","id":null},{"event_id":"36430","title":"第87回よちよちAndroid開発ミーティング","url":"https://atnd.org/events/36430","shortener_url":null,"started_at":"2013-02-03T00:00:00.000+09:00","ended_at":"2013-02-03T03:00:00.000+09:00","limit_number":null,"address":"東京都品川区大崎1-11-1","place":"ゲートシティ大崎B1アトリウムフリー座席","lat":35.6194,"lon":139.731,"state":"closed","id":null},{"event_id":"36354","title":"日本Androidの会秋葉原支部ロボット部　第11回勉強会","url":"https://atnd.org/events/36354","shortener_url":null,"started_at":"2013-02-02T02:00:00.000+09:00","ended_at":"2013-02-02T09:00:00.000+09:00","limit_number":15,"address":"東京都板橋区志村1-1-2 2F","place":"Robotma.com（ろぼとまどっとこむ）","lat":35.7721,"lon":139.699,"state":"closed","id":null},{"event_id":"36586","title":"jamadamさん壮行会","url":"https://atnd.org/events/36586","shortener_url":null,"started_at":"2013-02-01T11:30:00.000+09:00","ended_at":"2013-02-01T13:30:00.000+09:00","limit_number":10,"address":"北海道札幌市中央区北4条西3丁目 平成観光ビル5F(ビックエコー上)","place":"本格焼酎・炭火ダイニング　続・じょっぴん掛る","lat":43.0662,"lon":141.351,"state":"closed","id":null},{"event_id":"36363","title":"Web先端技術味見部#16 （今回は「Web Speech API」！）","url":"https://atnd.org/events/36363","shortener_url":null,"started_at":"2013-02-01T10:30:00.000+09:00","ended_at":"2013-02-01T12:30:00.000+09:00","limit_number":30,"address":"東京都渋谷区渋谷2-21-1 渋谷ヒカリエ 27階","place":"NHN Japan 株式会社 渋谷オフィス","lat":35.6588,"lon":139.703,"state":"closed","id":null},{"event_id":"36640","title":"2/10,11(日,祝)日本最大イルミなばな★日本一伊勢神宮★四大工場夜景★貸切バスツアー♪","url":"https://atnd.org/events/36640","shortener_url":null,"started_at":"2013-02-09T23:30:00.000+09:00","ended_at":"2013-02-11T13:00:00.000+09:00","limit_number":40,"address":"東京都新宿区","place":"新宿駅周辺に集合","lat":35.6938,"lon":139.704,"state":"closed","id":null}]