[{"event_id":"1604","title":"Yokohama.groovy #11 #yokohamagroovy","url":"https://connpass.com/event/1604/","shortener_url":null,"started_at":"2013-01-20T13:30:00.000+09:00","ended_at":"2013-01-20T18:30:00.000+09:00","limit_number":null,"address":"神奈川県横浜市西区岡野1-3-10 サニーコート横浜 1F","place":"横浜タネマキ","lat":35.4611,"lon":139.616,"state":"active","id":null},{"event_id":"35237","title":"【増員】【#TechBuzz】#Unity Study 12th  Asset Storeに出す為のUnity拡張入門 / 週末プログラミング / カジュアルゲーム(レーシング編) / ある個人事例 / サウンドにこだわる","url":"https://atnd.org/events/35237","shortener_url":null,"started_at":"2013-01-31T19:30:00.000+09:00","ended_at":"2013-01-31T22:00:00.000+09:00","limit_number":140,"address":"東京都新宿区新宿5丁目18番20号","place":"TechBuzzSpace（新宿オミビル4階）","lat":35.694,"lon":139.706,"state":"closed","id":null},{"event_id":"36231","title":"第86回よちよちAndroid開発ミーティング","url":"https://atnd.org/events/36231","shortener_url":null,"started_at":"2013-01-27T09:00:00.000+09:00","ended_at":"2013-01-27T12:00:00.000+09:00","limit_number":null,"address":"東京都品川区大崎1-11-1","place":"ゲートシティ大崎B1アトリウムフリー座席","lat":35.6194,"lon":139.731,"state":"closed","id":null},{"event_id":"35126","title":"日本Androidの会 横浜支部 第16回定例会","url":"https://atnd.org/events/35126","shortener_url":null,"started_at":"2013-01-26T14:00:00.000+09:00","ended_at":"2013-01-26T17:00:00.000+09:00","limit_number":40,"address":"横浜市中区相生町3-61","place":"さくらWORKS＜関内＞","lat":35.4467,"lon":139.638,"state":"closed","id":null},{"event_id":"36200","title":"これから始める人のためのUnity勉強会","url":"https://atnd.org/events/36200","shortener_url":null,"started_at":"2013-01-26T13:00:00.000+09:00","ended_at":"2013-01-26T17:00:00.000+09:00","limit_number":23,"address":"東京都千代田区岩本町2-10-9","place":"株式会社あゆた 開発室（手塚ビル7F)","lat":35.6935,"lon":139.778,"state":"closed","id":null},{"event_id":"35916","title":"もくもく会 in Creators Residence","url":"https://atnd.org/events/35916","shortener_url":null,"started_at":"2013-01-26T09:00:00.000+09:00","ended_at":"2013-01-26T22:00:00.000+09:00","limit_number":null,"address":"沖縄県中頭郡北谷町北谷2丁目1−5","place":"Creators Residence","lat":26.3051,"lon":127.762,"state":"closed","id":null},{"event_id":"36355","title":"ブロマガッカソン","url":"https://atnd.org/events/36355","shortener_url":null,"started_at":"2013-01-26T00:00:00.000+09:00","ended_at":"2013-01-26T19:00:00.000+09:00","limit_number":null,"address":"","place":"各人の自宅","lat":null,"lon":null,"state":"closed","id":null},{"event_id":"36101","title":"global game jam in ギークハウス武蔵小杉","url":"https://atnd.org/events/36101","shortener_url":null,"started_at":"2013-01-25T18:00:00.000+09:00","ended_at":"2013-01-27T18:00:00.000+09:00","limit_number":6,"address":"神奈川県川崎市中原区小杉御殿町2丁目126番地","place":"ギークハウス武蔵小杉","lat":35.58,"lon":139.653,"state":"closed","id":null},{"event_id":"36121","title":"Global Game Jam 2013 【新宿会場】with tmlib.js","url":"https://atnd.org/events/36121","shortener_url":null,"started_at":"2013-01-25T17:00:00.000+09:00","ended_at":"2013-01-27T18:00:00.000+09:00","limit_number":15,"address":"東京都新宿区新宿5丁目18番20号","place":"Tech Buzz Space（新宿オミビル4階）","lat":35.694,"lon":139.706,"state":"closed","id":null},{"event_id":"36118","title":"世界最大規模ハッカソン「Global Game Jam」 大阪会場","url":"https://atnd.org/events/36118","shortener_url":null,"started_at":"2013-01-25T17:00:00.000+09:00","ended_at":"2013-01-27T17:00:00.000+09:00","limit_number":30,"address":"大阪市北区西天満4丁目11-8-701","place":"BizLibrary ","lat":34.6976,"lon":135.503,"state":"closed","id":null},{"event_id":"35415","title":"【世界49カ国186会場で同時開催!!】Global Game Jam Kagoshima 2013","url":"https://atnd.org/events/35415","shortener_url":null,"started_at":"2013-01-25T16:30:00.000+09:00","ended_at":"2013-01-27T15:00:00.000+09:00","limit_number":15,"address":"鹿児島県鹿児島市名山町9-15 ソフトプラザかごしま 201号","place":"【HASKY】","lat":31.5948,"lon":130.559,"state":"closed","id":null},{"event_id":"35024","title":"【#TechBuzz】第4回Shinjuku.cocos2d-x 〜少人数ハンズオン勉強会〜   画像周りを自由自在に表示してみよう！ http://socialtoprunners.jp/ #cocos2d #iphonejp #game","url":"https://atnd.org/events/35024","shortener_url":null,"started_at":"2013-01-24T19:30:00.000+09:00","ended_at":"2013-01-24T22:00:00.000+09:00","limit_number":60,"address":"東京都新宿区新宿5丁目18番20号","place":"Tech Buzz Space（新宿オミビル4階）","lat":35.694,"lon":139.706,"state":"closed","id":null},{"event_id":"35677","title":"第４回　ストイック勉強会","url":"https://atnd.org/events/35677","shortener_url":null,"started_at":"2013-01-20T13:00:00.000+09:00","ended_at":"2013-01-20T18:00:00.000+09:00","limit_number":8,"address":"東京都渋谷区神南1-22-14 タワーレコード渋谷店 2F","place":"渋谷 タワーレコードカフェ","lat":35.6619,"lon":139.701,"state":"closed","id":null},{"event_id":"36107","title":"第85回よちよちAndroid開発ミーティング","url":"https://atnd.org/events/36107","shortener_url":null,"started_at":"2013-01-20T09:00:00.000+09:00","ended_at":"2013-01-20T12:00:00.000+09:00","limit_number":null,"address":"東京都品川区大崎1-11-1","place":"ゲートシティ大崎B1アトリウムフリー座席","lat":35.6194,"lon":139.731,"state":"closed","id":null},{"event_id":"35630","title":"Windows Phone ハッカソン in 名古屋","url":"https://atnd.org/events/35630","shortener_url":null,"started_at":"2013-01-19T13:00:00.000+09:00","ended_at":"2013-01-19T18:00:00.000+09:00","limit_number":20,"address":"愛知県名古屋市中区金山5丁目11-6","place":"名古屋ソフトウェアセンター","lat":35.1449,"lon":136.911,"state":"closed","id":null},{"event_id":"35243","title":"【#TechBuzz】Cocos2d-x実践講座 in 鹿児島　〜少人数で実際にアプリ作りを体験してみよう！〜","url":"https://atnd.org/events/35243","shortener_url":null,"started_at":"2013-01-19T13:00:00.000+09:00","ended_at":"2013-01-19T17:00:00.000+09:00","limit_number":15,"address":"鹿児島市郡元1-9-5","place":"KCS鹿児島情報専門学校 ","lat":31.5672,"lon":130.542,"state":"closed","id":null},{"event_id":"34780","title":"デザイナとプログラマで時計を作るVisual Studioハッカソン","url":"https://atnd.org/events/34780","shortener_url":null,"started_at":"2013-01-19T10:00:00.000+09:00","ended_at":"2013-01-19T18:00:00.000+09:00","limit_number":10,"address":"大阪府大阪市中央区北浜4-7-28 住友ビルディング第2号館","place":"IIJ関西支社","lat":34.6912,"lon":135.498,"state":"closed","id":null},{"event_id":"34779","title":"プログラマとデザイナで時計を作るVisual Studioハッカソン × TDDBC 大阪 for C#","url":"https://atnd.org/events/34779","shortener_url":null,"started_at":"2013-01-19T10:00:00.000+09:00","ended_at":"2013-01-19T18:00:00.000+09:00","limit_number":20,"address":"大阪府大阪市中央区北浜4-7-28 住友ビルディング第2号館","place":"IIJ関西支社","lat":34.6912,"lon":135.498,"state":"closed","id":null},{"event_id":"34775","title":"TDDBC 大阪 for C#（Visual Studioハッカソン事前勉強会）","url":"https://atnd.org/events/34775","shortener_url":null,"started_at":"2013-01-18T19:00:00.000+09:00","ended_at":"2013-01-18T21:00:00.000+09:00","limit_number":24,"address":"大阪府大阪市西区西本町2-3-10 西本町インテス8階","place":"Aiming 大阪スタジオ","lat":34.6825,"lon":135.495,"state":"closed","id":null},{"event_id":"35241","title":"【#TechBuzz】Cocos2d-x公開講座 in 鹿児島　〜基本講義＆お試しハンズオン〜","url":"https://atnd.org/events/35241","shortener_url":null,"started_at":"2013-01-18T14:30:00.000+09:00","ended_at":"2013-01-18T16:30:00.000+09:00","limit_number":30,"address":"鹿児島市郡元1-9-5","place":"KCS鹿児島情報専門学校","lat":31.5672,"lon":130.542,"state":"closed","id":null},{"event_id":"35117","title":"【#TechBuzz】第9回HTML5開発技術勉強会 〜HTML5ディベロッパー同士が話す場〜 Web技術のこれまでとこれから -HTML5の技術10連発- / 2013年、HTML5+WebGLはどう変わるのか？  at http://socialtoprunners.jp/ #html5","url":"https://atnd.org/events/35117","shortener_url":null,"started_at":"2013-01-17T19:30:00.000+09:00","ended_at":"2013-01-17T22:00:00.000+09:00","limit_number":70,"address":"新宿区新宿5-18-20","place":"TechBuzzSpace（新宿オミビル4階）","lat":35.694,"lon":139.706,"state":"closed","id":null},{"event_id":"35453","title":"初心者向けUnity勉強会 in ギークハウス","url":"https://atnd.org/events/35453","shortener_url":null,"started_at":"2013-01-14T13:00:00.000+09:00","ended_at":"2013-01-14T18:00:00.000+09:00","limit_number":10,"address":"神奈川県川崎市中原区小杉御殿町2丁目126番地","place":"ギークハウス武蔵小杉","lat":35.58,"lon":139.653,"state":"closed","id":null},{"event_id":"35680","title":"日本Androidの会 秋葉原支部 ロボット部 第10回 勉強会","url":"https://atnd.org/events/35680","shortener_url":null,"started_at":"2013-01-14T12:00:00.000+09:00","ended_at":"2013-01-14T18:00:00.000+09:00","limit_number":13,"address":"東京都千代田区外神田4-7-3","place":"株式会社若松通商 6F アキバNET館","lat":35.7027,"lon":139.772,"state":"closed","id":null},{"event_id":"35685","title":"第84回よちよちAndroid開発ミーティング","url":"https://atnd.org/events/35685","shortener_url":null,"started_at":"2013-01-13T09:00:00.000+09:00","ended_at":"2013-01-13T12:00:00.000+09:00","limit_number":null,"address":"東京都品川区大崎1-11-1","place":"ゲートシティ大崎B1アトリウムフリー座席","lat":35.6194,"lon":139.731,"state":"closed","id":null},{"event_id":"35007","title":"【#TechBuzz】第8回iPhoneGames勉強会 〜App Store Best of 2012 受賞‼ Web屋が一年でGame屋になるまでのまとめ   (モンアツからタップ忍者が出来るまで)/ カジュアルゲームのLTV考察（700万DLのGlassPong リリース1年から考える） at http://socialtoprunners.jp/ #iphonejp #game","url":"https://atnd.org/events/35007","shortener_url":null,"started_at":"2013-01-10T19:30:00.000+09:00","ended_at":"2013-01-10T22:00:00.000+09:00","limit_number":150,"address":"東京都新宿区新宿5丁目18番20号","place":"Tech Buzz Space（新宿オミビル4階）","lat":35.694,"lon":139.706,"state":"closed","id":null},{"event_id":"35411","title":"JGGUG名古屋 Griffonハッカソン #jggug","url":"https://atnd.org/events/35411","shortener_url":null,"started_at":"2013-01-09T19:00:00.000+09:00","ended_at":"2013-01-09T21:00:00.000+09:00","limit_number":10,"address":"","place":"千種周辺","lat":null,"lon":null,"state":"closed","id":null},{"event_id":"35534","title":"第83回よちよちAndroid開発ミーティング","url":"https://atnd.org/events/35534","shortener_url":null,"started_at":"2013-01-06T09:00:00.000+09:00","ended_at":"2013-01-06T12:00:00.000+09:00","limit_number":null,"address":"東京都品川区大崎1-11-1","place":"ゲートシティ大崎B1アトリウムフリー座席","lat":35.6194,"lon":139.731,"state":"closed","id":null},{"event_id":"35949","title":"情報科学若手の会・冬の陣","url":"https://atnd.org/events/35949","shortener_url":null,"started_at":"2013-01-26T14:00:00.000+09:00","ended_at":"2013-01-26T18:00:00.000+09:00","limit_number":75,"address":"東京都千代田区神田神保町1丁目105 神保町三井ビルディング 17F","place":"インターネットイニシアティブ","lat":35.6942,"lon":139.76,"state":"closed","id":null},{"event_id":"35405","title":"【満員御礼】スマホアプリ開発セミナー With Titanium Mobile 3.0 ","url":"https://atnd.org/events/35405","shortener_url":null,"started_at":"2013-01-12T16:00:00.000+09:00","ended_at":"2013-01-12T19:00:00.000+09:00","limit_number":25,"address":"東京都中央区銀座3-7-16 銀座NSビル 9F","place":"銀座ナチュラルタイム セミナールーム","lat":35.6717,"lon":139.767,"state":"closed","id":null},{"event_id":"1308","title":"Python mini hack-a-thon 雪山合宿 2013","url":"https://pyhack.connpass.com/event/1308/","shortener_url":null,"started_at":"2013-01-18T13:00:00.000+09:00","ended_at":"2013-01-20T16:00:00.000+09:00","limit_number":22,"address":"長野県須坂市大字仁礼峰の原高原3153-720","place":"ペンション マウンテンパパ","lat":36.5531,"lon":138.35,"state":"active","id":null},{"event_id":"1290","title":"Groovy基礎勉強会合宿","url":"https://connpass.com/event/1290/","shortener_url":null,"started_at":"2013-01-26T14:00:00.000+09:00","ended_at":"2013-01-27T17:00:00.000+09:00","limit_number":null,"address":"","place":"","lat":null,"lon":null,"state":"active","id":null}]