[{"event_id":"18934","title":"Mashup Hackathon2014 信州","url":"https://gdg-shinshu.connpass.com/event/18934/","shortener_url":null,"started_at":"2014-09-10T18:30:00.000+09:00","ended_at":"2014-09-10T21:30:00.000+09:00","limit_number":25,"address":"長野県塩尻市大門八番町1番2号","place":"塩尻インキュベーションプラザ（SIP)","lat":36.1113,"lon":137.95,"state":"active","id":null},{"event_id":"18931","title":"Global Android Dev Camp in 信州","url":"https://gdg-shinshu.connpass.com/event/18931/","shortener_url":null,"started_at":"2014-09-12T18:30:00.000+09:00","ended_at":"2014-09-13T18:30:00.000+09:00","limit_number":15,"address":"松本市入山辺扉8967-4-28","place":"Day1：塩尻インキュベーションプラザSIP　Day2：扉温泉檜の湯（松本市）","lat":36.2321,"lon":138.017,"state":"active","id":null},{"event_id":"8260","title":"Android Wear Hackathon in Shikoku 2nd","url":"https://gdgshikoku.connpass.com/event/8260/","shortener_url":null,"started_at":"2014-09-28T10:00:00.000+09:00","ended_at":"2014-09-28T17:00:00.000+09:00","limit_number":15,"address":"香川県高松市サンポート2-1","place":"e-とぴあ・かがわ","lat":34.3527,"lon":134.047,"state":"active","id":null},{"event_id":"8627","title":"Google GLASS おさわり会（ウェアラブルガジェットパーティ前夜祭）","url":"https://connpass.com/event/8627/","shortener_url":null,"started_at":"2014-09-27T04:00:00.000+09:00","ended_at":"2014-09-27T05:00:00.000+09:00","limit_number":23,"address":"東京都中央区築地1-13-14(NBF東銀座スクエア2F)","place":"銀座ラーニングセンター Jupiter","lat":35.6679,"lon":139.77,"state":"active","id":null},{"event_id":"7934","title":"浴衣deハッカソン","url":"https://connpass.com/event/7934/","shortener_url":null,"started_at":"2014-09-20T19:30:00.000+09:00","ended_at":"2014-09-22T06:00:00.000+09:00","limit_number":35,"address":"Roppongi Hills Mori Tower PO Box 22, 6-10-1 Roppongi Minato-ku, Tokyo 106-6126","place":"Google Japan","lat":35.6606,"lon":139.729,"state":"active","id":null},{"event_id":"8643","title":"第1回Swiftモクモク会inBizreach(渋谷)","url":"https://biz-ocean.connpass.com/event/8643/","shortener_url":null,"started_at":"2014-09-18T04:30:00.000+09:00","ended_at":"2014-09-18T07:00:00.000+09:00","limit_number":12,"address":"東京都渋谷区渋谷2-15-1(渋谷クロスタワー 12F)","place":"株式会社Bizreach","lat":35.6588,"lon":139.705,"state":"active","id":null},{"event_id":"8758","title":"Entertainmentハッカソン（9/21）","url":"https://connpass.com/event/8758/","shortener_url":null,"started_at":"2014-09-21T20:00:00.000+09:00","ended_at":"2014-09-22T03:00:00.000+09:00","limit_number":20,"address":"東京都中野区中央4-5-3","place":"構造計画研究所","lat":35.6978,"lon":139.668,"state":"active","id":null},{"event_id":"8720","title":"【今日開催】食べマルシェでミニハッカソン","url":"https://asahikawa.connpass.com/event/8720/","shortener_url":null,"started_at":"2014-09-14T19:15:00.000+09:00","ended_at":"2014-09-14T21:15:00.000+09:00","limit_number":null,"address":"旭川市1条通8丁目108番地","place":"フィール７階の自習スペース","lat":43.7658,"lon":142.36,"state":"active","id":null},{"event_id":"8620","title":"偏愛マップ交流会de面白いこと企てアイディアソン","url":"https://connpass.com/event/8620/","shortener_url":null,"started_at":"2014-09-23T10:00:00.000+09:00","ended_at":"2014-09-23T12:00:00.000+09:00","limit_number":12,"address":"神奈川県川崎市中原区新丸子町769(新丸子ビル3階)","place":"コワーキングスペースYou＋","lat":35.5798,"lon":139.661,"state":"active","id":null},{"event_id":"8469","title":"渋谷milkcocoaハッカソン","url":"https://connpass.com/event/8469/","shortener_url":null,"started_at":"2014-09-10T01:30:00.000+09:00","ended_at":"2014-09-10T08:00:00.000+09:00","limit_number":15,"address":"東京都渋谷区道玄坂2-10-12 (新大宗ビル9F)","place":"新大宗ビル9F","lat":35.6587,"lon":139.698,"state":"active","id":null},{"event_id":"8321","title":"VRを体験して考える、人にやさしい次のワークスタイル(アイデアソン) ","url":"https://connpass.com/event/8321/","shortener_url":null,"started_at":"2014-09-27T13:30:00.000+09:00","ended_at":"2014-09-27T17:30:00.000+09:00","limit_number":40,"address":"東京都中央区京橋3-7-1 ","place":"イトーキ東京イノベーションセンター「SYNQA」","lat":35.6757,"lon":139.77,"state":"active","id":null},{"event_id":"8151","title":"http2 ハッカソン #3","url":"https://http2study.connpass.com/event/8151/","shortener_url":null,"started_at":"2014-09-06T12:00:00.000+09:00","ended_at":"2014-09-06T18:00:00.000+09:00","limit_number":60,"address":"東京都中央区日本橋2-7-1 東京日本橋タワー 27階","place":"サイボウズ","lat":35.6819,"lon":139.774,"state":"active","id":null},{"event_id":"55105","title":"【増員100名!!】【#TechBuzz】第25回Unity勉強会 ドラゴンファングの作り方　～インディ－ズタイトルを生み出す為に必要なもの～/Unity+RubyOnRailsでノンストップネットワークの構築 / Unity課金マルチプラットフォーム","url":"https://atnd.org/events/55105","shortener_url":null,"started_at":"2014-09-30T19:30:00.000+09:00","ended_at":"2014-09-30T22:00:00.000+09:00","limit_number":100,"address":"東京都新宿区新宿5丁目18番20号","place":"TechBuzzSpace（新宿オミビル4階）","lat":35.694,"lon":139.706,"state":"closed","id":null},{"event_id":"55817","title":"日本Androidの会香川支部 第14回定例会","url":"https://atnd.org/events/55817","shortener_url":null,"started_at":"2014-09-28T18:00:00.000+09:00","ended_at":"2014-09-28T18:30:00.000+09:00","limit_number":8,"address":"","place":"ハッカソン懇親会会場","lat":null,"lon":null,"state":"closed","id":null},{"event_id":"56789","title":"第163回オフライン開発ミーティング","url":"https://atnd.org/events/56789","shortener_url":null,"started_at":"2014-09-28T10:00:00.000+09:00","ended_at":"2014-09-28T12:00:00.000+09:00","limit_number":null,"address":"東京都品川区大崎1-11-1","place":"ゲートシティ大崎B1アトリウムフリー座席","lat":35.6194,"lon":139.731,"state":"closed","id":null},{"event_id":"56633","title":"TitaniumによるiPhone/iPad/Androidアプリの爆速開発 #1","url":"https://atnd.org/events/56633","shortener_url":null,"started_at":"2014-09-28T10:00:00.000+09:00","ended_at":"2014-09-28T17:00:00.000+09:00","limit_number":20,"address":"京都市上京区油小路中立売下ル甲斐守町97番地西陣IT路地","place":"西陣IT路地","lat":35.0116,"lon":135.768,"state":"closed","id":null},{"event_id":"54374","title":"エンタープライヤーのためのJavaScriptフレームワーク・ハッカソン","url":"https://atnd.org/events/54374","shortener_url":null,"started_at":"2014-09-28T10:00:00.000+09:00","ended_at":"2014-09-28T20:00:00.000+09:00","limit_number":40,"address":"東京都渋谷区東1-2-20 住友不動産渋谷ファーストタワー7F","place":"株式会社ミクシィ","lat":35.658,"lon":139.709,"state":"closed","id":null},{"event_id":"55847","title":"秋季青葉山発火ソン","url":"https://atnd.org/events/55847","shortener_url":null,"started_at":"2014-09-28T09:00:00.000+09:00","ended_at":"2014-09-28T18:30:00.000+09:00","limit_number":null,"address":"","place":"","lat":null,"lon":null,"state":"closed","id":null},{"event_id":"55701","title":"VRを体験して考える、人にやさしい次のワークスタイル(アイデアソン) ","url":"https://atnd.org/events/55701","shortener_url":null,"started_at":"2014-09-27T13:30:00.000+09:00","ended_at":"2014-09-27T17:30:00.000+09:00","limit_number":40,"address":"東京都中央区京橋3-7-1","place":"イトーキ東京イノベーションセンター「SYNQA」","lat":35.6757,"lon":139.77,"state":"closed","id":null},{"event_id":"56817","title":"【ハンズオン】TitaniumによるiPhone/iPad/Androidアプリの爆速開発 #1 (東京会場）","url":"https://atnd.org/events/56817","shortener_url":null,"started_at":"2014-09-27T10:00:00.000+09:00","ended_at":"2014-09-27T17:00:00.000+09:00","limit_number":15,"address":"埼玉県川口市飯塚1−3−26ジェム川口プライムアベニュー 202号室","place":"ジェム川口プライムアベニュー","lat":35.8001,"lon":139.715,"state":"closed","id":null},{"event_id":"56616","title":"日本Androidの会秋葉原支部ロボット部　第29回勉強会","url":"https://atnd.org/events/56616","shortener_url":null,"started_at":"2014-09-23T12:00:00.000+09:00","ended_at":"2014-09-23T18:00:00.000+09:00","limit_number":12,"address":"杉並区堀ノ内1-21-10","place":"ちっちゃいものハウス 2F（新村宅）","lat":35.6862,"lon":139.65,"state":"closed","id":null},{"event_id":"55111","title":"【満員御礼】【#TechBuzz】第1回 Unity超初心者ハンズオン勉強会 ～今から始めるひと向け～ 「簡単アクションゲームを作ろう 」","url":"https://atnd.org/events/55111","shortener_url":null,"started_at":"2014-09-22T19:30:00.000+09:00","ended_at":"2014-09-22T21:30:00.000+09:00","limit_number":20,"address":"東京都新宿区新宿5丁目18番20号","place":"TechBuzzSpace（新宿オミビル4階）","lat":35.694,"lon":139.706,"state":"closed","id":null},{"event_id":"56582","title":"第162回オフライン開発ミーティング","url":"https://atnd.org/events/56582","shortener_url":null,"started_at":"2014-09-21T10:00:00.000+09:00","ended_at":"2014-09-21T12:00:00.000+09:00","limit_number":null,"address":"東京都品川区大崎1-11-1","place":"ゲートシティ大崎B1アトリウムフリー座席","lat":35.6194,"lon":139.731,"state":"closed","id":null},{"event_id":"56557","title":"オレンジソン","url":"https://atnd.org/events/56557","shortener_url":null,"started_at":"2014-09-20T15:00:00.000+09:00","ended_at":"2014-10-04T20:00:00.000+09:00","limit_number":10,"address":"沖縄県那覇市おもろまち3-5-3","place":"下地ミキオ後援会事務所","lat":26.2292,"lon":127.694,"state":"closed","id":null},{"event_id":"56261","title":"Firefox OS アイディアソン","url":"https://atnd.org/events/56261","shortener_url":null,"started_at":"2014-09-20T13:00:00.000+09:00","ended_at":"2014-09-20T19:00:00.000+09:00","limit_number":55,"address":"東京都渋谷区渋谷2-21-1","place":"渋谷ヒカリエ  34階 セミナールーム","lat":35.659,"lon":139.704,"state":"closed","id":null},{"event_id":"55430","title":"ハツカソン(2014年9月20日) - 毎月20日は #ハツカソン","url":"https://atnd.org/events/55430","shortener_url":null,"started_at":"2014-09-20T00:00:00.000+09:00","ended_at":"2014-09-20T23:59:00.000+09:00","limit_number":null,"address":"","place":"各自で","lat":null,"lon":null,"state":"closed","id":null},{"event_id":"54999","title":"【#TechBuzz】大好評！第24回Shinjuku.cocos2d-x 〜少人数ハンズオン勉強会 〜 シューティングゲームを作ろう！","url":"https://atnd.org/events/54999","shortener_url":null,"started_at":"2014-09-18T19:30:00.000+09:00","ended_at":"2014-09-18T22:00:00.000+09:00","limit_number":20,"address":"東京都新宿区新宿5丁目18番20号","place":"TechBuzzSpace（新宿オミビル4階）","lat":35.694,"lon":139.706,"state":"closed","id":null},{"event_id":"55840","title":"【さらに増枠⇒70名】【AID勉強会】フェイルコン！アプリ失敗談大集合！","url":"https://atnd.org/events/55840","shortener_url":null,"started_at":"2014-09-17T19:30:00.000+09:00","ended_at":"2014-09-17T21:30:00.000+09:00","limit_number":70,"address":"東京都新宿区新宿5-18-20","place":"TechBuzzSpace（新宿オミビル4階）","lat":35.694,"lon":139.706,"state":"closed","id":null},{"event_id":"56398","title":"第161回オフライン開発ミーティング","url":"https://atnd.org/events/56398","shortener_url":null,"started_at":"2014-09-14T10:00:00.000+09:00","ended_at":"2014-09-14T12:00:00.000+09:00","limit_number":null,"address":"東京都品川区大崎1-11-1","place":"ゲートシティ大崎B1アトリウムフリー座席","lat":35.6194,"lon":139.731,"state":"closed","id":null},{"event_id":"54398","title":"【#TechBuzz】アキバJam#01 〜 現役高校生と秋葉原でGameJam・声優\u0026絵師志望の生徒たちと 〜 Unity荒川さん・cocos2d-xユーザ会代表清水さん参戦！","url":"https://atnd.org/events/54398","shortener_url":null,"started_at":"2014-09-13T12:00:00.000+09:00","ended_at":"2014-09-14T17:00:00.000+09:00","limit_number":null,"address":"東京都千代田区外神田6-13-11","place":"クラーク記念国際高等学校 秋葉原クラークスタジオ","lat":35.7031,"lon":139.771,"state":"closed","id":null},{"event_id":"53536","title":"【最後の増枠！！160名！！】【ヒカ☆ラボ】【株式会社LIG・ 株式会社リッチメディア 登壇決定！】悩まないコーディングをしよう！ OOCSS,SMACSSを用いた、読みやすくてメンテナブルなCSS設計（Sass対応）","url":"https://atnd.org/events/53536","shortener_url":null,"started_at":"2014-09-09T19:30:00.000+09:00","ended_at":"2014-09-09T21:30:00.000+09:00","limit_number":160,"address":"東京都渋谷区渋谷2-21-1","place":"レバレジーズ本社 ( 渋谷ヒカリエ17F )","lat":35.659,"lon":139.703,"state":"closed","id":null},{"event_id":"56051","title":"IoTapp（あいおーてぃーあっぷ）勉強会3","url":"https://atnd.org/events/56051","shortener_url":null,"started_at":"2014-09-07T13:00:00.000+09:00","ended_at":"2014-09-07T16:30:00.000+09:00","limit_number":20,"address":"東京都千代田区外神田3-10-12 日加石油ビル2F","place":"RMバーガー","lat":35.7008,"lon":139.771,"state":"closed","id":null},{"event_id":"55963","title":"第160回オフライン開発ミーティング","url":"https://atnd.org/events/55963","shortener_url":null,"started_at":"2014-09-07T10:00:00.000+09:00","ended_at":"2014-09-07T12:00:00.000+09:00","limit_number":null,"address":"東京都品川区大崎1-11-1","place":"ゲートシティ大崎B1アトリウムフリー座席","lat":35.6194,"lon":139.731,"state":"closed","id":null},{"event_id":"54615","title":"カリスマ講師養成講座・入門セミナー","url":"https://atnd.org/events/54615","shortener_url":null,"started_at":"2014-09-06T13:00:00.000+09:00","ended_at":"2014-09-09T08:59:59.000+09:00","limit_number":10,"address":"川口市西川口1-33-9","place":"スタジオモンキーダンス","lat":35.8139,"lon":139.701,"state":"closed","id":null},{"event_id":"55387","title":"休日はさぁ〜、ゆる〜くプログラミングしようぜぃ","url":"https://atnd.org/events/55387","shortener_url":null,"started_at":"2014-09-06T11:00:00.000+09:00","ended_at":"2014-09-06T18:00:00.000+09:00","limit_number":10,"address":"東京都新宿区百人町1-17-6 成田ビル 301","place":"株式会社ゼノフィ 本社","lat":35.7015,"lon":139.697,"state":"closed","id":null},{"event_id":"55748","title":"【学生対象】初めてのフレームワーク(FuelPHP)入門","url":"https://atnd.org/events/55748","shortener_url":null,"started_at":"2014-09-03T18:00:00.000+09:00","ended_at":"2014-09-03T20:00:00.000+09:00","limit_number":10,"address":"東京都渋谷区南平台町15-13帝都渋谷ビル8F JR山手線 徒歩8分","place":"株式会社ギブリー セミナールーム","lat":35.6546,"lon":139.696,"state":"closed","id":null},{"event_id":"53752","title":"TSG合宿","url":"https://atnd.org/events/53752","shortener_url":null,"started_at":"2014-09-27T08:00:00.000+09:00","ended_at":"2014-09-29T20:30:00.000+09:00","limit_number":null,"address":"","place":"(宿泊地)那須がまま","lat":null,"lon":null,"state":"closed","id":null},{"event_id":"55914","title":" festivo はじめてのProgramming Camp@熊本","url":"https://atnd.org/events/55914","shortener_url":null,"started_at":"2014-09-20T10:00:00.000+09:00","ended_at":"2014-09-21T20:00:00.000+09:00","limit_number":20,"address":"〒862-0908 熊本県熊本市東区新生2丁目2-10 203","place":"起業家交流サロン＆貸しスペース　新生ラボ＠熊本","lat":32.7785,"lon":130.758,"state":"closed","id":null},{"event_id":"53883","title":"HOS GAMES 2014 Summer Drew League in JAPAN","url":"https://atnd.org/events/53883","shortener_url":null,"started_at":"2014-09-06T13:00:00.000+09:00","ended_at":"2014-09-06T13:50:00.000+09:00","limit_number":null,"address":"大阪市東大阪市中小阪4-7-60","place":"東大阪アリーナ","lat":34.658,"lon":135.593,"state":"closed","id":null},{"event_id":"54723","title":"会津Swift合宿","url":"https://atnd.org/events/54723","shortener_url":null,"started_at":"2014-09-04T13:00:00.000+09:00","ended_at":"2014-09-13T18:00:00.000+09:00","limit_number":6,"address":"福島県会津若松市中町 1-40 イワタビル5F","place":"the Designium","lat":37.4967,"lon":139.928,"state":"closed","id":null},{"event_id":"54722","title":"会津Swift合宿","url":"https://atnd.org/events/54722","shortener_url":null,"started_at":"2014-09-04T13:00:00.000+09:00","ended_at":"2014-09-13T18:00:00.000+09:00","limit_number":6,"address":"福島県会津若松市中町 1-40 イワタビル5F","place":"the Designium","lat":37.4967,"lon":139.928,"state":"closed","id":null},{"event_id":"8431","title":" festivo はじめてのProgramming Camp@熊本","url":"https://connpass.com/event/8431/","shortener_url":null,"started_at":"2014-09-20T10:00:00.000+09:00","ended_at":"2014-09-21T20:00:00.000+09:00","limit_number":20,"address":"〒862-0908　熊本県熊本市東区新生2丁目2-10 203","place":"起業家交流サロン＆貸しスペース　新生ラボ＠熊本","lat":32.7785,"lon":130.758,"state":"active","id":null}]