[{"event_id":"6393","title":"第44回 デザイナー向けプログラム部 #p4d at イグニス","url":"https://p4d.connpass.com/event/6393/","shortener_url":null,"started_at":"2014-05-22T04:30:00.000+09:00","ended_at":"2014-05-22T06:30:00.000+09:00","limit_number":10,"address":"東京都渋谷区恵比寿1-19-19(恵比寿ビジネスタワー12F)","place":"株式会社イグニス 様","lat":35.6476,"lon":139.713,"state":"active","id":null},{"event_id":"6324","title":"http2 ハッカソン #2","url":"https://http2study.connpass.com/event/6324/","shortener_url":null,"started_at":"2014-05-24T12:00:00.000+09:00","ended_at":"2014-05-24T18:00:00.000+09:00","limit_number":60,"address":"〒101-0051 東京都千代田区神田神保町1-105 神保町三井ビルディング","place":"株式会社インターネットイニシアティブ 17階会議室","lat":35.6942,"lon":139.76,"state":"active","id":null},{"event_id":"6189","title":"Gentoo勉強会 2014-05-11","url":"https://connpass.com/event/6189/","shortener_url":null,"started_at":"2014-05-12T00:00:00.000+09:00","ended_at":"2014-05-12T04:00:00.000+09:00","limit_number":20,"address":"","place":"フォレスト","lat":35.6479,"lon":139.745,"state":"active","id":null},{"event_id":"6193","title":"第43回 デザイナー向けプログラム部 #p4d at 万葉","url":"https://p4d.connpass.com/event/6193/","shortener_url":null,"started_at":"2014-05-09T04:30:00.000+09:00","ended_at":"2014-05-09T06:30:00.000+09:00","limit_number":8,"address":"東京都千代田区神田錦町3丁目16-11 (エルヴァージュ神田錦町8F)","place":"株式会社万葉 様","lat":35.6936,"lon":139.761,"state":"active","id":null},{"event_id":"6123","title":"ななやんと温泉いちゃラブハッカソン","url":"https://connpass.com/event/6123/","shortener_url":null,"started_at":"2014-05-04T17:30:00.000+09:00","ended_at":"2014-05-05T05:00:00.000+09:00","limit_number":4,"address":"135-0064　東京都江東区青海2丁目6番3号","place":"東京大江戸温泉","lat":35.616,"lon":139.777,"state":"active","id":null},{"event_id":"6181","title":"Gentoo勉強会 2014-05-10","url":"https://connpass.com/event/6181/","shortener_url":null,"started_at":"2014-05-11T00:00:00.000+09:00","ended_at":"2014-05-11T04:00:00.000+09:00","limit_number":20,"address":"","place":"フォレスト","lat":35.6479,"lon":139.745,"state":"active","id":null},{"event_id":"6036","title":"日本Androidの会浜松支部　第37回ミーティング #jaghama","url":"https://connpass.com/event/6036/","shortener_url":null,"started_at":"2014-05-10T22:00:00.000+09:00","ended_at":"2014-05-11T02:00:00.000+09:00","limit_number":10,"address":"静岡県浜松市中区海老塚2-18-28-1E","place":"ジョーカーピース株式会社","lat":34.6972,"lon":137.731,"state":"active","id":null},{"event_id":"5902","title":"pylons/pyramidはっかそん2014.5","url":"https://pylons.connpass.com/event/5902/","shortener_url":null,"started_at":"2014-05-10T21:00:00.000+09:00","ended_at":"2014-05-11T04:00:00.000+09:00","limit_number":10,"address":"東京都渋谷区千駄ヶ谷5-32-7 (NOF南新宿ビル4F)","place":"Be Proud 会議室","lat":35.6864,"lon":139.704,"state":"active","id":null},{"event_id":"5766","title":"【ヒカ☆ラボ】【Web系希望エンジニア必見】SIerからWeb系に転向した登壇者が語るキャリア論","url":"https://connpass.com/event/5766/","shortener_url":null,"started_at":"2014-05-01T05:00:00.000+09:00","ended_at":"2014-05-01T06:30:00.000+09:00","limit_number":null,"address":"東京都渋谷区渋谷2-21-1","place":"レバレジーズ本社 ( 渋谷ヒカリエ17F )","lat":35.659,"lon":139.704,"state":"active","id":null},{"event_id":"50483","title":"Pure Dataパッチングサークル東京　Vol.5","url":"https://atnd.org/events/50483","shortener_url":null,"started_at":"2014-05-31T13:00:00.000+09:00","ended_at":"2014-05-31T18:00:00.000+09:00","limit_number":null,"address":"東京都新宿区新宿5-18-20 新宿オミビル4階","place":"HatchUp","lat":35.6939,"lon":139.706,"state":"closed","id":null},{"event_id":"49528","title":"◎資料URL有◎　　　　　　　　　　　　　　　　　　　　　　　【満員御礼120名!】【TechBuzz】第21回Unity勉強会 Unity に於ける Localization / UnityでReflection入門 / 懇親会","url":"https://atnd.org/events/49528","shortener_url":null,"started_at":"2014-05-30T19:30:00.000+09:00","ended_at":"2014-05-30T22:00:00.000+09:00","limit_number":120,"address":"東京都新宿区新宿5丁目18番20号","place":"TechBuzzSpace（新宿オミビル4階）","lat":35.694,"lon":139.706,"state":"closed","id":null},{"event_id":"51184","title":"日本Androidの会秋葉原支部ロボット部　第26回勉強会","url":"https://atnd.org/events/51184","shortener_url":null,"started_at":"2014-05-25T12:00:00.000+09:00","ended_at":"2014-05-25T17:30:00.000+09:00","limit_number":10,"address":"東京都足立区千住旭町5","place":"東京電機大学東京千住キャンパス　東京電機大学 航空技術研究部　（創業支援施設「かけはし」内　2階の最奥左側225室）","lat":35.7481,"lon":139.806,"state":"closed","id":null},{"event_id":"51228","title":"第147回オフライン開発ミーティング","url":"https://atnd.org/events/51228","shortener_url":null,"started_at":"2014-05-25T10:00:00.000+09:00","ended_at":"2014-05-25T12:00:00.000+09:00","limit_number":null,"address":"東京都品川区大崎1-11-1","place":"ゲートシティ大崎B1アトリウムフリー座席","lat":35.6194,"lon":139.731,"state":"closed","id":null},{"event_id":"49384","title":"◎資料URL有◎　　　　　　　　　　　　　　　　　　　　　　　【満員御礼100名‼︎】【TechBuzz】第6回 スマホアプリ開発者のためのアプリマーケティング勉強会 フルセイル / Tapjoy Japan / LIVEAID マーケティングトレンド・ノウハウ 他","url":"https://atnd.org/events/49384","shortener_url":null,"started_at":"2014-05-21T19:30:00.000+09:00","ended_at":"2014-05-21T21:30:00.000+09:00","limit_number":100,"address":"東京都新宿区新宿5丁目18番20号","place":"TechBuzzSpace（新宿オミビル4階）","lat":35.694,"lon":139.706,"state":"closed","id":null},{"event_id":"50981","title":"第146回オフライン開発ミーティング","url":"https://atnd.org/events/50981","shortener_url":null,"started_at":"2014-05-18T10:00:00.000+09:00","ended_at":"2014-05-18T12:00:00.000+09:00","limit_number":null,"address":"東京都品川区大崎1-11-1","place":"ゲートシティ大崎B1アトリウムフリー座席","lat":35.6194,"lon":139.731,"state":"closed","id":null},{"event_id":"50659","title":"Hachioji.pm #40","url":"https://atnd.org/events/50659","shortener_url":null,"started_at":"2014-05-17T18:00:00.000+09:00","ended_at":"2014-05-20T08:59:59.000+09:00","limit_number":16,"address":"東京都八王子市東町1-10 グランデハイツB1","place":"飛騨の里","lat":35.6579,"lon":139.34,"state":"closed","id":null},{"event_id":"50957","title":"Hachioji.pm #40 ～ ハッカソン編","url":"https://atnd.org/events/50957","shortener_url":null,"started_at":"2014-05-17T13:00:00.000+09:00","ended_at":"2014-05-17T18:00:00.000+09:00","limit_number":6,"address":"東京都八王子市明神町3-14-8","place":"喫茶パティオ","lat":35.6561,"lon":139.342,"state":"closed","id":null},{"event_id":"50901","title":"code for 野田","url":"https://atnd.org/events/50901","shortener_url":null,"started_at":"2014-05-17T13:00:00.000+09:00","ended_at":"2014-05-17T18:00:00.000+09:00","limit_number":30,"address":"〒278-0046 野田市谷津384番地","place":"野田市北部公民館","lat":35.9686,"lon":139.853,"state":"closed","id":null},{"event_id":"50653","title":"準天頂衛星 アイデアソン","url":"https://atnd.org/events/50653","shortener_url":null,"started_at":"2014-05-17T13:00:00.000+09:00","ended_at":"2014-05-17T17:00:00.000+09:00","limit_number":10,"address":"神奈川県横浜市西区みなとみらい3-6-1","place":"アットウェア社","lat":35.4576,"lon":139.633,"state":"closed","id":null},{"event_id":"50108","title":"第1回　ボードゲームジャムTokyo","url":"https://atnd.org/events/50108","shortener_url":null,"started_at":"2014-05-17T10:30:00.000+09:00","ended_at":"2014-05-17T18:00:00.000+09:00","limit_number":18,"address":"文京区本郷3-10-18","place":"文京区立湯島第二会館　会議室","lat":35.7039,"lon":139.764,"state":"closed","id":null},{"event_id":"49068","title":"◎資料URL有◎　　　　　　　　　　　　　　　　　　　　　　　　【満員御礼】【TechBuzz】第4回cocos2d-x勉強会　大注目！タワーオブスペルズ事例発表 / Kayac Lobi新機能 / Cocoa部 京都 / Cocos2d-X x iBeacon","url":"https://atnd.org/events/49068","shortener_url":null,"started_at":"2014-05-16T19:30:00.000+09:00","ended_at":"2014-05-16T22:00:00.000+09:00","limit_number":110,"address":"東京都新宿区新宿5丁目18番20号","place":"TechBuzzSpace（新宿オミビル4階）","lat":35.694,"lon":139.706,"state":"closed","id":null},{"event_id":"50157","title":"※満員御礼※【AID勉強会】レビューサイトの本音に迫る!! 記事に取り上げてもらう為にすべきこと","url":"https://atnd.org/events/50157","shortener_url":null,"started_at":"2014-05-14T19:30:00.000+09:00","ended_at":"2014-05-14T21:30:00.000+09:00","limit_number":90,"address":"東京都新宿区新宿5-18-20","place":"TechBuzzSpace（新宿オミビル4階）","lat":35.694,"lon":139.706,"state":"closed","id":null},{"event_id":"49644","title":"mastLT #5","url":"https://atnd.org/events/49644","shortener_url":null,"started_at":"2014-05-14T18:00:00.000+09:00","ended_at":"2014-05-14T20:30:00.000+09:00","limit_number":50,"address":"茨城県つくば市Kasuga, 1丁目2 情報メディアユニオン","place":"筑波大学春日キャンパス内 ユニオンホール","lat":36.0855,"lon":140.106,"state":"closed","id":null},{"event_id":"50773","title":"第145回オフライン開発ミーティング","url":"https://atnd.org/events/50773","shortener_url":null,"started_at":"2014-05-11T10:00:00.000+09:00","ended_at":"2014-05-11T12:00:00.000+09:00","limit_number":null,"address":"東京都品川区大崎1-11-1","place":"ゲートシティ大崎B1アトリウムフリー座席","lat":35.6194,"lon":139.731,"state":"closed","id":null},{"event_id":"50183","title":"PHPブートキャンプ！ in 表参道","url":"https://atnd.org/events/50183","shortener_url":null,"started_at":"2014-05-10T15:00:00.000+09:00","ended_at":"2014-05-11T09:00:00.000+09:00","limit_number":20,"address":"東京都港区南青山5-12-5 第一和田ビル8F","place":"Dol's Dessin","lat":35.6614,"lon":139.713,"state":"closed","id":null},{"event_id":"48673","title":"2014年春季青葉山発火ソン","url":"https://atnd.org/events/48673","shortener_url":null,"started_at":"2014-05-10T09:00:00.000+09:00","ended_at":"2014-05-13T08:59:59.000+09:00","limit_number":null,"address":"","place":"","lat":null,"lon":null,"state":"closed","id":null},{"event_id":"49834","title":"Ubuntu 14.04 LTSリリースパーティ＋オフラインミーティング14.05","url":"https://atnd.org/events/49834","shortener_url":null,"started_at":"2014-05-08T18:00:00.000+09:00","ended_at":"2014-05-10T18:00:00.000+09:00","limit_number":116,"address":"東京都港区六本木6-10-1 六本木ヒルズ森タワー","place":"グリー株式会社","lat":35.6606,"lon":139.729,"state":"closed","id":null},{"event_id":"51014","title":"JISTAQ × さくら合同研究会","url":"https://atnd.org/events/51014","shortener_url":null,"started_at":"2014-05-31T13:20:00.000+09:00","ended_at":"2014-05-31T16:30:00.000+09:00","limit_number":15,"address":"熊本市中央区二の丸1番1-3号","place":"桜の馬場 城彩苑 多目的交流室","lat":32.8033,"lon":130.704,"state":"closed","id":null},{"event_id":"48704","title":"ヘビーメイン #41","url":"https://atnd.org/events/48704","shortener_url":null,"started_at":"2014-05-18T13:00:00.000+09:00","ended_at":"2014-05-18T21:45:00.000+09:00","limit_number":10,"address":"東京都新宿区高田馬場2丁目18番1号","place":"     東京都 戸塚地域センター 地下 集会室2","lat":35.7144,"lon":139.705,"state":"closed","id":null},{"event_id":"50193","title":"国際ボランティアフェスタ in 大阪","url":"https://atnd.org/events/50193","shortener_url":null,"started_at":"2014-05-17T14:00:00.000+09:00","ended_at":"2014-05-17T16:30:00.000+09:00","limit_number":100,"address":"〒530-0001 大阪市北区梅田1-2-2-500","place":"大阪市立総合生涯学習センター ホール","lat":34.6989,"lon":135.498,"state":"closed","id":null},{"event_id":"49158","title":"第2回：作家なりきり合宿","url":"https://atnd.org/events/49158","shortener_url":null,"started_at":"2014-05-16T12:00:00.000+09:00","ended_at":"2014-05-17T12:00:00.000+09:00","limit_number":8,"address":"静岡県伊豆市湯ヶ島1887-1","place":"伊豆天城湯ヶ島温泉　落合楼村上","lat":34.8895,"lon":138.927,"state":"closed","id":null},{"event_id":"48416","title":"a-blog cms Training Camp 2014 Spring","url":"https://atnd.org/events/48416","shortener_url":null,"started_at":"2014-05-09T13:00:00.000+09:00","ended_at":"2014-05-10T15:00:00.000+09:00","limit_number":50,"address":"名古屋市中村区名駅3-18-5","place":"ベースキャンプ名古屋","lat":35.1728,"lon":136.887,"state":"closed","id":null},{"event_id":"6126","title":"第21回『PHPで何か作ろうかい(会) 』@恵比寿","url":"https://connpass.com/event/6126/","shortener_url":null,"started_at":"2014-05-24T11:00:00.000+09:00","ended_at":"2014-05-24T19:00:00.000+09:00","limit_number":30,"address":"東京都渋谷区恵比寿南1-9-4 長谷川力ビル 3階","place":"株式会社 Engine Yardさん","lat":35.6457,"lon":139.709,"state":"active","id":null},{"event_id":"5414","title":"2014年春 第2回Dev-Camp in 八ヶ岳","url":"https://connpass.com/event/5414/","shortener_url":null,"started_at":"2014-05-03T10:00:00.000+09:00","ended_at":"2014-05-06T15:00:00.000+09:00","limit_number":10,"address":"長野県南佐久郡南牧村海ノ口２２４４","place":"山小屋","lat":35.9894,"lon":138.438,"state":"active","id":null}]