[{"event_id":"7409","title":"水産 アイデアソン Vol.0","url":"https://suisan.connpass.com/event/7409/","shortener_url":null,"started_at":"2014-08-01T19:00:00.000+09:00","ended_at":"2014-08-01T22:30:00.000+09:00","limit_number":30,"address":"東京都中央区築地6-26-3 DO築地ビル9階","place":"株式会社フーディソン","lat":35.665,"lon":139.772,"state":"active","id":null},{"event_id":"7292","title":"日本初！？水産 ハッカソン Vol.1","url":"https://suisan.connpass.com/event/7292/","shortener_url":null,"started_at":"2014-08-02T09:00:00.000+09:00","ended_at":"2014-08-02T21:00:00.000+09:00","limit_number":33,"address":"東京都中央区築地6-26-3 DO築地ビル9階","place":"株式会社フーディソン","lat":35.665,"lon":139.772,"state":"active","id":null},{"event_id":"7354","title":"第6回 LOCAL学生部総大会","url":"https://connpass.com/event/7354/","shortener_url":null,"started_at":"2014-08-09T21:00:00.000+09:00","ended_at":"2014-08-11T04:00:00.000+09:00","limit_number":null,"address":"札幌市中央区北1条東4丁目1番地1 サッポロファクトリー1条館　3階","place":"株式会社インフィニットループ 会議室","lat":43.0656,"lon":141.374,"state":"active","id":null},{"event_id":"7181","title":"プリキュアハッカソン 2","url":"https://cure-hack.connpass.com/event/7181/","shortener_url":null,"started_at":"2014-08-23T19:00:00.000+09:00","ended_at":"2014-08-24T06:00:00.000+09:00","limit_number":30,"address":"東京都目黒区下目黒1丁目8-1","place":"株式会社ドリコム カフェスペース（アルコタワー17F）","lat":35.6314,"lon":139.714,"state":"active","id":null},{"event_id":"8081","title":"Entertainmentハッカソン（8/17）","url":"https://connpass.com/event/8081/","shortener_url":null,"started_at":"2014-08-17T20:00:00.000+09:00","ended_at":"2014-08-18T03:00:00.000+09:00","limit_number":20,"address":"東京都中野区中央4-5-3","place":"構造計画研究所","lat":35.6978,"lon":139.668,"state":"active","id":null},{"event_id":"7821","title":"第48回 デザイナー向けプログラム部 #p4d at 万葉","url":"https://p4d.connpass.com/event/7821/","shortener_url":null,"started_at":"2014-08-08T04:30:00.000+09:00","ended_at":"2014-08-08T06:30:00.000+09:00","limit_number":8,"address":"東京都千代田区神田錦町3丁目16-11 (エルヴァージュ神田錦町8F)","place":"株式会社万葉 様","lat":35.6936,"lon":139.761,"state":"active","id":null},{"event_id":"7955","title":"IoT Kyoto 第４回 モノとインターネットがつなぐ未来","url":"https://connpass.com/event/7955/","shortener_url":null,"started_at":"2014-08-29T19:00:00.000+09:00","ended_at":"2014-08-29T21:00:00.000+09:00","limit_number":20,"address":"京都府京都市下京区岩戸山町440 江村ビル３F","place":"コワーキングスペース小脇","lat":35.0002,"lon":135.757,"state":"active","id":null},{"event_id":"7652","title":"Gentoo勉強会 2014-08-02","url":"https://gentoo.connpass.com/event/7652/","shortener_url":null,"started_at":"2014-08-03T00:00:00.000+09:00","ended_at":"2014-08-03T04:00:00.000+09:00","limit_number":20,"address":"","place":"フォレスト","lat":35.6479,"lon":139.745,"state":"active","id":null},{"event_id":"55634","title":"第159回オフライン開発ミーティング","url":"https://atnd.org/events/55634","shortener_url":null,"started_at":"2014-08-31T10:00:00.000+09:00","ended_at":"2014-08-31T12:00:00.000+09:00","limit_number":null,"address":"東京都品川区大崎1-11-1","place":"ゲートシティ大崎B1アトリウムフリー座席","lat":35.6194,"lon":139.731,"state":"closed","id":null},{"event_id":"54820","title":"【名古屋】第２９回iPhoneアプリ開発者勉強会","url":"https://atnd.org/events/54820","shortener_url":null,"started_at":"2014-08-30T13:00:00.000+09:00","ended_at":"2014-08-30T17:00:00.000+09:00","limit_number":35,"address":"愛知県名古屋市中村区名駅3丁目18−5 モンマートビル5F","place":"ベースキャンプ名古屋","lat":35.1728,"lon":136.887,"state":"closed","id":null},{"event_id":"54763","title":"【増員20名！】第１回名古屋Swiftハッカソン（Swift初心者向けワークショップもあり）","url":"https://atnd.org/events/54763","shortener_url":null,"started_at":"2014-08-30T10:00:00.000+09:00","ended_at":"2014-08-30T17:00:00.000+09:00","limit_number":20,"address":"愛知県名古屋市中区錦1丁目17-13 名興ビルディング 2F","place":"MYCAFE（マイカフェ）錦通店","lat":35.1706,"lon":136.899,"state":"closed","id":null},{"event_id":"53795","title":"【満員御礼】【#TechBuzz】第24回Unity勉強会 〜iOS/Androidアプリ「こんな息子に育てた覚えはない」について  / Unity meets SpriteStudio / UnityのPostEffectで遊ぶ 〜","url":"https://atnd.org/events/53795","shortener_url":null,"started_at":"2014-08-29T19:30:00.000+09:00","ended_at":"2014-08-29T22:00:00.000+09:00","limit_number":150,"address":"東京都新宿区新宿5丁目18番20号","place":"TechBuzzSpace（新宿オミビル4階）","lat":35.694,"lon":139.706,"state":"closed","id":null},{"event_id":"54788","title":"IoT Kyoto 第四回","url":"https://atnd.org/events/54788","shortener_url":null,"started_at":"2014-08-29T19:00:00.000+09:00","ended_at":"2014-08-29T21:00:00.000+09:00","limit_number":20,"address":"京都府京都市下京区岩戸山町440 3F","place":"コワーキングスペース小脇","lat":35.0003,"lon":135.757,"state":"closed","id":null},{"event_id":"54787","title":"IoT Kyoto 第四回","url":"https://atnd.org/events/54787","shortener_url":null,"started_at":"2014-08-29T19:00:00.000+09:00","ended_at":"2014-08-29T21:00:00.000+09:00","limit_number":20,"address":"京都府京都市下京区岩戸山町440 3F","place":"コワーキングスペース小脇","lat":35.0003,"lon":135.757,"state":"closed","id":null},{"event_id":"54786","title":"IoT Kyoto 第四回","url":"https://atnd.org/events/54786","shortener_url":null,"started_at":"2014-08-29T19:00:00.000+09:00","ended_at":"2014-08-29T21:00:00.000+09:00","limit_number":20,"address":"京都府京都市下京区岩戸山町440 3F","place":"コワーキングスペース小脇","lat":35.0003,"lon":135.757,"state":"closed","id":null},{"event_id":"53793","title":"【増員！！】【#TechBuzz】第7回cocos2d-x勉強会 cocos2d-xでParseを使用する / Cocos2d-xで脱出ゲームを作ろう！ / Live2Dとcocos2d-xを組み合わせたアプリ開発について Part2 / cocos2d-xの実装でよく使う汎用的なクラス、マクロを作る / ほか ","url":"https://atnd.org/events/53793","shortener_url":null,"started_at":"2014-08-28T19:30:00.000+09:00","ended_at":"2014-08-28T22:00:00.000+09:00","limit_number":50,"address":"東京都新宿区新宿5丁目18番20号","place":"TechBuzzSpace（新宿オミビル4階）","lat":35.694,"lon":139.706,"state":"closed","id":null},{"event_id":"54573","title":"明治大学　阿原研究室　第1回アイディアソン","url":"https://atnd.org/events/54573","shortener_url":null,"started_at":"2014-08-27T12:30:00.000+09:00","ended_at":"2014-08-27T17:30:00.000+09:00","limit_number":15,"address":"中野区中野4-21-1","place":"中野キャンパス１１階１１０９室（阿原研）","lat":35.7066,"lon":139.659,"state":"closed","id":null},{"event_id":"52124","title":"【#techbuzz】第1回cocos2d-JS もくもく勉強会","url":"https://atnd.org/events/52124","shortener_url":null,"started_at":"2014-08-26T19:30:00.000+09:00","ended_at":"2014-08-26T22:00:00.000+09:00","limit_number":10,"address":"東京都新宿区新宿5丁目18番20号","place":"TechBuzzSpace（新宿オミビル4階）","lat":35.694,"lon":139.706,"state":"closed","id":null},{"event_id":"55171","title":"【外部イベント】【#Techbuzz】【AID勉強会】＜その場でコラボ決定！全プレあり＞ 50アプリ出してわかった!人気キャラでアプリを作ってマネタイズする方法 byDLE(鷹の爪団・パンパカパンツ他) ※ブレストワークショップあり","url":"https://atnd.org/events/55171","shortener_url":null,"started_at":"2014-08-25T19:30:00.000+09:00","ended_at":"2014-08-25T21:30:00.000+09:00","limit_number":30,"address":"東京都新宿区新宿5丁目18番20号","place":"TechBuzzSpace（新宿オミビル4階）","lat":35.694,"lon":139.706,"state":"closed","id":null},{"event_id":"55009","title":"Web Music Developers JP Meetup #1","url":"https://atnd.org/events/55009","shortener_url":null,"started_at":"2014-08-25T19:30:00.000+09:00","ended_at":"2014-08-25T21:40:00.000+09:00","limit_number":55,"address":"東京都渋谷区道玄坂1-14-6 渋谷ヒューマックスビル3F","place":"21cafe","lat":35.6573,"lon":139.698,"state":"closed","id":null},{"event_id":"55360","title":" Wearable Devices Night in Sapporo powered by Xperia","url":"https://atnd.org/events/55360","shortener_url":null,"started_at":"2014-08-25T19:00:00.000+09:00","ended_at":"2014-08-25T21:00:00.000+09:00","limit_number":50,"address":"〒003-0005 北海道札幌市白石区東札幌5条1丁目1-1","place":"札幌市デジタル創造プラザ　インタークロスクリエイティブセンター","lat":43.0562,"lon":141.386,"state":"closed","id":null},{"event_id":"54776","title":"8月25日開催「インドビジネスの魅力と可能性！」","url":"https://atnd.org/events/54776","shortener_url":null,"started_at":"2014-08-25T15:00:00.000+09:00","ended_at":"2014-08-25T18:00:00.000+09:00","limit_number":20,"address":"東京都千代田区一ツ橋2-4-3 光文恒産ビル10F","place":"究和エンタープライズコンコード株式会社内 セミナールーム","lat":35.694,"lon":139.757,"state":"closed","id":null},{"event_id":"55383","title":"第158回オフライン開発ミーティング","url":"https://atnd.org/events/55383","shortener_url":null,"started_at":"2014-08-24T10:00:00.000+09:00","ended_at":"2014-08-24T12:00:00.000+09:00","limit_number":null,"address":"東京都品川区大崎1-11-1","place":"ゲートシティ大崎B1アトリウムフリー座席","lat":35.6194,"lon":139.731,"state":"closed","id":null},{"event_id":"55016","title":"第2回ふくしまの市","url":"https://atnd.org/events/55016","shortener_url":null,"started_at":"2014-08-24T10:00:00.000+09:00","ended_at":"2014-08-24T15:00:00.000+09:00","limit_number":null,"address":"福島市栄町5-1","place":"中合ツイン広場","lat":37.7535,"lon":140.462,"state":"closed","id":null},{"event_id":"52714","title":"私立・プログラミングキャンプ 2014 関西大会 - #upcamp #upcampKansai","url":"https://atnd.org/events/52714","shortener_url":null,"started_at":"2014-08-23T13:00:00.000+09:00","ended_at":"2014-08-23T18:30:00.000+09:00","limit_number":40,"address":"京都市中京区 高宮町206 御池ビル8F","place":"株式会社はてな 京都本社 セミナールーム","lat":35.0112,"lon":135.762,"state":"closed","id":null},{"event_id":"53165","title":"「3331 千代田芸術祭 2014」公募、開始。","url":"https://atnd.org/events/53165","shortener_url":null,"started_at":"2014-08-23T12:00:00.000+09:00","ended_at":"2014-09-07T19:00:00.000+09:00","limit_number":null,"address":"東京都千代田区外神田6-11-14","place":"3331 Arts Chiyoda","lat":35.7042,"lon":139.771,"state":"closed","id":null},{"event_id":"53791","title":"◯スライド資料URLあり◯【増員110名!!】【#techbuzz】第3回Swift勉強会 〜 Swiftで演算子を作って遊んでみよう /  Objective-C iOSプログラマのためのSwift導入法 / この3日で、Swift情報をまとめてみた！抑えておきたい5つのポイント 〜","url":"https://atnd.org/events/53791","shortener_url":null,"started_at":"2014-08-22T19:30:00.000+09:00","ended_at":"2014-08-22T22:00:00.000+09:00","limit_number":110,"address":"東京都新宿区新宿5丁目18番20号","place":"TechBuzzSpace（新宿オミビル4階）","lat":35.694,"lon":139.706,"state":"closed","id":null},{"event_id":"53786","title":"【#TechBuzz】第4回 ゲームアプリ【企画・プロモーション分析】勉強会  〜 お題：Unity3Dゲームタイトル分析〜","url":"https://atnd.org/events/53786","shortener_url":null,"started_at":"2014-08-20T19:30:00.000+09:00","ended_at":"2014-08-20T21:00:00.000+09:00","limit_number":20,"address":"東京都新宿区新宿5丁目18番20号","place":"TechBuzzSpace（新宿オミビル4階）","lat":35.694,"lon":139.706,"state":"closed","id":null},{"event_id":"54035","title":"ハツカソン(2014年8月20日) - 毎月20日は #ハツカソン","url":"https://atnd.org/events/54035","shortener_url":null,"started_at":"2014-08-20T00:00:00.000+09:00","ended_at":"2014-08-20T23:59:00.000+09:00","limit_number":null,"address":"","place":"各自で","lat":null,"lon":null,"state":"closed","id":null},{"event_id":"54208","title":"【増員60名!!】【#TechBuzz】第8回 スマホアプリ開発者のためのアプリマーケティング勉強会〜【無料＆低予算 厳選11アプローチ！】【アプリとWebのおいしい関係】【そのマーケティング効果あったの？ ～効果測定サービスの概要と仕組み～】","url":"https://atnd.org/events/54208","shortener_url":null,"started_at":"2014-08-19T19:30:00.000+09:00","ended_at":"2014-08-19T22:00:00.000+09:00","limit_number":60,"address":"東京都新宿区新宿5丁目18番20号","place":"TechBuzzSpace（新宿オミビル4階）","lat":35.694,"lon":139.706,"state":"closed","id":null},{"event_id":"52713","title":"【受付終了】私立・プログラミングキャンプ 2014 東京大会 - #upcamp","url":"https://atnd.org/events/52713","shortener_url":null,"started_at":"2014-08-17T10:00:00.000+09:00","ended_at":"2014-08-17T21:00:00.000+09:00","limit_number":70,"address":"東京都港区愛宕2丁目5番1号 愛宕グリーンヒルズMORIタワー 19階","place":"株式会社オプティム","lat":35.6621,"lon":139.749,"state":"closed","id":null},{"event_id":"54970","title":"【iro-hackathon〜いろハッカソン〜】","url":"https://atnd.org/events/54970","shortener_url":null,"started_at":"2014-08-16T17:00:00.000+09:00","ended_at":"2014-08-16T19:00:00.000+09:00","limit_number":20,"address":"〒160-0022 東京都新宿区新宿3−8−9 新宿Qビル5F","place":"新宿8bit cafe","lat":35.6907,"lon":139.707,"state":"closed","id":null},{"event_id":"54156","title":"休日はさぁ〜、ゆる〜くプログラミングしようぜぃ","url":"https://atnd.org/events/54156","shortener_url":null,"started_at":"2014-08-16T11:00:00.000+09:00","ended_at":"2014-08-16T18:00:00.000+09:00","limit_number":12,"address":"東京都新宿区百人町1-17-6 成田ビル 301","place":"株式会社ゼノフィ 本社","lat":35.7015,"lon":139.697,"state":"closed","id":null},{"event_id":"53783","title":"◎イベントレポートあり◎　　　　　　　　　　　　　　　　　　【増員70名!】【#TechBuzz】第3回ノンゲーム系スマホアプリ勉強会 〜 NewsPicksのグロースハック術 ベスト3 /ツール系アプリの企画思考法 / アプリのアイデアの作り方と選び方","url":"https://atnd.org/events/53783","shortener_url":null,"started_at":"2014-08-15T19:30:00.000+09:00","ended_at":"2014-08-15T22:00:00.000+09:00","limit_number":80,"address":"東京都新宿区新宿5丁目18番20号","place":"TechBuzzSpace（新宿オミビル4階）","lat":35.694,"lon":139.706,"state":"closed","id":null},{"event_id":"53779","title":"◎◎イベントレポート有！！◎◎　　　　　　　　　　　　【#TechBuzz】大好評！第23回Shinjuku.cocos2d-x 〜少人数ハンズオン勉強会 〜Eclipseを利用したAndroid開発環境の構築（Win, Mac両対応）〜","url":"https://atnd.org/events/53779","shortener_url":null,"started_at":"2014-08-14T19:30:00.000+09:00","ended_at":"2014-08-14T22:00:00.000+09:00","limit_number":20,"address":"東京都新宿区新宿5丁目18番20号","place":"TechBuzzSpace（新宿オミビル4階）","lat":35.694,"lon":139.706,"state":"closed","id":null},{"event_id":"54073","title":"\"食\"からココロとカラダをキレイにしよう in 鎌倉","url":"https://atnd.org/events/54073","shortener_url":null,"started_at":"2014-08-09T15:30:00.000+09:00","ended_at":"2014-08-09T17:30:00.000+09:00","limit_number":35,"address":"神奈川県鎌倉市山ノ内 495-9","place":"きたかまくらツドイ(todoit)","lat":35.3378,"lon":139.545,"state":"closed","id":null},{"event_id":"54771","title":"Fandroid大垣_ジャン語呂アイデアソン","url":"https://atnd.org/events/54771","shortener_url":null,"started_at":"2014-08-09T13:00:00.000+09:00","ended_at":"2014-08-09T17:30:00.000+09:00","limit_number":5,"address":"岐阜県大垣市今宿6丁目52−16 ドリーム・コア","place":"Fandroid大垣101号室","lat":35.3679,"lon":136.637,"state":"closed","id":null},{"event_id":"54449","title":"IoTapp（あいおーてぃーあっぷ）勉強会2","url":"https://atnd.org/events/54449","shortener_url":null,"started_at":"2014-08-09T13:00:00.000+09:00","ended_at":"2014-08-09T16:00:00.000+09:00","limit_number":30,"address":"東京都千代田区外神田3-10-12 日加石油ビル2F","place":"RMバーガー","lat":35.7008,"lon":139.771,"state":"closed","id":null},{"event_id":"52666","title":"ArakawaGameJam2014","url":"https://atnd.org/events/52666","shortener_url":null,"started_at":"2014-08-09T12:00:00.000+09:00","ended_at":"2014-08-10T21:00:00.000+09:00","limit_number":38,"address":"東京都新宿区新宿5-18-20 新宿オミビル4階","place":"TechBuzzSpace","lat":35.6939,"lon":139.706,"state":"closed","id":null},{"event_id":"53740","title":"【事情により中止】Wearable Hackathon in Fukuoka powered by Xperia™","url":"https://atnd.org/events/53740","shortener_url":null,"started_at":"2014-08-09T11:00:00.000+09:00","ended_at":"2014-08-10T18:00:00.000+09:00","limit_number":30,"address":"福岡市博多区中洲5丁目5-13 KDC福岡ビル7F","place":"ヌーラボ博多本社","lat":33.5943,"lon":130.404,"state":"closed","id":null},{"event_id":"54480","title":"ゆるふわゲームジャム","url":"https://atnd.org/events/54480","shortener_url":null,"started_at":"2014-08-09T10:00:00.000+09:00","ended_at":"2014-08-10T20:00:00.000+09:00","limit_number":10,"address":"東京都渋谷区渋谷 2-22-14 渋谷二丁目ビル 5F","place":"ありんこオフィス","lat":35.6594,"lon":139.706,"state":"closed","id":null},{"event_id":"53810","title":"愛媛大学ハッカソン(台風のため中止)","url":"https://atnd.org/events/53810","shortener_url":null,"started_at":"2014-08-09T10:00:00.000+09:00","ended_at":"2014-08-11T14:00:00.000+09:00","limit_number":30,"address":"愛媛県松山市山越4丁目11-10","place":"愛媛大学山越研修所","lat":33.8614,"lon":132.755,"state":"closed","id":null},{"event_id":"54522","title":"第157回オフライン開発ミーティング","url":"https://atnd.org/events/54522","shortener_url":null,"started_at":"2014-08-03T10:00:00.000+09:00","ended_at":"2014-08-03T12:00:00.000+09:00","limit_number":null,"address":"東京都品川区大崎1-11-1","place":"ゲートシティ大崎B1アトリウムフリー座席","lat":35.6194,"lon":139.731,"state":"closed","id":null},{"event_id":"53879","title":"朝日新聞 × モバイルファクトリー　異業種ハッカソン！","url":"https://atnd.org/events/53879","shortener_url":null,"started_at":"2014-08-03T09:30:00.000+09:00","ended_at":"2014-08-03T20:00:00.000+09:00","limit_number":20,"address":"東京都品川区東五反田1-24-2 東五反田1丁目ビル8階","place":"株式会社モバイルファクトリー　本社","lat":35.626,"lon":139.727,"state":"closed","id":null},{"event_id":"52866","title":"日本Androidの会横須賀支部8月定例会","url":"https://atnd.org/events/52866","shortener_url":null,"started_at":"2014-08-02T14:00:00.000+09:00","ended_at":"2014-08-02T16:30:00.000+09:00","limit_number":38,"address":"横須賀市本町3-27","place":"横須賀産業交流プラザ 第二研修室","lat":35.2811,"lon":139.663,"state":"closed","id":null},{"event_id":"54410","title":"日本Androidの会秋葉原支部ロボット部　第28回勉強会","url":"https://atnd.org/events/54410","shortener_url":null,"started_at":"2014-08-02T12:00:00.000+09:00","ended_at":"2014-08-02T17:00:00.000+09:00","limit_number":15,"address":"東京都荒川区東尾久4-10-13 石塚ビル","place":"アトリエOKU","lat":35.7435,"lon":139.769,"state":"closed","id":null},{"event_id":"53595","title":"Xperia™ Wearable Hackathon Kanazawa","url":"https://atnd.org/events/53595","shortener_url":null,"started_at":"2014-08-02T11:00:00.000+09:00","ended_at":"2014-08-03T18:00:00.000+09:00","limit_number":30,"address":"石川県金沢市尾張町1-8-1","place":"GEUDA（http://geuda.jp/）","lat":36.5706,"lon":136.663,"state":"closed","id":null},{"event_id":"54024","title":" 福島GameJam 横浜青葉台会場","url":"https://atnd.org/events/54024","shortener_url":null,"started_at":"2014-08-02T09:30:00.000+09:00","ended_at":"2014-08-03T18:00:00.000+09:00","limit_number":8,"address":"横浜市青葉区しらとり台11-11-1-503","place":"福島ゲームジャム","lat":35.5388,"lon":139.513,"state":"closed","id":null},{"event_id":"54115","title":"今錦JAMBOREE","url":"https://atnd.org/events/54115","shortener_url":null,"started_at":"2014-08-01T19:30:00.000+09:00","ended_at":"2014-08-01T22:00:00.000+09:00","limit_number":30,"address":"東京都渋谷区神宮前2-13-2","place":"NEURO CAFE TOKYO","lat":35.6748,"lon":139.712,"state":"closed","id":null},{"event_id":"55059","title":"鹿児島に降臨！『副業の神』時枝宗臣　出版記念全国セミナー","url":"https://atnd.org/events/55059","shortener_url":null,"started_at":"2014-08-31T18:00:00.000+09:00","ended_at":"2014-08-31T22:00:00.000+09:00","limit_number":10,"address":"鹿児島市中央町4-32","place":"ホテル タイセイアネックス","lat":31.5861,"lon":130.545,"state":"closed","id":null},{"event_id":"54764","title":"毎月３万円以上貯金するのも夢じゃない！ 貯金を守りながら確実に増やすセミナー","url":"https://atnd.org/events/54764","shortener_url":null,"started_at":"2014-08-31T14:00:00.000+09:00","ended_at":"2014-08-31T16:30:00.000+09:00","limit_number":5,"address":"宮城県仙台市青葉区上杉1丁目6-10","place":"仙台北辰ビルディング1F SEED21 中会議室","lat":38.2704,"lon":140.87,"state":"closed","id":null},{"event_id":"55056","title":"熊本に降臨！『副業の神』時枝宗臣　出版記念全国セミナー","url":"https://atnd.org/events/55056","shortener_url":null,"started_at":"2014-08-30T18:00:00.000+09:00","ended_at":"2014-08-30T22:00:00.000+09:00","limit_number":10,"address":"熊本市中央区水前寺3丁目17-15","place":"ユースピア熊本","lat":32.7974,"lon":130.735,"state":"closed","id":null},{"event_id":"55053","title":"浜松に降臨！『副業の神』時枝宗臣　出版記念全国セミナー","url":"https://atnd.org/events/55053","shortener_url":null,"started_at":"2014-08-28T19:00:00.000+09:00","ended_at":"2014-08-28T22:30:00.000+09:00","limit_number":10,"address":"静岡県浜松市中区板屋町111-1","place":"アクトシティ浜松","lat":34.7052,"lon":137.736,"state":"closed","id":null},{"event_id":"55051","title":"富山に降臨！『副業の神』時枝宗臣　出版記念全国セミナー","url":"https://atnd.org/events/55051","shortener_url":null,"started_at":"2014-08-24T18:00:00.000+09:00","ended_at":"2014-08-24T22:00:00.000+09:00","limit_number":10,"address":"富山県舟橋北町7-1","place":"富山県教育文化会館","lat":36.6961,"lon":137.206,"state":"closed","id":null},{"event_id":"55045","title":"『副業の神』時枝宗臣　出版記念全国セミナー","url":"https://atnd.org/events/55045","shortener_url":null,"started_at":"2014-08-23T18:00:00.000+09:00","ended_at":"2014-08-23T22:00:00.000+09:00","limit_number":10,"address":"〒950-0087 新潟県新潟市中央区東大通1-1-1 第五マルカビル7階 会議室利用受付HAPPY CUBE株式会社内","place":"新潟　駅まえオフィス貸会議室","lat":37.9134,"lon":139.06,"state":"closed","id":null},{"event_id":"51618","title":"第３３回オープンＣＡＥ勉強会","url":"https://atnd.org/events/51618","shortener_url":null,"started_at":"2014-08-16T13:00:00.000+09:00","ended_at":"2014-08-17T12:00:00.000+09:00","limit_number":39,"address":"岐阜県大垣市加賀野4丁目1番地の7","place":"ソフトピアジャパン　ドリームコア２階　岐阜イノベーションセンター研修室","lat":35.3676,"lon":136.639,"state":"closed","id":null},{"event_id":"6437","title":"Python mini hack-a-thon 夏山合宿 2014","url":"https://pyhack.connpass.com/event/6437/","shortener_url":null,"started_at":"2014-08-29T13:00:00.000+09:00","ended_at":"2014-08-31T14:00:00.000+09:00","limit_number":20,"address":"長野県須坂市大字仁礼峰の原高原3153-720","place":"ペンション マウンテンパパ","lat":36.5531,"lon":138.35,"state":"active","id":null},{"event_id":"6397","title":"Dev-Camp in さいたま 2014/08/02","url":"https://devcamp.connpass.com/event/6397/","shortener_url":null,"started_at":"2014-08-02T11:00:00.000+09:00","ended_at":"2014-08-03T09:00:00.000+09:00","limit_number":12,"address":"さいたま市中央区上落合","place":"ラウンジ","lat":35.8943,"lon":139.626,"state":"active","id":null}]