[{"event_id":"9833","title":"XmasHack2014(事前登録)","url":"https://connpass.com/event/9833/","shortener_url":null,"started_at":"2014-12-24T14:00:00.000+09:00","ended_at":"2014-12-24T18:00:00.000+09:00","limit_number":72,"address":"","place":"","lat":null,"lon":null,"state":"active","id":null},{"event_id":"10384","title":"CLR/H in Tokyo 第7回","url":"https://clrh.connpass.com/event/10384/","shortener_url":null,"started_at":"2014-12-20T19:30:00.000+09:00","ended_at":"2014-12-21T03:00:00.000+09:00","limit_number":80,"address":"東京都港区港南 2-16-3 品川グランドセントラルタワー","place":"日本マイクロソフト 品川本社（SGT）31F・Room AとRoom B","lat":35.6267,"lon":139.74,"state":"active","id":null},{"event_id":"9891","title":"リアルタイム通信が10倍楽しくなる2014年最後の勉強会！milkcocoa meetup! #1","url":"https://mlkcca.connpass.com/event/9891/","shortener_url":null,"started_at":"2014-12-16T04:30:00.000+09:00","ended_at":"2014-12-16T07:00:00.000+09:00","limit_number":101,"address":"東京都台東区東上野2-18-7 共同ビル 3F","place":"いいオフィス","lat":35.7103,"lon":139.777,"state":"active","id":null},{"event_id":"10563","title":"[Swift】バイラルメディアアプリを作ろう【無料】","url":"https://connpass.com/event/10563/","shortener_url":null,"started_at":"2014-12-13T21:00:00.000+09:00","ended_at":"2014-12-14T05:00:00.000+09:00","limit_number":10,"address":"","place":"","lat":null,"lon":null,"state":"active","id":null},{"event_id":"10558","title":"「ビジネスをしゃぶれ」第二弾 12/15（月）19:00~","url":"https://connpass.com/event/10558/","shortener_url":null,"started_at":"2014-12-15T19:00:00.000+09:00","ended_at":"2014-12-15T21:00:00.000+09:00","limit_number":null,"address":"","place":"","lat":null,"lon":null,"state":"active","id":null},{"event_id":"10399","title":"【Swift】バイラルメディアのプロトタイプアプリを完成させよう【無料】","url":"https://connpass.com/event/10399/","shortener_url":null,"started_at":"2014-12-06T21:00:00.000+09:00","ended_at":"2014-12-07T05:00:00.000+09:00","limit_number":null,"address":"","place":"","lat":null,"lon":null,"state":"active","id":null},{"event_id":"59470","title":"大晦日ハッカソン2014 #大晦日ハッカソン","url":"https://atnd.org/events/59470","shortener_url":null,"started_at":"2014-12-31T00:00:00.000+09:00","ended_at":"2014-12-31T23:59:00.000+09:00","limit_number":null,"address":"","place":"各自で","lat":null,"lon":null,"state":"closed","id":null},{"event_id":"60119","title":"新年に向け穢れた心を洗い流ソン","url":"https://atnd.org/events/60119","shortener_url":null,"started_at":"2014-12-28T10:00:00.000+09:00","ended_at":"2014-12-29T09:00:00.000+09:00","limit_number":5,"address":"","place":"","lat":null,"lon":null,"state":"closed","id":null},{"event_id":"59002","title":"愛媛でWEB系のハッカソンやりたいから誰でも集まっていいよ。　なんとConoha承認！　やった！","url":"https://atnd.org/events/59002","shortener_url":null,"started_at":"2014-12-27T09:30:00.000+09:00","ended_at":"2014-12-27T21:00:00.000+09:00","limit_number":null,"address":"愛媛県西条市大町1590","place":"西条図書館","lat":33.9127,"lon":133.183,"state":"closed","id":null},{"event_id":"60719","title":"Metland Masa Depan Idaman","url":"https://atnd.org/events/60719","shortener_url":null,"started_at":"2014-12-26T09:30:00.000+09:00","ended_at":"2015-02-28T01:30:00.000+09:00","limit_number":null,"address":"","place":"Hotel Horison","lat":null,"lon":null,"state":"closed","id":null},{"event_id":"60481","title":"year-end's hack day eve","url":"https://atnd.org/events/60481","shortener_url":null,"started_at":"2014-12-24T10:00:00.000+09:00","ended_at":"2014-12-24T19:00:00.000+09:00","limit_number":15,"address":"","place":"宮下研究室","lat":null,"lon":null,"state":"closed","id":null},{"event_id":"59304","title":"【3DCG・立体音響の面白さで勝負】日本初Web3Dハッカソンで年越ししよう！jThree Class主催 Web3D Hackathon Japan 2014","url":"https://atnd.org/events/59304","shortener_url":null,"started_at":"2014-12-23T09:30:00.000+09:00","ended_at":"2014-12-23T18:00:00.000+09:00","limit_number":55,"address":"東京都渋谷区神宮前6-19-21 ホルツ細川ビル4階","place":"朝日新聞メディアラボ渋谷オフィス","lat":35.6641,"lon":139.703,"state":"closed","id":null},{"event_id":"59468","title":"ハツカソン(2014年12月20日) - 毎月20日は #ハツカソン","url":"https://atnd.org/events/59468","shortener_url":null,"started_at":"2014-12-20T00:00:00.000+09:00","ended_at":"2014-12-20T23:59:00.000+09:00","limit_number":null,"address":"","place":"各自で","lat":null,"lon":null,"state":"closed","id":null},{"event_id":"59230","title":"美味しいスイーツの撮り方講座","url":"https://atnd.org/events/59230","shortener_url":null,"started_at":"2014-12-17T13:30:00.000+09:00","ended_at":"2014-12-17T15:00:00.000+09:00","limit_number":10,"address":"名古屋市中区丸の内3-21-32 太田ビル 2F","place":"ジャムキッチン","lat":35.1742,"lon":136.904,"state":"closed","id":null},{"event_id":"59229","title":"美味しいスイーツの撮り方講座","url":"https://atnd.org/events/59229","shortener_url":null,"started_at":"2014-12-17T11:00:00.000+09:00","ended_at":"2014-12-17T12:30:00.000+09:00","limit_number":10,"address":"名古屋市中区丸の内3-21-32 太田ビル 2F","place":"ジャムキッチン","lat":35.1742,"lon":136.904,"state":"closed","id":null},{"event_id":"59728","title":"Photon勉強会【特別編】 - 東京・渋谷 -","url":"https://atnd.org/events/59728","shortener_url":null,"started_at":"2014-12-16T19:30:00.000+09:00","ended_at":"2014-12-16T22:00:00.000+09:00","limit_number":30,"address":"東京都東京都渋谷区桜丘町26-1 セルリアンタワー11階","place":"GMO Yours","lat":35.6565,"lon":139.699,"state":"closed","id":null},{"event_id":"58836","title":"第2回チームラボによるPepperモーション制作ワークショップ 12/16","url":"https://atnd.org/events/58836","shortener_url":null,"started_at":"2014-12-16T18:00:00.000+09:00","ended_at":"2014-12-16T21:00:00.000+09:00","limit_number":20,"address":"東京都千代田区外神田6丁目11-14","place":"秋葉原3331  http://www.3331.jp/access/","lat":35.7042,"lon":139.771,"state":"closed","id":null},{"event_id":"59376","title":"◎発表資料有り！　　　　　　　　　　　　　　　　　　　　　　　【#TechBuzz】第27回Unity勉強会 Unity に於ける、Android ビルド自動化のおはなし【実践編】/ Unityでやってみた事例紹介（モバイルゲーム以外）","url":"https://atnd.org/events/59376","shortener_url":null,"started_at":"2014-12-15T19:30:00.000+09:00","ended_at":"2014-12-15T21:00:00.000+09:00","limit_number":40,"address":"東京都渋谷区代々木1-27-16 JECビル 5F","place":"代々木TechBuzzSpace（JECビル 5F）","lat":35.6824,"lon":139.701,"state":"closed","id":null},{"event_id":"59671","title":"「ハッカソンをハックする」会 (大阪)","url":"https://atnd.org/events/59671","shortener_url":null,"started_at":"2014-12-14T14:00:00.000+09:00","ended_at":"2014-12-14T17:30:00.000+09:00","limit_number":25,"address":"大阪市北区大深町3-1","place":"グランフロント大阪 北館 7F ナレッジサロン内","lat":34.7053,"lon":135.495,"state":"closed","id":null},{"event_id":"59529","title":"IoTapp（あいおーてぃーあっぷ）勉強会 #6","url":"https://atnd.org/events/59529","shortener_url":null,"started_at":"2014-12-14T13:00:00.000+09:00","ended_at":"2014-12-14T16:30:00.000+09:00","limit_number":20,"address":"東京都千代田区外神田3-10-12 日加石油ビル2F","place":"RMバーガー","lat":35.7008,"lon":139.771,"state":"closed","id":null},{"event_id":"60105","title":"第174回オフライン開発ミーティング","url":"https://atnd.org/events/60105","shortener_url":null,"started_at":"2014-12-14T10:00:00.000+09:00","ended_at":"2014-12-14T12:00:00.000+09:00","limit_number":null,"address":"東京都品川区大崎1-11-1","place":"ゲートシティ大崎B1アトリウムフリー座席","lat":35.6194,"lon":139.731,"state":"closed","id":null},{"event_id":"60012","title":"ペッパソン #2","url":"https://atnd.org/events/60012","shortener_url":null,"started_at":"2014-12-14T10:00:00.000+09:00","ended_at":"2014-12-14T16:00:00.000+09:00","limit_number":5,"address":"東京都港区港南2-16-2","place":"株式会社ブリリアントサービス 品川事業所","lat":35.6272,"lon":139.741,"state":"closed","id":null},{"event_id":"59659","title":"歳末Firefox OSハッカソン","url":"https://atnd.org/events/59659","shortener_url":null,"started_at":"2014-12-13T13:00:00.000+09:00","ended_at":"2014-12-13T18:00:00.000+09:00","limit_number":10,"address":"東京都港区六本木 7-5-6","place":"Mozilla Japan オフィス","lat":35.6652,"lon":139.728,"state":"closed","id":null},{"event_id":"59520","title":"Ubuntu 10周年記念オフラインミーティング（兼 14.10リリースパーティ）(受付終了)","url":"https://atnd.org/events/59520","shortener_url":null,"started_at":"2014-12-13T12:30:00.000+09:00","ended_at":"2014-12-13T17:15:00.000+09:00","limit_number":56,"address":"東京都港区六本木6-10-1 六本木ヒルズ森タワー","place":"グリー株式会社","lat":35.6606,"lon":139.729,"state":"closed","id":null},{"event_id":"60025","title":"日本Androidの会秋葉原支部ロボット部　第32回勉強会","url":"https://atnd.org/events/60025","shortener_url":null,"started_at":"2014-12-13T12:00:00.000+09:00","ended_at":"2014-12-13T17:00:00.000+09:00","limit_number":10,"address":"千代田区神田紺屋町37番地 今井ビル2F","place":"ギークハウス神田秋葉原","lat":35.693,"lon":139.774,"state":"closed","id":null},{"event_id":"59810","title":"12月12日(12/12)大阪コンパ合コン飲み会","url":"https://atnd.org/events/59810","shortener_url":null,"started_at":"2014-12-12T20:30:00.000+09:00","ended_at":"2014-12-12T22:30:00.000+09:00","limit_number":null,"address":"大阪市中央区心斎橋筋2-6-8 シャンペンジャムビル4F","place":"心斎橋LOGIC(ロジック)","lat":34.6701,"lon":135.501,"state":"closed","id":null},{"event_id":"59849","title":"第173回オフライン開発ミーティング","url":"https://atnd.org/events/59849","shortener_url":null,"started_at":"2014-12-07T10:00:00.000+09:00","ended_at":"2014-12-07T12:00:00.000+09:00","limit_number":null,"address":"東京都品川区大崎1-11-1","place":"ゲートシティ大崎B1アトリウムフリー座席","lat":35.6194,"lon":139.731,"state":"closed","id":null},{"event_id":"59228","title":"美味しいスイーツの撮り方講座","url":"https://atnd.org/events/59228","shortener_url":null,"started_at":"2014-12-03T13:30:00.000+09:00","ended_at":"2014-12-03T15:00:00.000+09:00","limit_number":10,"address":"名古屋市中区丸の内3-21-32 太田ビル 2F","place":"ジャムキッチン","lat":35.1742,"lon":136.904,"state":"closed","id":null},{"event_id":"59227","title":"美味しいスイーツの撮り方講座","url":"https://atnd.org/events/59227","shortener_url":null,"started_at":"2014-12-03T11:00:00.000+09:00","ended_at":"2014-12-03T12:30:00.000+09:00","limit_number":10,"address":"名古屋市中区丸の内3-21-32 太田ビル 2F","place":"ジャムキッチン","lat":35.1742,"lon":136.904,"state":"closed","id":null},{"event_id":"60124","title":"第二回　猫ひろしのくだランマラソンオリンピック　大阪編","url":"https://atnd.org/events/60124","shortener_url":null,"started_at":"2014-12-19T19:00:00.000+09:00","ended_at":"2014-12-19T22:00:00.000+09:00","limit_number":100,"address":"大阪府大阪市中央区宗右衛門町2-3 美松ビル3F","place":"ロフトプラスワンＷＥＳＴ","lat":34.67,"lon":135.505,"state":"closed","id":null},{"event_id":"59281","title":"タイの出家僧プラユキ師の講演","url":"https://atnd.org/events/59281","shortener_url":null,"started_at":"2014-12-14T13:00:00.000+09:00","ended_at":"2014-12-14T17:00:00.000+09:00","limit_number":50,"address":"http://yahoo.jp/-7-0mf","place":"ウインク愛知","lat":null,"lon":null,"state":"closed","id":null},{"event_id":"10762","title":"年末もくもく会＠大宮７Ｆ","url":"https://connpass.com/event/10762/","shortener_url":null,"started_at":"2014-12-27T10:00:00.000+09:00","ended_at":"2014-12-29T22:00:00.000+09:00","limit_number":null,"address":"埼玉県さいたま市大宮区宮町1-5 銀座ビル7階","place":"コワーキングスペース　Office7F","lat":35.9077,"lon":139.625,"state":"active","id":null},{"event_id":"10256","title":"(第49回)Python mini Hack-a-thon","url":"https://pyhack.connpass.com/event/10256/","shortener_url":null,"started_at":"2014-12-20T11:00:00.000+09:00","ended_at":"2014-12-20T19:00:00.000+09:00","limit_number":20,"address":"渋谷区千駄ヶ谷5-32-7 野村不動産南新宿ビル4F","place":"ビープラウド会議室","lat":35.6864,"lon":139.704,"state":"active","id":null}]