[{"event_id":"5878","title":"第42回 デザイナー向けプログラム部 #p4d at イグニス","url":"https://p4d.connpass.com/event/5878/","shortener_url":null,"started_at":"2014-04-23T19:30:00.000+09:00","ended_at":"2014-04-23T21:30:00.000+09:00","limit_number":10,"address":"東京都渋谷区恵比寿1-19-19(恵比寿ビジネスタワー12F)","place":"株式会社イグニス 様","lat":35.6476,"lon":139.713,"state":"active","id":null},{"event_id":"5798","title":"Gentoo勉強会","url":"https://connpass.com/event/5798/","shortener_url":null,"started_at":"2014-04-05T15:00:00.000+09:00","ended_at":"2014-04-05T19:00:00.000+09:00","limit_number":20,"address":"","place":"フォレスト","lat":35.6479,"lon":139.745,"state":"active","id":null},{"event_id":"5816","title":"Raspberry Jam Tokyo #5 懇親会","url":"https://connpass.com/event/5816/","shortener_url":null,"started_at":"2014-04-12T11:00:00.000+09:00","ended_at":"2014-04-12T13:00:00.000+09:00","limit_number":20,"address":"","place":"","lat":null,"lon":null,"state":"active","id":null},{"event_id":"5750","title":"C#er night ","url":"https://connpass.com/event/5750/","shortener_url":null,"started_at":"2014-04-01T20:30:00.000+09:00","ended_at":"2014-04-02T06:00:00.000+09:00","limit_number":null,"address":"","place":"","lat":null,"lon":null,"state":"active","id":null},{"event_id":"5766","title":"【ヒカ☆ラボ】【Web系希望エンジニア必見】SIerからWeb系に転向した登壇者が語るキャリア論","url":"https://connpass.com/event/5766/","shortener_url":null,"started_at":"2014-04-30T20:00:00.000+09:00","ended_at":"2014-04-30T21:30:00.000+09:00","limit_number":null,"address":"東京都渋谷区渋谷2-21-1","place":"レバレジーズ本社 ( 渋谷ヒカリエ17F )","lat":35.659,"lon":139.704,"state":"active","id":null},{"event_id":"5667","title":"Make + Re:Make あしたのものづくり Hack Day(Hackathon)","url":"https://connpass.com/event/5667/","shortener_url":null,"started_at":"2014-04-27T01:00:00.000+09:00","ended_at":"2014-04-27T09:00:00.000+09:00","limit_number":40,"address":"東京都港区港南1丁目8番35号","place":"エコライブオフィス品川","lat":35.6303,"lon":139.743,"state":"active","id":null},{"event_id":"5699","title":"第41回 デザイナー向けプログラム部 #p4d at 万葉","url":"https://p4d.connpass.com/event/5699/","shortener_url":null,"started_at":"2014-04-03T19:30:00.000+09:00","ended_at":"2014-04-03T21:30:00.000+09:00","limit_number":11,"address":"東京都千代田区神田錦町3丁目16-11 (エルヴァージュ神田錦町8F)","place":"株式会社万葉 様","lat":35.6936,"lon":139.761,"state":"active","id":null},{"event_id":"5607","title":"機械学習ハッカソン！","url":"https://mlhackathon.connpass.com/event/5607/","shortener_url":null,"started_at":"2014-04-19T10:30:00.000+09:00","ended_at":"2014-04-19T19:00:00.000+09:00","limit_number":20,"address":"〒101-0021 東京都千代田区外神田3-3-5　ヨシヰビル5階","place":"秋葉原アンダーグラウンド","lat":35.7007,"lon":139.77,"state":"active","id":null},{"event_id":"5666","title":"Make + Re:Make あしたのものづくり Hack Day(Ideathon)","url":"https://connpass.com/event/5666/","shortener_url":null,"started_at":"2014-04-20T05:00:00.000+09:00","ended_at":"2014-04-20T08:00:00.000+09:00","limit_number":40,"address":"東京都渋谷区千駄ヶ谷3丁目60-2","place":"IMON原宿千駄ヶ谷ビル","lat":35.674,"lon":139.705,"state":"active","id":null},{"event_id":"5478","title":"Raspberry Jam Tokyo #5 at KDDI Web Com.","url":"https://connpass.com/event/5478/","shortener_url":null,"started_at":"2014-04-12T02:00:00.000+09:00","ended_at":"2014-04-12T10:00:00.000+09:00","limit_number":50,"address":" 東京都千代田区麹町三丁目６番地 住友不動産麹町ビル３号館","place":"KDDI ウェブコミュニケーションズ","lat":35.6846,"lon":139.738,"state":"active","id":null},{"event_id":"5486","title":"※本イベントは4/30(水)に変更になります。SIerからWeb系に転向した登壇者が語るキャリア論","url":"https://connpass.com/event/5486/","shortener_url":null,"started_at":"2014-04-17T20:00:00.000+09:00","ended_at":"2014-04-17T21:30:00.000+09:00","limit_number":null,"address":"東京都渋谷区渋谷2-21-1","place":"レバレジーズ本社 ( 渋谷ヒカリエ17F )","lat":35.659,"lon":139.704,"state":"active","id":null},{"event_id":"49135","title":"【ヒカ☆ラボ】【Web系希望エンジニア必見！】SIerでSEだった講演者がWebエンジニアに転向し、どのようなキャリアを歩んできたか余すことなくお伝えします。","url":"https://atnd.org/events/49135","shortener_url":null,"started_at":"2014-04-30T11:00:00.000+09:00","ended_at":"2014-04-30T12:30:00.000+09:00","limit_number":30,"address":"東京都渋谷区渋谷2-21-1","place":"レバレジーズ本社（ 渋谷ヒカリエ 17F ） ","lat":35.659,"lon":139.703,"state":"closed","id":null},{"event_id":"48831","title":"Make + Re:Make あしたのものづくり Hack Day(Hackathon)","url":"https://atnd.org/events/48831","shortener_url":null,"started_at":"2014-04-27T01:00:00.000+09:00","ended_at":"2014-04-27T09:00:00.000+09:00","limit_number":40,"address":"東京都港区港南1丁目8番35号","place":"エコライブオフィス品川","lat":35.6303,"lon":139.743,"state":"closed","id":null},{"event_id":"49271","title":"◎資料URL有◎　　　　　　　　　　　　　　　　　　　　　【#TechBuzz】Corona Developerになろう！CoronaSDKで簡単にアプリを作ろう 〜1DAYハンズオン編〜","url":"https://atnd.org/events/49271","shortener_url":null,"started_at":"2014-04-26T04:00:00.000+09:00","ended_at":"2014-04-26T09:00:00.000+09:00","limit_number":15,"address":"東京都新宿区新宿5丁目18番20号","place":"TechBuzzSpace（新宿オミビル4階）","lat":35.694,"lon":139.706,"state":"closed","id":null},{"event_id":"50111","title":"GWハッカソン2014","url":"https://atnd.org/events/50111","shortener_url":null,"started_at":"2014-04-25T15:00:00.000+09:00","ended_at":"2014-05-06T14:59:00.000+09:00","limit_number":null,"address":"","place":"","lat":null,"lon":null,"state":"closed","id":null},{"event_id":"49368","title":"International Women’s Hackathon 2014, Japan ","url":"https://atnd.org/events/49368","shortener_url":null,"started_at":"2014-04-25T06:30:00.000+09:00","ended_at":"2014-04-26T08:00:00.000+09:00","limit_number":35,"address":"東京都文京区大塚2-1-1","place":"お茶の水女子大学 理学部3号館2階会議室","lat":35.7188,"lon":139.733,"state":"closed","id":null},{"event_id":"48830","title":"Make + Re:Make あしたのものづくり Hack Day(Ideathon)","url":"https://atnd.org/events/48830","shortener_url":null,"started_at":"2014-04-20T05:00:00.000+09:00","ended_at":"2014-04-20T08:00:00.000+09:00","limit_number":40,"address":"東京都渋谷区千駄ヶ谷3丁目60-2","place":"IMON原宿千駄ヶ谷ビル","lat":35.674,"lon":139.705,"state":"closed","id":null},{"event_id":"49839","title":"第144回オフライン開発ミーティング","url":"https://atnd.org/events/49839","shortener_url":null,"started_at":"2014-04-20T01:00:00.000+09:00","ended_at":"2014-04-20T03:00:00.000+09:00","limit_number":null,"address":"東京都品川区大崎1-11-1","place":"ゲートシティ大崎B1アトリウムフリー座席","lat":35.6194,"lon":139.731,"state":"closed","id":null},{"event_id":"49771","title":"スマホゲームアプリギャザー【第１回】","url":"https://atnd.org/events/49771","shortener_url":null,"started_at":"2014-04-19T04:00:00.000+09:00","ended_at":"2014-04-19T08:00:00.000+09:00","limit_number":10,"address":"愛媛県松山市湊町七丁目5番地","place":"松山総合コミュニティセンター","lat":33.836,"lon":132.755,"state":"closed","id":null},{"event_id":"48748","title":"天神Perl #8","url":"https://atnd.org/events/48748","shortener_url":null,"started_at":"2014-04-19T04:00:00.000+09:00","ended_at":"2014-04-19T09:00:00.000+09:00","limit_number":8,"address":"福岡県福岡市中央区天神4-8-2 天神ビルプラス8F","place":"株式会社イーハイブ","lat":33.595,"lon":130.4,"state":"closed","id":null},{"event_id":"49857","title":"日本Androidの会秋葉原支部ロボット部　第25回勉強会","url":"https://atnd.org/events/49857","shortener_url":null,"started_at":"2014-04-19T03:00:00.000+09:00","ended_at":"2014-04-19T08:30:00.000+09:00","limit_number":15,"address":"東京都板橋区志村1-1-2 2F","place":"Robotma.com（ろぼとまどっとこむ）","lat":35.7721,"lon":139.699,"state":"closed","id":null},{"event_id":"48621","title":"【満員御礼】【#TechBuzz】大好評！第19回Shinjuku.cocos2d-x 〜少人数ハンズオン勉強会〜 cocos2d-xで利用できる暗号化","url":"https://atnd.org/events/48621","shortener_url":null,"started_at":"2014-04-17T10:30:00.000+09:00","ended_at":"2014-04-17T12:30:00.000+09:00","limit_number":35,"address":"東京都新宿区新宿5丁目18番20号","place":"TechBuzzSpace（新宿オミビル4階）","lat":35.694,"lon":139.706,"state":"closed","id":null},{"event_id":"49648","title":"【限定10名】夜な夜な #起業ハッカソン","url":"https://atnd.org/events/49648","shortener_url":null,"started_at":"2014-04-14T12:00:00.000+09:00","ended_at":"2014-04-18T13:30:00.000+09:00","limit_number":10,"address":"","place":"荻窪近くのシェアハウス","lat":null,"lon":null,"state":"closed","id":null},{"event_id":"49532","title":"第143回オフライン開発ミーティング","url":"https://atnd.org/events/49532","shortener_url":null,"started_at":"2014-04-13T01:00:00.000+09:00","ended_at":"2014-04-13T03:00:00.000+09:00","limit_number":null,"address":"東京都品川区大崎1-11-1","place":"ゲートシティ大崎B1アトリウムフリー座席","lat":35.6194,"lon":139.731,"state":"closed","id":null},{"event_id":"48794","title":"Kobe.R #3 　（R言語）","url":"https://atnd.org/events/48794","shortener_url":null,"started_at":"2014-04-12T04:00:00.000+09:00","ended_at":"2014-04-14T23:59:59.000+09:00","limit_number":5,"address":"〒651-0081 神戸市中央区真砂通2-1-1 葺合公民館","place":"葺合公民館第1会議室","lat":34.695,"lon":135.205,"state":"closed","id":null},{"event_id":"48582","title":"オープンハードセミナー2014 2Q","url":"https://atnd.org/events/48582","shortener_url":null,"started_at":"2014-04-12T02:00:00.000+09:00","ended_at":"2014-04-12T08:00:00.000+09:00","limit_number":12,"address":"大阪市北区大深町3番1号","place":"大阪イノベーションハブ(グランフロント大阪ナレッジキャピタルタワーC７階）","lat":34.702,"lon":135.492,"state":"closed","id":null},{"event_id":"48737","title":"オープンハードセミナー2014 2Q 鹿児島会場","url":"https://atnd.org/events/48737","shortener_url":null,"started_at":"2014-04-12T01:30:00.000+09:00","ended_at":"2014-04-12T10:00:00.000+09:00","limit_number":10,"address":"鹿児島市名山町9番15号","place":"ソフトプラザかごしま 204号室(鹿児島大学情報技術事業化支援室)","lat":31.5948,"lon":130.559,"state":"closed","id":null},{"event_id":"49291","title":"第142回オフライン開発ミーティング","url":"https://atnd.org/events/49291","shortener_url":null,"started_at":"2014-04-06T01:00:00.000+09:00","ended_at":"2014-04-06T03:00:00.000+09:00","limit_number":null,"address":"東京都品川区大崎1-11-1","place":"ゲートシティ大崎B1アトリウムフリー座席","lat":35.6194,"lon":139.731,"state":"closed","id":null},{"event_id":"48275","title":"第4回トークソン","url":"https://atnd.org/events/48275","shortener_url":null,"started_at":"2014-04-06T01:00:00.000+09:00","ended_at":"2014-04-06T09:00:00.000+09:00","limit_number":12,"address":"東京都中央区新川 1-3-4 PAビル5F","place":"コワーキングスペース茅場町 Co-Edo","lat":35.6786,"lon":139.782,"state":"closed","id":null},{"event_id":"48883","title":"SWWDC 仙台iPhoneアプリ開発勉強会#18 8時間半(※)もくもくハッカソン 4/5(土)","url":"https://atnd.org/events/48883","shortener_url":null,"started_at":"2014-04-05T04:00:00.000+09:00","ended_at":"2014-04-05T12:30:00.000+09:00","limit_number":15,"address":"宮城県仙台市青葉区春日町2−1","place":"せんだいメディアテーク7F「会議室a」","lat":38.2656,"lon":140.866,"state":"closed","id":null},{"event_id":"49353","title":"BUILD 2014 擬似ライブ in NAGOYA","url":"https://atnd.org/events/49353","shortener_url":null,"started_at":"2014-04-05T01:00:00.000+09:00","ended_at":"2014-04-05T08:00:00.000+09:00","limit_number":30,"address":"名古屋市中区金山五丁目11-6","place":"名古屋ソフトウェアセンター","lat":35.1449,"lon":136.911,"state":"closed","id":null},{"event_id":"5413","title":"2014年春 第1回Dev-Camp in 八ヶ岳","url":"https://connpass.com/event/5413/","shortener_url":null,"started_at":"2014-04-26T01:00:00.000+09:00","ended_at":"2014-04-29T06:00:00.000+09:00","limit_number":10,"address":"長野県南佐久郡南牧村海ノ口２２４４","place":"山小屋","lat":35.9894,"lon":138.438,"state":"active","id":null}]