[{"event_id":"7493","title":"月刊ライトニングトーク 2014年6月+7月号","url":"https://mlt.connpass.com/event/7493/","shortener_url":null,"started_at":"2014-07-25T04:00:00.000+09:00","ended_at":"2014-07-25T07:00:00.000+09:00","limit_number":30,"address":"東京都渋谷区道玄坂1-14-6 ヒューマックス渋谷ビル3F","place":"21cafe","lat":35.6573,"lon":139.698,"state":"active","id":null},{"event_id":"6894","title":"【ヒカ☆ラボ】【好評につき第二弾！】SIerからWeb系に転向した登壇者が語るキャリア論","url":"https://connpass.com/event/6894/","shortener_url":null,"started_at":"2014-07-15T20:00:00.000+09:00","ended_at":"2014-07-15T22:00:00.000+09:00","limit_number":50,"address":"東京都渋谷区渋谷2-21-1","place":"レバレジーズ本社 ( 渋谷ヒカリエ17F )","lat":35.659,"lon":139.704,"state":"active","id":null},{"event_id":"7357","title":"ななやんと温泉いちゃラブハッカソン　＃２","url":"https://connpass.com/event/7357/","shortener_url":null,"started_at":"2014-07-13T19:00:00.000+09:00","ended_at":"2014-07-14T03:00:00.000+09:00","limit_number":null,"address":"135-0064　東京都江東区青海2丁目6番3号","place":"東京大江戸温泉","lat":35.616,"lon":139.777,"state":"active","id":null},{"event_id":"7246","title":"第47回 デザイナー向けプログラム部 #p4d at 万葉","url":"https://p4d.connpass.com/event/7246/","shortener_url":null,"started_at":"2014-07-04T04:30:00.000+09:00","ended_at":"2014-07-04T06:30:00.000+09:00","limit_number":8,"address":"東京都千代田区神田錦町3丁目16-11 (エルヴァージュ神田錦町8F)","place":"株式会社万葉 様","lat":35.6936,"lon":139.761,"state":"active","id":null},{"event_id":"7259","title":"Gentoo勉強会 2014-07-05","url":"https://gentoo.connpass.com/event/7259/","shortener_url":null,"started_at":"2014-07-06T00:00:00.000+09:00","ended_at":"2014-07-06T04:00:00.000+09:00","limit_number":20,"address":"","place":"フォレスト","lat":35.6479,"lon":139.745,"state":"active","id":null},{"event_id":"51622","title":"◎レポート公開中！！◎　【満員御礼!!160名】【#TechBuzz】第23回Unity勉強会 〜ユニティちゃんの動かし方まとめ〜 / パーティクルシステム超入門 / モバイルプラットフォーム向けビルド自動化のおはなし","url":"https://atnd.org/events/51622","shortener_url":null,"started_at":"2014-07-31T19:30:00.000+09:00","ended_at":"2014-07-31T22:00:00.000+09:00","limit_number":160,"address":"東京都新宿区新宿5丁目18番20号","place":"TechBuzzSpace（新宿オミビル4階）","lat":35.694,"lon":139.706,"state":"closed","id":null},{"event_id":"54143","title":"第156回オフライン開発ミーティング","url":"https://atnd.org/events/54143","shortener_url":null,"started_at":"2014-07-27T10:00:00.000+09:00","ended_at":"2014-07-27T12:00:00.000+09:00","limit_number":null,"address":"東京都品川区大崎1-11-1","place":"ゲートシティ大崎B1アトリウムフリー座席","lat":35.6194,"lon":139.731,"state":"closed","id":null},{"event_id":"53699","title":"2013年度新卒開催、若手ライトニングトーク会","url":"https://atnd.org/events/53699","shortener_url":null,"started_at":"2014-07-26T15:00:00.000+09:00","ended_at":"2014-07-26T17:00:00.000+09:00","limit_number":20,"address":"大阪府大阪市中央区道修町4丁目6−5","place":"淀屋橋サウスビル　8階会議室","lat":34.6883,"lon":135.499,"state":"closed","id":null},{"event_id":"53802","title":"暇をもてあましたアヌビス神の遊び","url":"https://atnd.org/events/53802","shortener_url":null,"started_at":"2014-07-26T13:00:00.000+09:00","ended_at":"2014-07-26T17:00:00.000+09:00","limit_number":7,"address":"大阪市中央区谷町6-5-26 複合文化施設「萌」2階","place":"コワーキングスペース「往来」","lat":34.675,"lon":135.515,"state":"closed","id":null},{"event_id":"52446","title":"Code for　SAITAMA ハッカソン","url":"https://atnd.org/events/52446","shortener_url":null,"started_at":"2014-07-26T10:00:00.000+09:00","ended_at":"2014-07-27T17:00:00.000+09:00","limit_number":50,"address":"さいたま市大宮区錦町682-2 大宮情報文化センター14F","place":"富士通会議室","lat":35.908,"lon":139.622,"state":"closed","id":null},{"event_id":"52716","title":"JavaScript UI ライブラリ 24Hハッカソン","url":"https://atnd.org/events/52716","shortener_url":null,"started_at":"2014-07-25T22:00:00.000+09:00","ended_at":"2014-07-26T22:00:00.000+09:00","limit_number":10,"address":"東京都新宿区百人町1-17-6 成田ビル 301","place":"株式会社ゼノフィ 本社","lat":35.7015,"lon":139.697,"state":"closed","id":null},{"event_id":"53844","title":"第155回オフライン開発ミーティング","url":"https://atnd.org/events/53844","shortener_url":null,"started_at":"2014-07-20T10:00:00.000+09:00","ended_at":"2014-07-20T12:00:00.000+09:00","limit_number":null,"address":"東京都品川区大崎1-11-1","place":"ゲートシティ大崎B1アトリウムフリー座席","lat":35.6194,"lon":139.731,"state":"closed","id":null},{"event_id":"53358","title":"ハツカソン(2014年7月20日) - 毎月20日は #ハツカソン ","url":"https://atnd.org/events/53358","shortener_url":null,"started_at":"2014-07-20T00:00:00.000+09:00","ended_at":"2014-07-20T23:59:00.000+09:00","limit_number":null,"address":"","place":"各自で","lat":null,"lon":null,"state":"closed","id":null},{"event_id":"53303","title":"【名古屋】第２８回iPhoneアプリ開発勉強会","url":"https://atnd.org/events/53303","shortener_url":null,"started_at":"2014-07-19T13:00:00.000+09:00","ended_at":"2014-07-19T17:00:00.000+09:00","limit_number":35,"address":"愛知県名古屋市中村区名駅3丁目18−5 モンマートビル5F","place":"ベースキャンプ名古屋","lat":35.1728,"lon":136.887,"state":"closed","id":null},{"event_id":"52546","title":"Ogaki Developer Day 2014 Summer","url":"https://atnd.org/events/52546","shortener_url":null,"started_at":"2014-07-19T13:00:00.000+09:00","ended_at":"2014-07-20T15:00:00.000+09:00","limit_number":50,"address":"岐阜県大垣市今宿6-52-16","place":"ソフトピアジャパン　ドリーム・コア2F　メッセ、会議室","lat":35.3679,"lon":136.637,"state":"closed","id":null},{"event_id":"53413","title":"【増員20名！】第００回名古屋Swift勉強会（名古屋iPhoneアプリ開発勉強会外伝）","url":"https://atnd.org/events/53413","shortener_url":null,"started_at":"2014-07-19T10:15:00.000+09:00","ended_at":"2014-07-19T17:00:00.000+09:00","limit_number":20,"address":"愛知県名古屋市中区錦1丁目17-13 名興ビルディング 2F","place":"MYCAFE（マイカフェ）錦通店","lat":35.1691,"lon":136.894,"state":"closed","id":null},{"event_id":"53050","title":"7月18日(7/18)大阪コンパ合コン飲み会","url":"https://atnd.org/events/53050","shortener_url":null,"started_at":"2014-07-18T20:30:00.000+09:00","ended_at":"2014-07-18T22:30:00.000+09:00","limit_number":null,"address":"大阪市中央区心斎橋筋2-6-8 シャンペンジャムビル4F","place":"心斎橋LOGIC(ロジック)","lat":34.6701,"lon":135.501,"state":"closed","id":null},{"event_id":"53597","title":"「ClubPEC white vol.3　夏休み前夜祭」","url":"https://atnd.org/events/53597","shortener_url":null,"started_at":"2014-07-18T19:45:00.000+09:00","ended_at":"2014-07-21T08:59:59.000+09:00","limit_number":50,"address":"35.685452, 139.740667","place":"株式会社クリーク・アンド・リバー社　２F （〒100-8111 東京都千代田区麹町２丁目１０−９） ","lat":35.6854,"lon":139.741,"state":"closed","id":null},{"event_id":"52316","title":"【30名突破！】【ヒカ☆ラボ】【Web系希望エンジニア必見！好評につき第二弾！】SIerでSEだった講演者がWebエンジニアに転向し、どのようなキャリアを歩んできたか余すことなくお伝えします。(複数媒体で募集しております)","url":"https://atnd.org/events/52316","shortener_url":null,"started_at":"2014-07-15T20:00:00.000+09:00","ended_at":"2014-07-15T22:00:00.000+09:00","limit_number":30,"address":"東京都渋谷区渋谷2-21-1","place":"レバレジーズ本社 ( 渋谷ヒカリエ17F )","lat":35.659,"lon":139.703,"state":"closed","id":null},{"event_id":"53753","title":"kwzrhouse徹夜ハッカソン","url":"https://atnd.org/events/53753","shortener_url":null,"started_at":"2014-07-15T00:00:00.000+09:00","ended_at":"2014-07-15T10:00:00.000+09:00","limit_number":1,"address":"","place":"kwzrhouse","lat":null,"lon":null,"state":"closed","id":null},{"event_id":"53538","title":"第154回オフライン開発ミーティング","url":"https://atnd.org/events/53538","shortener_url":null,"started_at":"2014-07-13T10:00:00.000+09:00","ended_at":"2014-07-13T12:00:00.000+09:00","limit_number":null,"address":"東京都品川区大崎1-11-1","place":"ゲートシティ大崎B1アトリウムフリー座席","lat":35.6194,"lon":139.731,"state":"closed","id":null},{"event_id":"52815","title":"ラジドリ走行会＠石川県　","url":"https://atnd.org/events/52815","shortener_url":null,"started_at":"2014-07-13T08:30:00.000+09:00","ended_at":"2014-07-13T18:30:00.000+09:00","limit_number":20,"address":"","place":"未定","lat":null,"lon":null,"state":"closed","id":null},{"event_id":"52880","title":"スパガファンの集いだよ！","url":"https://atnd.org/events/52880","shortener_url":null,"started_at":"2014-07-12T19:00:00.000+09:00","ended_at":"2014-07-12T22:00:00.000+09:00","limit_number":30,"address":"東京都文京区湯島3-40-11 B1","place":"御徒町Jam Session","lat":35.7076,"lon":139.772,"state":"closed","id":null},{"event_id":"52100","title":"うみさまハウスハッカソン","url":"https://atnd.org/events/52100","shortener_url":null,"started_at":"2014-07-12T13:30:00.000+09:00","ended_at":"2014-07-12T20:00:00.000+09:00","limit_number":5,"address":"東京都品川区東品川1丁目","place":"うみさまハウス","lat":35.6208,"lon":139.745,"state":"closed","id":null},{"event_id":"52513","title":"Xperia™ Wearable Hackathon","url":"https://atnd.org/events/52513","shortener_url":null,"started_at":"2014-07-12T11:00:00.000+09:00","ended_at":"2014-07-13T18:00:00.000+09:00","limit_number":30,"address":"石川県金沢市尾張町1-8-1","place":"GEUDA（http://geuda.jp/）","lat":36.5706,"lon":136.663,"state":"closed","id":null},{"event_id":"52806","title":"IoTapp（あいおーてぃーあっぷ）勉強会","url":"https://atnd.org/events/52806","shortener_url":null,"started_at":"2014-07-06T13:00:00.000+09:00","ended_at":"2014-07-06T16:00:00.000+09:00","limit_number":30,"address":"東京都港区西麻布1-10-8","place":"nomad news base 3F","lat":35.6611,"lon":139.724,"state":"closed","id":null},{"event_id":"53316","title":"第153回オフライン開発ミーティング","url":"https://atnd.org/events/53316","shortener_url":null,"started_at":"2014-07-06T10:00:00.000+09:00","ended_at":"2014-07-06T12:00:00.000+09:00","limit_number":null,"address":"東京都品川区大崎1-11-1","place":"ゲートシティ大崎B1アトリウムフリー座席","lat":35.6194,"lon":139.731,"state":"closed","id":null},{"event_id":"51943","title":"＜懇親会＞【日経Linux「Raspberry Piで始めるモノ作り超入門」連載】読者交流会＆ハッカソン","url":"https://atnd.org/events/51943","shortener_url":null,"started_at":"2014-07-05T17:00:00.000+09:00","ended_at":"2014-07-05T19:00:00.000+09:00","limit_number":20,"address":"(東京都台東区東浅草(南千住から徒歩15分))#詳細な場所は非公開のため、メールにてお知らせします。","place":"クリエイターズシェアハウス トラブル（TOLABL）","lat":35.7232,"lon":139.8,"state":"closed","id":null},{"event_id":"52678","title":"ROBOTと遊ぼう #1","url":"https://atnd.org/events/52678","shortener_url":null,"started_at":"2014-07-05T14:00:00.000+09:00","ended_at":"2014-07-05T17:00:00.000+09:00","limit_number":10,"address":"東京都渋谷区代々木1-36-6 代々木駅前ビル7F","place":"株式会社サートプロ","lat":35.6837,"lon":139.701,"state":"closed","id":null},{"event_id":"50931","title":"【日経Linux「Raspberry Piで始めるモノ作り超入門」連載】読者交流会＆ハッカソン","url":"https://atnd.org/events/50931","shortener_url":null,"started_at":"2014-07-05T13:00:00.000+09:00","ended_at":"2014-07-05T17:00:00.000+09:00","limit_number":20,"address":"東京都台東区東浅草(南千住から徒歩15分)#詳細な場所は非公開のため、メールにてお知らせします。)","place":"クリエイターズシェアハウス トラブル（TOLABL）","lat":35.7232,"lon":139.8,"state":"closed","id":null},{"event_id":"52360","title":"第1回運動会ハッカソン / Sports Hack Day #1 in 神奈川工科大学","url":"https://atnd.org/events/52360","shortener_url":null,"started_at":"2014-07-05T11:00:00.000+09:00","ended_at":"2014-07-05T17:30:00.000+09:00","limit_number":40,"address":"〒243-0292 神奈川県厚木市下荻野1030 神奈川工科大学","place":"神奈川工科大学 KAITアリーナ","lat":35.4854,"lon":139.341,"state":"closed","id":null},{"event_id":"7510","title":"自宅ラック合宿in名古屋 2014夏","url":"https://rack.connpass.com/event/7510/","shortener_url":null,"started_at":"2014-07-19T13:00:00.000+09:00","ended_at":"2014-07-20T20:00:00.000+09:00","limit_number":16,"address":"名古屋駅","place":"名古屋某所","lat":35.1707,"lon":136.882,"state":"active","id":null},{"event_id":"7343","title":"2014年夏 第1回Dev-Camp in 八ヶ岳","url":"https://devcamp.connpass.com/event/7343/","shortener_url":null,"started_at":"2014-07-19T12:00:00.000+09:00","ended_at":"2014-07-21T14:00:00.000+09:00","limit_number":null,"address":"長野県南佐久郡南牧村海ノ口2244","place":"山小屋","lat":35.9894,"lon":138.438,"state":"active","id":null},{"event_id":"6396","title":"Dev-Camp in さいたま 2014/07/19","url":"https://devcamp.connpass.com/event/6396/","shortener_url":null,"started_at":"2014-07-19T11:00:00.000+09:00","ended_at":"2014-07-20T09:00:00.000+09:00","limit_number":12,"address":"さいたま市中央区上落合","place":"ラウンジ","lat":35.8943,"lon":139.626,"state":"active","id":null}]