[{"event_id":"5612","title":"第１回 小中学生ハッカソン (一般観覧申込)","url":"https://connpass.com/event/5612/","shortener_url":null,"started_at":"2014-03-30T19:00:00.000+09:00","ended_at":"2014-03-31T02:30:00.000+09:00","limit_number":50,"address":"東京都文京区大塚3-29-1","place":"筑波大学 東京キャンパス 文京校舎","lat":35.7198,"lon":139.737,"state":"active","id":null},{"event_id":"5543","title":"第40回 デザイナー向けプログラム部 #p4d at forkwell","url":"https://p4d.connpass.com/event/5543/","shortener_url":null,"started_at":"2014-03-20T04:30:00.000+09:00","ended_at":"2014-03-20T06:30:00.000+09:00","limit_number":8,"address":"東京都港区南青山5-6-24 (南青山ステラハウス4F　株）garbs内)","place":"Forkwell ミーティングルーム","lat":35.6637,"lon":139.712,"state":"active","id":null},{"event_id":"5360","title":"第39回 デザイナー向けプログラム部 #p4d at 万葉","url":"https://p4d.connpass.com/event/5360/","shortener_url":null,"started_at":"2014-03-07T04:30:00.000+09:00","ended_at":"2014-03-07T06:30:00.000+09:00","limit_number":10,"address":"東京都千代田区神田錦町3丁目16-11 (エルヴァージュ神田錦町8F)","place":"株式会社万葉 様","lat":35.6936,"lon":139.761,"state":"active","id":null},{"event_id":"4823","title":"関東LibreOfficeハッカソン(#2) \u0026 DocFest 2014 Tokyo/Spring","url":"https://kantolibo.connpass.com/event/4823/","shortener_url":null,"started_at":"2014-03-02T21:00:00.000+09:00","ended_at":"2014-03-03T06:00:00.000+09:00","limit_number":30,"address":"東京都千代田区麹町三丁目６番地 (麹町ビル３号館)","place":"KDDIウエブコミュニケーションズ 6Fセミナールーム","lat":35.6846,"lon":139.738,"state":"active","id":null},{"event_id":"48134","title":"ハッカソン(仮) プロコンのモックとかプロトタイプとかがメイン","url":"https://atnd.org/events/48134","shortener_url":null,"started_at":"2014-03-31T00:00:00.000+09:00","ended_at":"2014-04-02T08:59:59.000+09:00","limit_number":99999999,"address":"","place":"未定(募集)","lat":null,"lon":null,"state":"closed","id":null},{"event_id":"49083","title":"第141回オフライン開発ミーティング","url":"https://atnd.org/events/49083","shortener_url":null,"started_at":"2014-03-30T10:00:00.000+09:00","ended_at":"2014-03-30T12:00:00.000+09:00","limit_number":null,"address":"東京都品川区大崎1-11-1","place":"ゲートシティ大崎B1アトリウムフリー座席","lat":35.6194,"lon":139.731,"state":"closed","id":null},{"event_id":"48635","title":"EPSON Moverio ハッカソン in 埼玉","url":"https://atnd.org/events/48635","shortener_url":null,"started_at":"2014-03-29T10:00:00.000+09:00","ended_at":"2014-03-29T18:00:00.000+09:00","limit_number":12,"address":"埼玉県さいたま市大宮区宮町1-5 銀座ビル7階","place":"コワーキングスペース７F","lat":35.9077,"lon":139.625,"state":"closed","id":null},{"event_id":"48818","title":"第140回オフライン開発ミーティング","url":"https://atnd.org/events/48818","shortener_url":null,"started_at":"2014-03-23T10:00:00.000+09:00","ended_at":"2014-03-23T12:00:00.000+09:00","limit_number":null,"address":"東京都品川区大崎1-11-1","place":"ゲートシティ大崎B1アトリウムフリー座席","lat":35.6194,"lon":139.731,"state":"closed","id":null},{"event_id":"47338","title":"【お台場で開催！】GIFTHON信州-ギフトソン-","url":"https://atnd.org/events/47338","shortener_url":null,"started_at":"2014-03-21T13:00:00.000+09:00","ended_at":"2014-03-30T18:00:00.000+09:00","limit_number":30,"address":"東京都江東区青海二丁目5番10号 テレコムセンタービル東棟14階","place":"MONO","lat":35.6191,"lon":139.783,"state":"closed","id":null},{"event_id":"48686","title":"第139回オフライン開発ミーティング","url":"https://atnd.org/events/48686","shortener_url":null,"started_at":"2014-03-16T10:00:00.000+09:00","ended_at":"2014-03-16T12:00:00.000+09:00","limit_number":null,"address":"東京都品川区大崎1-11-1","place":"ゲートシティ大崎B1アトリウムフリー座席","lat":35.6194,"lon":139.731,"state":"closed","id":null},{"event_id":"47969","title":"天神Perl #7","url":"https://atnd.org/events/47969","shortener_url":null,"started_at":"2014-03-15T13:00:00.000+09:00","ended_at":"2014-03-15T18:00:00.000+09:00","limit_number":8,"address":"福岡県福岡市中央区天神4-8-2 天神ビルプラス8F","place":"株式会社イーハイブ","lat":33.595,"lon":130.4,"state":"closed","id":null},{"event_id":"48122","title":"Hour of code 〜 App Inventor 2 ハンズオン on 20140315 〜 ","url":"https://atnd.org/events/48122","shortener_url":null,"started_at":"2014-03-15T11:00:00.000+09:00","ended_at":"2014-03-15T12:00:00.000+09:00","limit_number":10,"address":"大阪市北区中崎西2-3-35","place":"ECCコンピュータ専門学校 3号館7階 3702号室","lat":34.7065,"lon":135.503,"state":"closed","id":null},{"event_id":"47933","title":"Firefox OS大喜利ハッカソン","url":"https://atnd.org/events/47933","shortener_url":null,"started_at":"2014-03-15T09:30:00.000+09:00","ended_at":"2014-03-15T19:00:00.000+09:00","limit_number":20,"address":"東京都港区六本木 7-5-6","place":"Mozilla Japan","lat":35.6652,"lon":139.728,"state":"closed","id":null},{"event_id":"47166","title":"【増員！】【#TechBuzz】第20回Unity開発技術勉強会　〜PostProcessBuild 周りのお話 / 生理的快感の実現とSmoothMovesの活用～200万DLガチャウォリアーズの技術 〜 ","url":"https://atnd.org/events/47166","shortener_url":null,"started_at":"2014-03-14T19:30:00.000+09:00","ended_at":"2014-03-14T22:00:00.000+09:00","limit_number":120,"address":"東京都新宿区新宿5丁目18番20号","place":"TechBuzzSpace（新宿オミビル4階）","lat":35.694,"lon":139.706,"state":"closed","id":null},{"event_id":"47092","title":"Windows 8 Developers 第４回カンファレンス","url":"https://atnd.org/events/47092","shortener_url":null,"started_at":"2014-03-14T19:00:00.000+09:00","ended_at":"2014-03-14T21:00:00.000+09:00","limit_number":120,"address":"東京都港区港南 2-16-3","place":"Microsoft 品川オフィス","lat":35.6266,"lon":139.741,"state":"closed","id":null},{"event_id":"48322","title":"第138回オフライン開発ミーティング","url":"https://atnd.org/events/48322","shortener_url":null,"started_at":"2014-03-09T10:00:00.000+09:00","ended_at":"2014-03-09T12:00:00.000+09:00","limit_number":null,"address":"東京都品川区大崎1-11-1","place":"ゲートシティ大崎B1アトリウムフリー座席","lat":35.6194,"lon":139.731,"state":"closed","id":null},{"event_id":"48079","title":"横須賀市防災情報オープンデータ ハッカソン","url":"https://atnd.org/events/48079","shortener_url":null,"started_at":"2014-03-08T13:00:00.000+09:00","ended_at":"2014-03-08T17:15:00.000+09:00","limit_number":null,"address":"神奈川県横須賀市光の丘3番4号","place":"YRPセンター1番館2階第1会議室","lat":35.2236,"lon":139.674,"state":"closed","id":null},{"event_id":"47562","title":"ハッカソン #2","url":"https://atnd.org/events/47562","shortener_url":null,"started_at":"2014-03-08T13:00:00.000+09:00","ended_at":"2014-03-08T20:00:00.000+09:00","limit_number":20,"address":"東京都新宿区新宿5-18-20 新宿オミビル4階","place":"TechBuzzSpace","lat":35.6939,"lon":139.706,"state":"closed","id":null},{"event_id":"48305","title":"日本Androidの会秋葉原支部ロボット部　第24回勉強会","url":"https://atnd.org/events/48305","shortener_url":null,"started_at":"2014-03-08T12:00:00.000+09:00","ended_at":"2014-03-08T17:30:00.000+09:00","limit_number":10,"address":"千代田区神田紺屋町37番地 今井ビル3F","place":"ギークハウス神田秋葉原","lat":35.693,"lon":139.774,"state":"closed","id":null},{"event_id":"48013","title":"Hour of code 〜 App Inventor 2 ハンズオン on 20140308〜","url":"https://atnd.org/events/48013","shortener_url":null,"started_at":"2014-03-08T11:00:00.000+09:00","ended_at":"2014-03-08T12:00:00.000+09:00","limit_number":10,"address":"大阪市北区中崎西2-3-35","place":"ECCコンピュータ専門学校 3号館4階 3402号室","lat":34.7065,"lon":135.503,"state":"closed","id":null},{"event_id":"48138","title":"第137回オフライン開発ミーティング","url":"https://atnd.org/events/48138","shortener_url":null,"started_at":"2014-03-02T10:00:00.000+09:00","ended_at":"2014-03-02T12:00:00.000+09:00","limit_number":null,"address":"東京都品川区大崎1-11-1","place":"ゲートシティ大崎B1アトリウムフリー座席","lat":35.6194,"lon":139.731,"state":"closed","id":null},{"event_id":"47667","title":"第3回トークソン","url":"https://atnd.org/events/47667","shortener_url":null,"started_at":"2014-03-02T10:00:00.000+09:00","ended_at":"2014-03-02T18:00:00.000+09:00","limit_number":12,"address":"東京都中央区新川 1-3-4 PAビル5F","place":"コワーキングスペース茅場町 Co-Edo","lat":35.6786,"lon":139.782,"state":"closed","id":null},{"event_id":"47950","title":"スマートグラス ハッカソン 2013 in Winter (横浜支部 第３回)","url":"https://atnd.org/events/47950","shortener_url":null,"started_at":"2014-03-01T13:00:00.000+09:00","ended_at":"2014-03-01T17:00:00.000+09:00","limit_number":5,"address":"横浜市中区相生町3-61","place":"さくらWORKS","lat":35.4467,"lon":139.638,"state":"closed","id":null},{"event_id":"47551","title":"第1回アプリ開発作業会","url":"https://atnd.org/events/47551","shortener_url":null,"started_at":"2014-03-01T13:00:00.000+09:00","ended_at":"2014-03-01T18:00:00.000+09:00","limit_number":20,"address":"東京都新宿区新宿5-18-20 オミビル 4F","place":"TechBuzz Space","lat":35.6939,"lon":139.706,"state":"closed","id":null},{"event_id":"48360","title":"【名古屋】第25回iPhoneアプリ開発勉強会","url":"https://atnd.org/events/48360","shortener_url":null,"started_at":"2014-03-15T13:00:00.000+09:00","ended_at":"2014-03-15T18:00:00.000+09:00","limit_number":30,"address":"愛知県名古屋市中村区名駅3丁目18−5  モンマートビル5F","place":"コワーキングスペース「ベースキャンプ名古屋」","lat":35.1728,"lon":136.887,"state":"closed","id":null},{"event_id":"5622","title":"Dev-Camp in さいたま 2014/03/23","url":"https://connpass.com/event/5622/","shortener_url":null,"started_at":"2014-03-23T11:00:00.000+09:00","ended_at":"2014-03-24T09:00:00.000+09:00","limit_number":null,"address":"埼玉県さいたま市中央区新都心1番地5","place":"さいたま赤十字病院","lat":35.899,"lon":139.623,"state":"active","id":null},{"event_id":"5588","title":"Dev-Camp in さいたま 2014/03/15 (BLE開発とか)","url":"https://connpass.com/event/5588/","shortener_url":null,"started_at":"2014-03-15T17:00:00.000+09:00","ended_at":"2014-03-16T15:00:00.000+09:00","limit_number":null,"address":"埼玉県さいたま市中央区新都心1番地5","place":"さいたま赤十字病院","lat":35.899,"lon":139.623,"state":"active","id":null},{"event_id":"4797","title":"Python ボルダリング部 #39 豊田ボルダー合宿","url":"https://kabepy.connpass.com/event/4797/","shortener_url":null,"started_at":"2014-03-21T10:00:00.000+09:00","ended_at":"2014-03-23T17:00:00.000+09:00","limit_number":null,"address":"愛知県豊田市","place":"豊田の岩場","lat":35.0824,"lon":137.156,"state":"active","id":null}]