[{"event_id":"4829","title":"第36回 デザイナー向けプログラム部 #p4d at forkwell","url":"https://p4d.connpass.com/event/4829/","shortener_url":null,"started_at":"2014-01-24T04:30:00.000+09:00","ended_at":"2014-01-24T06:30:00.000+09:00","limit_number":8,"address":"東京都港区南青山5-6-24 (南青山ステラハウス4F　株）garbs内)","place":"Forkwell ミーティングルーム","lat":35.6637,"lon":139.712,"state":"active","id":null},{"event_id":"4845","title":"第二回 もくもく会 in Gwave Incubate","url":"https://connpass.com/event/4845/","shortener_url":null,"started_at":"2014-01-25T13:00:00.000+09:00","ended_at":"2014-01-25T18:00:00.000+09:00","limit_number":20,"address":"沖縄県那覇市古波蔵2-18-14","place":"ギークハウス沖縄","lat":26.2002,"lon":127.688,"state":"active","id":null},{"event_id":"4739","title":"日本Androidの会浜松支部　第33回ミーティング #jaghama","url":"https://connpass.com/event/4739/","shortener_url":null,"started_at":"2014-01-19T10:00:00.000+09:00","ended_at":"2014-01-19T17:00:00.000+09:00","limit_number":10,"address":"静岡県浜松市中区海老塚2-18-28-1E","place":"ジョーカーピース株式会社","lat":34.6972,"lon":137.731,"state":"active","id":null},{"event_id":"4733","title":"pylons/pyramidはっかそん2014.1","url":"https://pylons.connpass.com/event/4733/","shortener_url":null,"started_at":"2014-01-25T21:00:00.000+09:00","ended_at":"2014-01-26T04:00:00.000+09:00","limit_number":10,"address":"東京都渋谷区千駄ヶ谷5-32-7 (NOF南新宿ビル4F)","place":"Be Proud 会議室","lat":35.6864,"lon":139.704,"state":"active","id":null},{"event_id":"4624","title":"第35回 デザイナー向けプログラム部 #p4d at 万葉","url":"https://p4d.connpass.com/event/4624/","shortener_url":null,"started_at":"2014-01-10T04:30:00.000+09:00","ended_at":"2014-01-10T06:30:00.000+09:00","limit_number":8,"address":"東京都千代田区神田錦町3丁目16-11 (エルヴァージュ神田錦町8F)","place":"株式会社万葉 様","lat":35.6936,"lon":139.761,"state":"active","id":null},{"event_id":"4557","title":"Gugenハッカソン vol.1「未来の先生を作る」","url":"https://connpass.com/event/4557/","shortener_url":null,"started_at":"2014-01-18T22:00:00.000+09:00","ended_at":"2014-01-19T04:00:00.000+09:00","limit_number":30,"address":"東京都港区港南１丁目８−３５","place":"コクヨ株式会社　品川オフィス５Ｆ　エコライブオフィス","lat":35.6303,"lon":139.743,"state":"active","id":null},{"event_id":"4516","title":"年越しソン","url":"https://connpass.com/event/4516/","shortener_url":null,"started_at":"2014-01-01T06:00:00.000+09:00","ended_at":"2014-01-01T16:00:00.000+09:00","limit_number":20,"address":"ネットの届く場所","place":"オンライン","lat":null,"lon":null,"state":"active","id":null},{"event_id":"47287","title":"第132回オフライン開発ミーティング","url":"https://atnd.org/events/47287","shortener_url":null,"started_at":"2014-01-26T10:00:00.000+09:00","ended_at":"2014-01-26T12:00:00.000+09:00","limit_number":null,"address":"東京都品川区大崎1-11-1","place":"ゲートシティ大崎B1アトリウムフリー座席","lat":35.6194,"lon":139.731,"state":"closed","id":null},{"event_id":"47014","title":"Hachioji.pm #37","url":"https://atnd.org/events/47014","shortener_url":null,"started_at":"2014-01-25T18:00:00.000+09:00","ended_at":"2014-01-28T08:59:59.000+09:00","limit_number":20,"address":"東京都八王子市中町10-14 町田ビル 2F","place":"タイラーンナー","lat":35.6579,"lon":139.335,"state":"closed","id":null},{"event_id":"47047","title":"情報科学若手の会冬の陣2014","url":"https://atnd.org/events/47047","shortener_url":null,"started_at":"2014-01-25T14:00:00.000+09:00","ended_at":"2014-01-25T18:00:00.000+09:00","limit_number":75,"address":"東京都千代田区神田神保町1丁目105 神保町三井ビルディング 17F","place":"インターネットイニシアティブ ","lat":35.6942,"lon":139.76,"state":"closed","id":null},{"event_id":"46869","title":"第2回トークソン","url":"https://atnd.org/events/46869","shortener_url":null,"started_at":"2014-01-25T11:00:00.000+09:00","ended_at":"2014-01-25T18:00:00.000+09:00","limit_number":10,"address":"東京都中央区新川 1-3-4 PAビル5F","place":"コワーキングスペース茅場町 Co-Edo","lat":35.6786,"lon":139.782,"state":"closed","id":null},{"event_id":"47179","title":"スマートグラス ハッカソン 2013 in Winter (横浜支部 第２回)","url":"https://atnd.org/events/47179","shortener_url":null,"started_at":"2014-01-25T10:00:00.000+09:00","ended_at":"2014-01-25T17:00:00.000+09:00","limit_number":15,"address":"横浜市神奈川区鶴屋町2-17","place":"岩崎学園 情報科学専門学校","lat":35.468,"lon":139.622,"state":"closed","id":null},{"event_id":"46352","title":"ちょっぴり新春 Firefox OS ハッカソン","url":"https://atnd.org/events/46352","shortener_url":null,"started_at":"2014-01-25T10:00:00.000+09:00","ended_at":"2014-01-25T20:00:00.000+09:00","limit_number":20,"address":"東京都港区六本木 7-5-6","place":"Mozilla Japan","lat":35.6652,"lon":139.728,"state":"closed","id":null},{"event_id":"46724","title":"Global Game jam 2014 大阪会場","url":"https://atnd.org/events/46724","shortener_url":null,"started_at":"2014-01-24T18:00:00.000+09:00","ended_at":"2014-01-26T18:00:00.000+09:00","limit_number":null,"address":"大阪府大阪市北区大深町3番1号 ナレッジキャピタル北館7階ナレッジサロン","place":"ナレッジサロン","lat":34.702,"lon":135.492,"state":"closed","id":null},{"event_id":"47003","title":"Shinjuku-GGJ14 参加申込はこちら","url":"https://atnd.org/events/47003","shortener_url":null,"started_at":"2014-01-24T17:00:00.000+09:00","ended_at":"2014-01-26T18:00:00.000+09:00","limit_number":30,"address":"東京都新宿区新宿5丁目18番20号","place":"TechBuzzSpace（新宿オミビル4階）","lat":35.694,"lon":139.706,"state":"closed","id":null},{"event_id":"46957","title":"Global Game Jam 横浜青葉台Jam","url":"https://atnd.org/events/46957","shortener_url":null,"started_at":"2014-01-24T17:00:00.000+09:00","ended_at":"2014-01-26T20:00:00.000+09:00","limit_number":6,"address":"神奈川県横浜市青葉区しらとり台11-11","place":"Global Game Jam 横浜青葉台会場","lat":35.5388,"lon":139.513,"state":"closed","id":null},{"event_id":"46548","title":"【#TechBuzz】大好評！第16回Shinjuku.cocos2d-x 〜少人数ハンズオン勉強会〜 新しい物理演算クラスの利用 ","url":"https://atnd.org/events/46548","shortener_url":null,"started_at":"2014-01-23T19:30:00.000+09:00","ended_at":"2014-01-23T22:00:00.000+09:00","limit_number":30,"address":"東京都新宿区新宿5丁目18番20号","place":"TechBuzzSpace（新宿オミビル4階）","lat":35.694,"lon":139.706,"state":"closed","id":null},{"event_id":"47163","title":"日本Androidの会 大分支部 第22回勉強会","url":"https://atnd.org/events/47163","shortener_url":null,"started_at":"2014-01-19T14:00:00.000+09:00","ended_at":"2014-01-19T16:30:00.000+09:00","limit_number":20,"address":"大分県大分市金池南一丁目5番1号","place":"ホルトホール大分 301会議室","lat":33.2304,"lon":131.606,"state":"closed","id":null},{"event_id":"47064","title":"第131回オフライン開発ミーティング","url":"https://atnd.org/events/47064","shortener_url":null,"started_at":"2014-01-19T10:00:00.000+09:00","ended_at":"2014-01-19T12:00:00.000+09:00","limit_number":null,"address":"東京都品川区大崎1-11-1","place":"ゲートシティ大崎B1アトリウムフリー座席","lat":35.6194,"lon":139.731,"state":"closed","id":null},{"event_id":"46393","title":"【関西】【1/18】Unityクリエイターズ勉強会","url":"https://atnd.org/events/46393","shortener_url":null,"started_at":"2014-01-18T13:30:00.000+09:00","ended_at":"2014-01-18T17:00:00.000+09:00","limit_number":80,"address":"大阪府大阪市北区中崎西1丁目4−12","place":"ECCコンピュータ専門学校3号館","lat":34.7064,"lon":135.504,"state":"closed","id":null},{"event_id":"47042","title":"天神Perl #5","url":"https://atnd.org/events/47042","shortener_url":null,"started_at":"2014-01-18T13:00:00.000+09:00","ended_at":"2014-01-18T18:00:00.000+09:00","limit_number":8,"address":"福岡県福岡市中央区天神4-8-2 天神ビルプラス8F","place":"株式会社イーハイブ","lat":33.595,"lon":130.4,"state":"closed","id":null},{"event_id":"46549","title":"受付は12:55から開始致します！【#TechBuzz】全6回でCorona Developerになろう！Code Less, Play More !　CoronaSDKで簡単にアプリを作ろう♪#4","url":"https://atnd.org/events/46549","shortener_url":null,"started_at":"2014-01-18T13:00:00.000+09:00","ended_at":"2014-01-18T15:00:00.000+09:00","limit_number":20,"address":"東京都新宿区新宿5丁目18番20号","place":"TechBuzzSpace（新宿オミビル4階）","lat":35.694,"lon":139.706,"state":"closed","id":null},{"event_id":"46560","title":"Unity \u0026 PhotonCloudを使って、オンラインゲームを作っちゃおう【GGJ緊急対策編】- 福岡・博多 -","url":"https://atnd.org/events/46560","shortener_url":null,"started_at":"2014-01-17T19:30:00.000+09:00","ended_at":"2014-01-17T21:30:00.000+09:00","limit_number":15,"address":"福岡県福岡市博多区博多駅東1丁目12-3","place":"サンライフホテル","lat":33.5903,"lon":130.423,"state":"closed","id":null},{"event_id":"46426","title":"浜見寮でハッカソンします！！","url":"https://atnd.org/events/46426","shortener_url":null,"started_at":"2014-01-17T11:00:00.000+09:00","ended_at":"2014-01-19T13:00:00.000+09:00","limit_number":15,"address":"神奈川県藤沢市辻堂東海岸4丁目10浜見寮","place":"浜見寮","lat":35.3199,"lon":139.458,"state":"closed","id":null},{"event_id":"46547","title":"第11回shinjuku.cocos2d-x 〜初心者ハンズオン勉強会〜 cocos2d-xを利用したクロスプラットフォーム開発環境構築","url":"https://atnd.org/events/46547","shortener_url":null,"started_at":"2014-01-16T19:30:00.000+09:00","ended_at":"2014-01-16T22:00:00.000+09:00","limit_number":30,"address":"東京都新宿区新宿5丁目18番20号","place":"TechBuzzSpace（新宿オミビル4階）","lat":35.694,"lon":139.706,"state":"closed","id":null},{"event_id":"46934","title":"第130回オフライン開発ミーティング","url":"https://atnd.org/events/46934","shortener_url":null,"started_at":"2014-01-12T10:00:00.000+09:00","ended_at":"2014-01-12T12:00:00.000+09:00","limit_number":null,"address":"東京都品川区大崎1-11-1","place":"ゲートシティ大崎B1アトリウムフリー座席","lat":35.6194,"lon":139.731,"state":"closed","id":null},{"event_id":"46327","title":"横浜でAndroidっぽい新年会（2014）","url":"https://atnd.org/events/46327","shortener_url":null,"started_at":"2014-01-10T19:00:00.000+09:00","ended_at":"2014-01-10T22:00:00.000+09:00","limit_number":20,"address":"神奈川県横浜市西区みなとみらい3-6-1 みなとみらいセンタービル11F","place":"株式会社アットウェア横浜本社","lat":35.4576,"lon":139.633,"state":"closed","id":null},{"event_id":"46822","title":"making of FabLab秋葉原 #4","url":"https://atnd.org/events/46822","shortener_url":null,"started_at":"2014-01-04T20:30:00.000+09:00","ended_at":"2014-01-04T22:00:00.000+09:00","limit_number":null,"address":"東京都千代田区外神田3-10-12 日加石油ビル2F","place":"RM burger\u0026break akiba style","lat":35.7008,"lon":139.771,"state":"closed","id":null},{"event_id":"47395","title":"EPSON Moverio ハッカソン","url":"https://atnd.org/events/47395","shortener_url":null,"started_at":"2014-01-01T00:00:00.000+09:00","ended_at":"2014-01-03T08:59:59.000+09:00","limit_number":15,"address":"埼玉県さいたま市大宮区宮町1-5 銀座ビル7階","place":"コワーキングスペース　７F","lat":35.9077,"lon":139.625,"state":"closed","id":null},{"event_id":"3703","title":"Python mini hack-a-thon 雪山合宿 2014","url":"https://pyhack.connpass.com/event/3703/","shortener_url":null,"started_at":"2014-01-17T13:00:00.000+09:00","ended_at":"2014-01-19T16:00:00.000+09:00","limit_number":20,"address":"長野県須坂市大字仁礼峰の原高原3153-720","place":"ペンション マウンテンパパ","lat":36.5531,"lon":138.35,"state":"active","id":null}]