[{"event_id":"8038","title":"第二回　Unity研究会","url":"https://connpass.com/event/8038/","shortener_url":null,"started_at":"2014-10-01T04:00:00.000+09:00","ended_at":"2014-10-01T06:00:00.000+09:00","limit_number":100,"address":"東京都千代田区麹町2丁目10番9号　C\u0026Rグループビル","place":"C\u0026R社本社セミナールーム","lat":35.6854,"lon":139.741,"state":"active","id":null},{"event_id":"8448","title":"SphinxCon JP 2014","url":"https://sphinxjp.connpass.com/event/8448/","shortener_url":null,"started_at":"2014-10-26T19:00:00.000+09:00","ended_at":"2014-10-27T04:00:00.000+09:00","limit_number":60,"address":"東京都渋谷区神泉町8-16渋谷ファーストプレイス8F","place":"VOYAGE GROUP","lat":35.6553,"lon":139.694,"state":"active","id":null},{"event_id":"9490","title":"関東LibreOfficeHackFest(#1) with 第119回東京エリアDebian勉強会","url":"https://kantolibo.connpass.com/event/9490/","shortener_url":null,"started_at":"2014-10-25T23:00:00.000+09:00","ended_at":"2014-10-26T04:00:00.000+09:00","limit_number":30,"address":"東京都新宿区新宿6丁目27番30号(新宿イーストサイドスクエア)","place":"株式会社スクウェア・エニックス セミナールーム","lat":35.6968,"lon":139.709,"state":"active","id":null},{"event_id":"9150","title":"10/18渋谷milkcocoaハッカソン（飛び入り参加、見学オッケーです）","url":"https://connpass.com/event/9150/","shortener_url":null,"started_at":"2014-10-18T19:00:00.000+09:00","ended_at":"2014-10-19T04:00:00.000+09:00","limit_number":30,"address":"東京都渋谷区道玄坂2-10-12 (新大宗ビル9F)","place":"新大宗ビル9F","lat":35.6587,"lon":139.698,"state":"active","id":null},{"event_id":"9321","title":"おはようからおやすみまでハッカソン","url":"https://connpass.com/event/9321/","shortener_url":null,"started_at":"2014-10-18T09:00:00.000+09:00","ended_at":"2014-10-19T03:30:00.000+09:00","limit_number":4,"address":"","place":"","lat":null,"lon":null,"state":"active","id":null},{"event_id":"8239","title":"帰ってきた24時間耐久ハッカソン@東京","url":"https://connpass.com/event/8239/","shortener_url":null,"started_at":"2014-10-11T20:00:00.000+09:00","ended_at":"2014-10-12T20:00:00.000+09:00","limit_number":null,"address":"西武豊島園駅","place":"あくらる宅","lat":35.7419,"lon":139.648,"state":"active","id":null},{"event_id":"9215","title":"短期開発に効くスクラム勉強会","url":"https://connpass.com/event/9215/","shortener_url":null,"started_at":"2014-10-13T03:30:00.000+09:00","ended_at":"2014-10-13T06:30:00.000+09:00","limit_number":30,"address":"東京都新宿区舟町5","place":"翔泳社セミナールーム","lat":35.6896,"lon":139.722,"state":"active","id":null},{"event_id":"8236","title":"帰ってきた24時間耐久ハッカソン@名古屋","url":"https://connpass.com/event/8236/","shortener_url":null,"started_at":"2014-10-11T20:00:00.000+09:00","ended_at":"2014-10-12T20:00:00.000+09:00","limit_number":8,"address":"名古屋駅","place":"名古屋近辺の何処か","lat":35.1707,"lon":136.882,"state":"active","id":null},{"event_id":"8233","title":"Jubatus ハッカソン","url":"https://connpass.com/event/8233/","shortener_url":null,"started_at":"2014-10-04T04:00:00.000+09:00","ended_at":"2014-10-05T03:00:00.000+09:00","limit_number":50,"address":"東京都中央区銀座 4-12-15","place":"歌舞伎座タワー 14F セミナールーム","lat":35.6697,"lon":139.768,"state":"active","id":null},{"event_id":"9012","title":"佐原の大祭 前夜ハッカソン2014秋","url":"https://connpass.com/event/9012/","shortener_url":null,"started_at":"2014-10-09T15:00:00.000+09:00","ended_at":"2014-10-11T18:00:00.000+09:00","limit_number":48,"address":"千葉県香取市佐原イ511","place":"いなえ","lat":35.8895,"lon":140.497,"state":"active","id":null},{"event_id":"9056","title":"スタートアップの草創期/成長期で活躍できるエンジニア向け勉強会","url":"https://connpass.com/event/9056/","shortener_url":null,"started_at":"2014-10-09T19:00:00.000+09:00","ended_at":"2014-10-09T21:00:00.000+09:00","limit_number":5,"address":"東京都新宿区高田馬場1-6-16 ユニオンビル3階","place":"株式会社wizpra","lat":35.7116,"lon":139.708,"state":"active","id":null},{"event_id":"8488","title":"みんつむ Beta 2: まだまだ間に合う「レスポンシブWebデザインをつくる\u0026学ぶ」","url":"https://tsumugu.connpass.com/event/8488/","shortener_url":null,"started_at":"2014-10-18T22:00:00.000+09:00","ended_at":"2014-10-19T04:00:00.000+09:00","limit_number":30,"address":"東京都新宿区高田馬場1-28-10 (三慶ビル4F)","place":"CASE Shinjuku","lat":35.7121,"lon":139.705,"state":"active","id":null},{"event_id":"8792","title":"データフェスト","url":"https://datafest.connpass.com/event/8792/","shortener_url":null,"started_at":"2014-10-04T19:00:00.000+09:00","ended_at":"2014-10-06T04:00:00.000+09:00","limit_number":30,"address":"東京都港区港南２−１５−２品川インターシティB棟１０階","place":"富士通ラーニングメディア ＣＯ☆ＰＩＴ（品川駅徒歩３分）","lat":35.6263,"lon":139.742,"state":"active","id":null},{"event_id":"8539","title":"ふりーだむハッカソン@なごーや","url":"https://connpass.com/event/8539/","shortener_url":null,"started_at":"2014-10-11T09:00:00.000+09:00","ended_at":"2014-10-12T09:00:00.000+09:00","limit_number":5,"address":"","place":"","lat":null,"lon":null,"state":"active","id":null},{"event_id":"7492","title":"オートデスク 3D ハッカソン","url":"https://3d-design-technology.connpass.com/event/7492/","shortener_url":null,"started_at":"2014-10-04T18:30:00.000+09:00","ended_at":"2014-10-19T03:00:00.000+09:00","limit_number":40,"address":"東京都中央区晴海1-8-10 晴海アイランド トリトンスクエア オフィスタワーX 24F","place":"オートデスク株式会社　24階 特設会場","lat":35.6564,"lon":139.782,"state":"active","id":null},{"event_id":"57065","title":"【増員!!】【#TechBuzz】第26回Unity勉強会 〜non-game Unityの貴公子・TeamLabすぎっちょ登壇ツツツ！ / Unity+RubyOnRailsでノンストップネットワークの構築","url":"https://atnd.org/events/57065","shortener_url":null,"started_at":"2014-10-30T19:30:00.000+09:00","ended_at":"2014-10-30T22:00:00.000+09:00","limit_number":70,"address":"東京都新宿区新宿5丁目18番20号","place":"TechBuzzSpace（新宿オミビル4階）","lat":35.694,"lon":139.706,"state":"closed","id":null},{"event_id":"56295","title":"インテル ソフトウェア・カンファレンス 2014 東京 Day 1 - IoT Day -","url":"https://atnd.org/events/56295","shortener_url":null,"started_at":"2014-10-30T10:00:00.000+09:00","ended_at":"2014-10-30T18:00:00.000+09:00","limit_number":400,"address":"〒108-8611 東京都港区高輪4-10-30","place":" 品川プリンスホテル アネックスタワー 5 F プリンスホール ","lat":35.628,"lon":139.735,"state":"closed","id":null},{"event_id":"58043","title":"【残席わずか】クックパッドの新たな挑戦！社内ベンチャーの心意気・エンジニアリングとは？【交流会あり】","url":"https://atnd.org/events/58043","shortener_url":null,"started_at":"2014-10-29T19:30:00.000+09:00","ended_at":"2014-10-29T21:30:00.000+09:00","limit_number":10,"address":"東京都渋谷区道玄坂1-14-6 ヒューマックス渋谷ビル3F","place":"イベントスペース 21cafe＜ニイイチカフェ＞","lat":35.6573,"lon":139.698,"state":"closed","id":null},{"event_id":"57617","title":"みんなのラズパイコンテスト ハッカソン","url":"https://atnd.org/events/57617","shortener_url":null,"started_at":"2014-10-26T13:00:00.000+09:00","ended_at":"2014-10-26T19:00:00.000+09:00","limit_number":15,"address":"石川県野々市市扇が丘3-9","place":"cafe? IKAGAWA DO (五十川堂) ","lat":36.5299,"lon":136.624,"state":"closed","id":null},{"event_id":"58163","title":"第167回オフライン開発ミーティング","url":"https://atnd.org/events/58163","shortener_url":null,"started_at":"2014-10-26T10:00:00.000+09:00","ended_at":"2014-10-26T12:00:00.000+09:00","limit_number":null,"address":"東京都品川区大崎1-11-1","place":"ゲートシティ大崎B1アトリウムフリー座席","lat":35.6194,"lon":139.731,"state":"closed","id":null},{"event_id":"57768","title":"第３回　ふくしまの市を開催します。","url":"https://atnd.org/events/57768","shortener_url":null,"started_at":"2014-10-26T10:00:00.000+09:00","ended_at":"2014-10-26T15:00:00.000+09:00","limit_number":null,"address":"福島県福島市栄町5-1","place":"中合ツイン広場","lat":37.7535,"lon":140.462,"state":"closed","id":null},{"event_id":"57750","title":"Code for Okinawa Meetup #1","url":"https://atnd.org/events/57750","shortener_url":null,"started_at":"2014-10-25T14:00:00.000+09:00","ended_at":"2014-10-28T08:59:59.000+09:00","limit_number":null,"address":"沖縄県那覇市古波蔵2-18-14","place":"ギークハウス沖縄","lat":26.2002,"lon":127.688,"state":"closed","id":null},{"event_id":"55012","title":"第16回 tottoruby","url":"https://atnd.org/events/55012","shortener_url":null,"started_at":"2014-10-25T13:30:00.000+09:00","ended_at":"2014-10-25T17:00:00.000+09:00","limit_number":20,"address":"鳥取県鳥取市扇町7","place":"フコク生命ビル7F","lat":35.493,"lon":134.226,"state":"closed","id":null},{"event_id":"57492","title":"Pure Dataパッチングサークル東京 Vol.7","url":"https://atnd.org/events/57492","shortener_url":null,"started_at":"2014-10-25T13:00:00.000+09:00","ended_at":"2014-10-25T18:00:00.000+09:00","limit_number":null,"address":"東京都新宿区新宿5-18-20 新宿オミビル4階","place":"HatchUp","lat":35.6939,"lon":139.706,"state":"closed","id":null},{"event_id":"56691","title":"ハツカソン(2014年10月20日) - 毎月20日は #ハツカソン","url":"https://atnd.org/events/56691","shortener_url":null,"started_at":"2014-10-20T00:00:00.000+09:00","ended_at":"2014-10-20T23:59:00.000+09:00","limit_number":null,"address":"","place":"各自で","lat":null,"lon":null,"state":"closed","id":null},{"event_id":"56570","title":"WS7. ディーンとIMAを語ろう！Discussion of IMA activities","url":"https://atnd.org/events/56570","shortener_url":null,"started_at":"2014-10-19T17:00:00.000+09:00","ended_at":"2014-10-19T18:00:00.000+09:00","limit_number":20,"address":"東京都台東区台東2-26-8 若林ハイム Taito-ku Taito2-26-8 Tokyo","place":"若林ハイム2F Wakabayashi Heim 2F","lat":35.7049,"lon":139.778,"state":"closed","id":null},{"event_id":"56634","title":"WS6. オープン・ヨガ Open Yoga","url":"https://atnd.org/events/56634","shortener_url":null,"started_at":"2014-10-19T16:00:00.000+09:00","ended_at":"2014-10-19T17:00:00.000+09:00","limit_number":15,"address":"東京都台東区台東2-26-8 若林ハイム Taito-ku Taito2-26-8 Tokyo","place":"若林ハイム2F Wakabayashi Heim 2F","lat":35.7049,"lon":139.778,"state":"closed","id":null},{"event_id":"57581","title":"同期ツクール ver1.0","url":"https://atnd.org/events/57581","shortener_url":null,"started_at":"2014-10-19T15:00:00.000+09:00","ended_at":"2014-10-19T20:00:00.000+09:00","limit_number":8,"address":"大阪府大阪市福島区福島8丁目3−15","place":"ロックオフ","lat":34.6946,"lon":135.481,"state":"closed","id":null},{"event_id":"56590","title":"WS5. 日々の生活自分の健康に責任を持つということ The Real 24-7: Taking Responsibility for Our Health.","url":"https://atnd.org/events/56590","shortener_url":null,"started_at":"2014-10-19T15:00:00.000+09:00","ended_at":"2014-10-19T16:00:00.000+09:00","limit_number":20,"address":"東京都台東区台東2-26-8 Taito-ku Taito 2-26-8, Tokyo","place":"若林ハイム2F","lat":35.7049,"lon":139.778,"state":"closed","id":null},{"event_id":"56589","title":"WS4. ジェネシス・アート Genesis Art","url":"https://atnd.org/events/56589","shortener_url":null,"started_at":"2014-10-19T14:00:00.000+09:00","ended_at":"2014-10-19T15:00:00.000+09:00","limit_number":12,"address":"東京都台東区台東2-26-8 Taito-ku Taito 2-26-8, Tokyo","place":"若林ハイム2F","lat":35.7049,"lon":139.778,"state":"closed","id":null},{"event_id":"56588","title":"WS3. バイリンガル・コメディシアター Comedy Bilingual Theatre","url":"https://atnd.org/events/56588","shortener_url":null,"started_at":"2014-10-19T13:00:00.000+09:00","ended_at":"2014-10-19T14:00:00.000+09:00","limit_number":15,"address":"東京都台東区台東2-26-8 Taito-ku Taito 2-26-8, Tokyo","place":"若林ハイム2F","lat":35.7049,"lon":139.778,"state":"closed","id":null},{"event_id":"56571","title":"WS2. フィリピン武道 Filipino Martial Arts","url":"https://atnd.org/events/56571","shortener_url":null,"started_at":"2014-10-19T12:00:00.000+09:00","ended_at":"2014-10-19T13:00:00.000+09:00","limit_number":15,"address":"東京都台東区台東2-26-8 若林ハイム Taito-ku Taito2-26-8 Tokyo","place":"若林ハイム2F Wakabayashi Heim 2F","lat":35.7049,"lon":139.778,"state":"closed","id":null},{"event_id":"56558","title":"WS1. タオヨガ TaoYoga ","url":"https://atnd.org/events/56558","shortener_url":null,"started_at":"2014-10-19T11:00:00.000+09:00","ended_at":"2014-10-19T12:00:00.000+09:00","limit_number":15,"address":"東京都台東区台東2-26-8 Taito-ku Taito 2-26-8, Tokyo","place":"若林ハイム2F","lat":35.7049,"lon":139.778,"state":"closed","id":null},{"event_id":"57897","title":"第166回オフライン開発ミーティング","url":"https://atnd.org/events/57897","shortener_url":null,"started_at":"2014-10-19T10:00:00.000+09:00","ended_at":"2014-10-19T12:00:00.000+09:00","limit_number":null,"address":"東京都品川区大崎1-11-1","place":"ゲートシティ大崎B1アトリウムフリー座席","lat":35.6194,"lon":139.731,"state":"closed","id":null},{"event_id":"57267","title":"10月18日(10/18)大阪コンパ合コン飲み会","url":"https://atnd.org/events/57267","shortener_url":null,"started_at":"2014-10-18T20:30:00.000+09:00","ended_at":"2014-10-18T22:30:00.000+09:00","limit_number":null,"address":"大阪市中央区心斎橋筋2-6-8 シャンペンジャムビル4F","place":"心斎橋LOGIC(ロジック)","lat":34.6701,"lon":135.501,"state":"closed","id":null},{"event_id":"57616","title":"第4回 北陸ARM U.G. 勉強会 \u0026 みんなのラズパイコンテスト アイデアソン","url":"https://atnd.org/events/57616","shortener_url":null,"started_at":"2014-10-18T14:00:00.000+09:00","ended_at":"2014-10-18T19:00:00.000+09:00","limit_number":15,"address":"石川県野々市市扇が丘3-9","place":"cafe? IKAGAWA DO (五十川堂)","lat":36.5299,"lon":136.624,"state":"closed","id":null},{"event_id":"57353","title":"airuiuハッカソン","url":"https://atnd.org/events/57353","shortener_url":null,"started_at":"2014-10-18T11:00:00.000+09:00","ended_at":"2014-10-18T21:00:00.000+09:00","limit_number":null,"address":"京大正門前バス停付近","place":"airuiu","lat":35.0252,"lon":135.779,"state":"closed","id":null},{"event_id":"57403","title":"日本Androidの会香川支部 第15回定例会","url":"https://atnd.org/events/57403","shortener_url":null,"started_at":"2014-10-15T19:00:00.000+09:00","ended_at":"2014-10-15T19:30:00.000+09:00","limit_number":8,"address":"","place":"株式会社ザムウ事務所","lat":null,"lon":null,"state":"closed","id":null},{"event_id":"57501","title":"日本Androidの会秋葉原支部ロボット部　第30回勉強会","url":"https://atnd.org/events/57501","shortener_url":null,"started_at":"2014-10-13T12:00:00.000+09:00","ended_at":"2014-10-13T18:00:00.000+09:00","limit_number":10,"address":"東京都板橋区蓮沼町34-1 innovation Garage","place":"Robotma.com（ろぼとまどっとこむ）","lat":35.7703,"lon":139.706,"state":"closed","id":null},{"event_id":"57116","title":"IoTapp（あいおーてぃーあっぷ）勉強会 #4","url":"https://atnd.org/events/57116","shortener_url":null,"started_at":"2014-10-12T13:00:00.000+09:00","ended_at":"2014-10-12T16:30:00.000+09:00","limit_number":20,"address":"東京都千代田区外神田3-10-12 日加石油ビル2F","place":"RMバーガー","lat":35.7008,"lon":139.771,"state":"closed","id":null},{"event_id":"57429","title":"第165回オフライン開発ミーティング","url":"https://atnd.org/events/57429","shortener_url":null,"started_at":"2014-10-12T10:00:00.000+09:00","ended_at":"2014-10-12T12:00:00.000+09:00","limit_number":null,"address":"東京都品川区大崎1-11-1","place":"ゲートシティ大崎B1アトリウムフリー座席","lat":35.6194,"lon":139.731,"state":"closed","id":null},{"event_id":"57149","title":"International Women’s Hackathon 2014, Japan","url":"https://atnd.org/events/57149","shortener_url":null,"started_at":"2014-10-10T09:00:00.000+09:00","ended_at":"2014-10-10T19:30:00.000+09:00","limit_number":30,"address":"東京都文京区大塚2-1-1","place":"お茶の水女子大学 理学部3号館2階会議室","lat":35.7188,"lon":139.733,"state":"closed","id":null},{"event_id":"57361","title":"スタートアップの草創期/成長期で活躍できるエンジニア向け勉強会","url":"https://atnd.org/events/57361","shortener_url":null,"started_at":"2014-10-09T19:00:00.000+09:00","ended_at":"2014-10-09T21:00:00.000+09:00","limit_number":5,"address":"東京都新宿区高田馬場1-6-16ユニオンビル3階","place":"株式会社wizpra","lat":35.7116,"lon":139.708,"state":"closed","id":null},{"event_id":"54160","title":"3rd Dialogue for Global Innovation  on Urban Mobility, Smart Energy and Healthcare focussed at Risk Management of Advanced Science \u0026 Technology","url":"https://atnd.org/events/54160","shortener_url":null,"started_at":"2014-10-07T09:00:00.000+09:00","ended_at":"2014-10-07T18:00:00.000+09:00","limit_number":200,"address":"ams AG  Tobelbader Strasse 30 A-8141 Unterpremstaetten, Austria","place":"ams AG ","lat":46.9769,"lon":15.3962,"state":"closed","id":null},{"event_id":"57092","title":"第164回オフライン開発ミーティング","url":"https://atnd.org/events/57092","shortener_url":null,"started_at":"2014-10-05T12:00:00.000+09:00","ended_at":"2014-10-08T08:59:59.000+09:00","limit_number":null,"address":"東京都品川区大崎1-11-1","place":"ゲートシティ大崎B1アトリウムフリー座席","lat":35.6194,"lon":139.731,"state":"closed","id":null},{"event_id":"56164","title":"休日はさぁ〜、ゆる〜くプログラミングしようぜぃ","url":"https://atnd.org/events/56164","shortener_url":null,"started_at":"2014-10-04T11:00:00.000+09:00","ended_at":"2014-10-04T18:00:00.000+09:00","limit_number":15,"address":"東京都新宿区百人町1-17-6 成田ビル 301","place":"株式会社ゼノフィ 本社","lat":35.7015,"lon":139.697,"state":"closed","id":null},{"event_id":"56508","title":"Welcome Hortonworks in Japan - Enterprise Hadoop の実力 –","url":"https://atnd.org/events/56508","shortener_url":null,"started_at":"2014-10-02T15:00:00.000+09:00","ended_at":"2014-10-02T19:00:00.000+09:00","limit_number":60,"address":"東京都港区港南 2-16-3 品川グランドセントラルタワー","place":"日本マイクロソフト　１F Open Seminar Room","lat":35.6267,"lon":139.74,"state":"closed","id":null},{"event_id":"55613","title":"PANDA-ITミーティング","url":"https://atnd.org/events/55613","shortener_url":null,"started_at":"2014-10-25T13:00:00.000+09:00","ended_at":"2014-10-28T08:59:59.000+09:00","limit_number":null,"address":"","place":"","lat":null,"lon":null,"state":"closed","id":null},{"event_id":"56835","title":" 良い子が育つ子育て習慣","url":"https://atnd.org/events/56835","shortener_url":null,"started_at":"2014-10-05T14:00:00.000+09:00","ended_at":"2014-10-08T08:59:59.000+09:00","limit_number":30,"address":"埼玉県さいたま市南区別所7-20-1","place":"SOUTH PEER内　武蔵浦和コミュニティセンター 第1集会室","lat":35.8452,"lon":139.645,"state":"closed","id":null}]