[{"event_id":"39217","title":"第25回GDG中国勉強会＠岡山","url":"https://gdgchugoku.connpass.com/event/39217/","shortener_url":null,"started_at":"2014-06-21T10:00:00.000+09:00","ended_at":"2014-06-21T18:00:00.000+09:00","limit_number":30,"address":"岡山県岡山市奉還町２丁目１４－７","place":"りぶらホールB 3F","lat":34.6692,"lon":133.916,"state":"active","id":null},{"event_id":"18935","title":"Android Wear Hackathon in Shinshu","url":"https://gdg-shinshu.connpass.com/event/18935/","shortener_url":null,"started_at":"2014-06-21T01:00:00.000+09:00","ended_at":"2014-06-21T08:00:00.000+09:00","limit_number":10,"address":"長野県塩尻市大門一番町１２－２","place":"えんぱーく302会議室","lat":36.112,"lon":137.953,"state":"active","id":null},{"event_id":"6551","title":"GDG Shikoku - Android Ware Hackathon in Shikoku","url":"https://gdgshikoku.connpass.com/event/6551/","shortener_url":null,"started_at":"2014-06-15T01:00:00.000+09:00","ended_at":"2014-06-15T08:00:00.000+09:00","limit_number":10,"address":"香川県高松市サンポート2-1","place":"e-とぴあ・かがわ","lat":34.3527,"lon":134.047,"state":"active","id":null},{"event_id":"6923","title":"第46回 デザイナー向けプログラム部 #p4d at イグニス","url":"https://p4d.connpass.com/event/6923/","shortener_url":null,"started_at":"2014-06-19T19:30:00.000+09:00","ended_at":"2014-06-19T21:30:00.000+09:00","limit_number":10,"address":"東京都渋谷区恵比寿1-19-19(恵比寿ビジネスタワー12F)","place":"株式会社イグニス 様","lat":35.6476,"lon":139.713,"state":"active","id":null},{"event_id":"6846","title":"ガンダムUC観戦ハッカソン","url":"https://connpass.com/event/6846/","shortener_url":null,"started_at":"2014-06-25T13:00:00.000+09:00","ended_at":"2014-06-25T23:30:00.000+09:00","limit_number":4,"address":"","place":"","lat":null,"lon":null,"state":"active","id":null},{"event_id":"6860","title":"SCC Web Components+Polymer Hackathon","url":"https://scc.connpass.com/event/6860/","shortener_url":null,"started_at":"2014-06-14T05:00:00.000+09:00","ended_at":"2014-06-14T09:00:00.000+09:00","limit_number":6,"address":"佐賀県佐賀市呉服元町2-15","place":"COTOCO215","lat":33.2543,"lon":130.304,"state":"active","id":null},{"event_id":"6806","title":"Entertainmentハッカソン（6/28）","url":"https://connpass.com/event/6806/","shortener_url":null,"started_at":"2014-06-28T11:00:00.000+09:00","ended_at":"2014-06-28T18:00:00.000+09:00","limit_number":20,"address":"東京都中野区中央4-5-3","place":"構造計画研究所","lat":35.6978,"lon":139.668,"state":"active","id":null},{"event_id":"6643","title":"第45回 デザイナー向けプログラム部 #p4d at 万葉","url":"https://p4d.connpass.com/event/6643/","shortener_url":null,"started_at":"2014-06-05T19:30:00.000+09:00","ended_at":"2014-06-05T21:30:00.000+09:00","limit_number":8,"address":"東京都千代田区神田錦町3丁目16-11 (エルヴァージュ神田錦町8F)","place":"株式会社万葉 様","lat":35.6936,"lon":139.761,"state":"active","id":null},{"event_id":"6664","title":"Gentoo勉強会 2014-06-07","url":"https://gentoo.connpass.com/event/6664/","shortener_url":null,"started_at":"2014-06-07T15:00:00.000+09:00","ended_at":"2014-06-07T19:00:00.000+09:00","limit_number":20,"address":"","place":"フォレスト","lat":35.6479,"lon":139.745,"state":"active","id":null},{"event_id":"6457","title":"船上ハッカソン~海の上でしかできないことがある~","url":"https://connpass.com/event/6457/","shortener_url":null,"started_at":"2014-06-28T09:00:00.000+09:00","ended_at":"2014-06-28T20:30:00.000+09:00","limit_number":null,"address":"","place":"日本海","lat":null,"lon":null,"state":"active","id":null},{"event_id":"52821","title":"第152回オフライン開発ミーティング","url":"https://atnd.org/events/52821","shortener_url":null,"started_at":"2014-06-29T01:00:00.000+09:00","ended_at":"2014-06-29T03:00:00.000+09:00","limit_number":null,"address":"東京都品川区大崎1-11-1","place":"ゲートシティ大崎B1アトリウムフリー座席","lat":35.6194,"lon":139.731,"state":"closed","id":null},{"event_id":"52782","title":"第３回東北TECH道場　会津会場","url":"https://atnd.org/events/52782","shortener_url":null,"started_at":"2014-06-28T04:00:00.000+09:00","ended_at":"2014-06-28T09:00:00.000+09:00","limit_number":25,"address":"","place":"M11","lat":null,"lon":null,"state":"closed","id":null},{"event_id":"52570","title":"日本Androidの会秋葉原支部ロボット部　第27回勉強会","url":"https://atnd.org/events/52570","shortener_url":null,"started_at":"2014-06-28T03:00:00.000+09:00","ended_at":"2014-06-28T08:30:00.000+09:00","limit_number":13,"address":"東京都足立区千住旭町5","place":"東京電機大学東京千住キャンパス　東京電機大学 航空技術研究部　（創業支援施設「かけはし」内　2階の最奥左側225室）","lat":35.7481,"lon":139.806,"state":"closed","id":null},{"event_id":"52393","title":"テックヒルズ×iBeacon ハッカソン【ハンズオンも同時開催】","url":"https://atnd.org/events/52393","shortener_url":null,"started_at":"2014-06-28T02:00:00.000+09:00","ended_at":"2014-06-28T13:00:00.000+09:00","limit_number":30,"address":"東京都港区六本木6-10-1 六本木ヒルズ38階","place":"CROOZ株式会社","lat":35.6605,"lon":139.729,"state":"closed","id":null},{"event_id":"50192","title":"◯資料URLあり◯【満員御礼170名‼︎】【#TechBuzz】第22回Unity勉強会 Unityを使って１日でアプリを完成させる為には / 「宴」実装時に得られたUnityプログラムノウハウ＋4.5追記 / ほか","url":"https://atnd.org/events/50192","shortener_url":null,"started_at":"2014-06-27T10:30:00.000+09:00","ended_at":"2014-06-27T13:00:00.000+09:00","limit_number":170,"address":"東京都新宿区新宿5丁目18番20号","place":"TechBuzzSpace（新宿オミビル4階）","lat":35.694,"lon":139.706,"state":"closed","id":null},{"event_id":"51752","title":"Aizu.vim #02","url":"https://atnd.org/events/51752","shortener_url":null,"started_at":"2014-06-22T04:00:00.000+09:00","ended_at":"2014-06-22T10:00:00.000+09:00","limit_number":20,"address":"福島県会津若松市一箕町鶴賀","place":"会津大学 コンピュータ演習室5","lat":37.5208,"lon":139.938,"state":"closed","id":null},{"event_id":"51471","title":"第1回ニコニコ学会β宇宙研究会 #nngspace #ニコニコ学会","url":"https://atnd.org/events/51471","shortener_url":null,"started_at":"2014-06-22T04:00:00.000+09:00","ended_at":"2014-06-22T08:00:00.000+09:00","limit_number":200,"address":"東京都江東区三好4-1-1","place":"東京都現代美術館","lat":35.6797,"lon":139.808,"state":"closed","id":null},{"event_id":"52506","title":"第151回オフライン開発ミーティング","url":"https://atnd.org/events/52506","shortener_url":null,"started_at":"2014-06-22T01:00:00.000+09:00","ended_at":"2014-06-22T03:00:00.000+09:00","limit_number":null,"address":"東京都品川区大崎1-11-1","place":"ゲートシティ大崎B1アトリウムフリー座席","lat":35.6194,"lon":139.731,"state":"closed","id":null},{"event_id":"50983","title":"第2回朝食レシピを作ろう (ジャム編）","url":"https://atnd.org/events/50983","shortener_url":null,"started_at":"2014-06-21T04:00:00.000+09:00","ended_at":"2014-06-21T07:10:00.000+09:00","limit_number":null,"address":"東京都新宿区下落合4丁目6−7","place":"落合第一センター（3階調理室）","lat":35.7187,"lon":139.695,"state":"closed","id":null},{"event_id":"51897","title":"Xperia™ Wearable Hackathon","url":"https://atnd.org/events/51897","shortener_url":null,"started_at":"2014-06-21T02:00:00.000+09:00","ended_at":"2014-06-22T09:00:00.000+09:00","limit_number":30,"address":"東京都中央区銀座7-2-6 リクルートアネックス1ビル B1F","place":"リクルートメディアテクノロジーラボ","lat":35.6709,"lon":139.761,"state":"closed","id":null},{"event_id":"51879","title":"Code for　SAITAMA アイデアソン","url":"https://atnd.org/events/51879","shortener_url":null,"started_at":"2014-06-21T01:00:00.000+09:00","ended_at":"2014-06-21T08:00:00.000+09:00","limit_number":50,"address":"さいたま市中央区上落合2-3-2","place":"新都心ビジネス交流プラザ4F D会議室","lat":35.8907,"lon":139.628,"state":"closed","id":null},{"event_id":"52352","title":"Miyashita-Lab Hackathon #001","url":"https://atnd.org/events/52352","shortener_url":null,"started_at":"2014-06-21T00:00:00.000+09:00","ended_at":"2014-06-21T12:00:00.000+09:00","limit_number":20,"address":"","place":"宮下研究室 1017","lat":null,"lon":null,"state":"closed","id":null},{"event_id":"51778","title":"2014年雨季青葉山発火ソン","url":"https://atnd.org/events/51778","shortener_url":null,"started_at":"2014-06-21T00:00:00.000+09:00","ended_at":"2014-06-23T23:59:59.000+09:00","limit_number":null,"address":"","place":"","lat":null,"lon":null,"state":"closed","id":null},{"event_id":"51880","title":"Ext JS 5.0 24Hハッカソン","url":"https://atnd.org/events/51880","shortener_url":null,"started_at":"2014-06-20T12:00:00.000+09:00","ended_at":"2014-06-21T12:00:00.000+09:00","limit_number":10,"address":"東京都新宿区百人町1-17-6 成田ビル 301","place":"株式会社ゼノフィ 本社","lat":35.7015,"lon":139.697,"state":"closed","id":null},{"event_id":"51835","title":"6月20日(6/20)大阪コンパ合コン飲み会","url":"https://atnd.org/events/51835","shortener_url":null,"started_at":"2014-06-20T11:30:00.000+09:00","ended_at":"2014-06-20T13:30:00.000+09:00","limit_number":null,"address":"大阪市中央区心斎橋筋2-6-8 シャンペンジャムビル4F","place":"心斎橋LOGIC(ロジック)","lat":34.6701,"lon":135.501,"state":"closed","id":null},{"event_id":"51446","title":"日本Androidの会香川支部 第11回定例会","url":"https://atnd.org/events/51446","shortener_url":null,"started_at":"2014-06-18T10:00:00.000+09:00","ended_at":"2014-06-18T10:30:00.000+09:00","limit_number":8,"address":"香川県高松市サンポート2番1号","place":"e-とぴあかがわ　５Fスタジオサロン","lat":34.3527,"lon":134.047,"state":"closed","id":null},{"event_id":"52305","title":"第150回オフライン開発ミーティング","url":"https://atnd.org/events/52305","shortener_url":null,"started_at":"2014-06-15T01:00:00.000+09:00","ended_at":"2014-06-15T03:00:00.000+09:00","limit_number":null,"address":"東京都品川区大崎1-11-1","place":"ゲートシティ大崎B1アトリウムフリー座席","lat":35.6194,"lon":139.731,"state":"closed","id":null},{"event_id":"51410","title":"Xperia™ Wearable Hackathon","url":"https://atnd.org/events/51410","shortener_url":null,"started_at":"2014-06-14T02:00:00.000+09:00","ended_at":"2014-06-15T09:00:00.000+09:00","limit_number":30,"address":"大阪市北区大深町3番1号 グランフロント大阪 ナレッジキャピタルタワーC 7階","place":"大阪イノベーションハブ","lat":34.7053,"lon":135.495,"state":"closed","id":null},{"event_id":"51409","title":"EPSON Moverio ハッカソン in 埼玉 Part2","url":"https://atnd.org/events/51409","shortener_url":null,"started_at":"2014-06-14T01:00:00.000+09:00","ended_at":"2014-06-14T08:00:00.000+09:00","limit_number":10,"address":"埼玉県さいたま市大宮区宮町1-5 銀座ビル7階","place":"コワーキングスペース７F","lat":35.9077,"lon":139.625,"state":"closed","id":null},{"event_id":"51321","title":"【学生限定開発キャンプ】TOKYO HACKATHON","url":"https://atnd.org/events/51321","shortener_url":null,"started_at":"2014-06-14T01:00:00.000+09:00","ended_at":"2014-06-15T11:00:00.000+09:00","limit_number":30,"address":"東京都港区南青山2-11-17 第一法規本社ビル 3F","place":"【東京】Goodfindセミナールーム ","lat":35.6715,"lon":139.722,"state":"closed","id":null},{"event_id":"51481","title":"\u003chtmlday\u003e HTML5 API ハッカソン at タネマキ","url":"https://atnd.org/events/51481","shortener_url":null,"started_at":"2014-06-13T13:30:00.000+09:00","ended_at":"2014-06-14T09:00:00.000+09:00","limit_number":8,"address":"神奈川県横浜市西区岡野1-3-10 1F","place":"タネマキ","lat":35.4611,"lon":139.616,"state":"closed","id":null},{"event_id":"51957","title":"ユニティちゃんGameJam直前！Photonワークショップ【特別編】  - 東京・渋谷 -","url":"https://atnd.org/events/51957","shortener_url":null,"started_at":"2014-06-11T10:30:00.000+09:00","ended_at":"2014-06-11T12:30:00.000+09:00","limit_number":30,"address":"東京都東京都渋谷区桜丘町26-1 セルリアンタワー11階","place":"セルリアンタワー","lat":35.6565,"lon":139.699,"state":"closed","id":null},{"event_id":"51878","title":"Code for SAITAMA  ミニアイデアソン","url":"https://atnd.org/events/51878","shortener_url":null,"started_at":"2014-06-11T10:00:00.000+09:00","ended_at":"2014-06-11T13:00:00.000+09:00","limit_number":30,"address":"","place":"コワーキングスペース　Office ７F","lat":null,"lon":null,"state":"closed","id":null},{"event_id":"51093","title":"Hour of code 〜 App Inventor 2 ハンズオン on 20140608 〜 ","url":"https://atnd.org/events/51093","shortener_url":null,"started_at":"2014-06-08T02:00:00.000+09:00","ended_at":"2014-06-08T03:00:00.000+09:00","limit_number":10,"address":"大阪市北区中崎西2-3-35","place":"ECCコンピュータ専門学校 3号館4階 3402号室","lat":34.7065,"lon":135.503,"state":"closed","id":null},{"event_id":"51939","title":"第149回オフライン開発ミーティング","url":"https://atnd.org/events/51939","shortener_url":null,"started_at":"2014-06-08T01:00:00.000+09:00","ended_at":"2014-06-08T03:00:00.000+09:00","limit_number":null,"address":"東京都品川区大崎1-11-1","place":"ゲートシティ大崎B1アトリウムフリー座席","lat":35.6194,"lon":139.731,"state":"closed","id":null},{"event_id":"51563","title":"【最終日】ShareLab モノづくり合宿＋勉強","url":"https://atnd.org/events/51563","shortener_url":null,"started_at":"2014-06-06T11:00:00.000+09:00","ended_at":"2014-06-06T13:00:00.000+09:00","limit_number":14,"address":"東京都千代田区外神田4丁目","place":"東京都　末広町駅 近辺","lat":35.7016,"lon":139.773,"state":"closed","id":null},{"event_id":"51562","title":"【4日目】ShareLab モノづくり合宿＋勉強","url":"https://atnd.org/events/51562","shortener_url":null,"started_at":"2014-06-05T11:00:00.000+09:00","ended_at":"2014-06-05T13:00:00.000+09:00","limit_number":14,"address":"東京都千代田区外神田4丁目","place":"東京都　末広町駅 近辺","lat":35.7016,"lon":139.773,"state":"closed","id":null},{"event_id":"51561","title":"【3日目】ShareLab モノづくり合宿＋勉強","url":"https://atnd.org/events/51561","shortener_url":null,"started_at":"2014-06-04T11:00:00.000+09:00","ended_at":"2014-06-04T13:00:00.000+09:00","limit_number":14,"address":"東京都千代田区外神田4丁目","place":"東京　末広町駅近辺","lat":35.7016,"lon":139.773,"state":"closed","id":null},{"event_id":"51560","title":"【2日目】ShareLab モノづくり合宿＋勉強","url":"https://atnd.org/events/51560","shortener_url":null,"started_at":"2014-06-03T11:00:00.000+09:00","ended_at":"2014-06-03T13:00:00.000+09:00","limit_number":14,"address":"東京都千代田区外神田4丁目","place":"東京　末広町駅近辺","lat":35.7016,"lon":139.773,"state":"closed","id":null},{"event_id":"50963","title":"GovJam Tokyo 2014","url":"https://atnd.org/events/50963","shortener_url":null,"started_at":"2014-06-03T09:00:00.000+09:00","ended_at":"2014-06-03T12:30:00.000+09:00","limit_number":10,"address":"東京都千代田区丸の内3-2-3 富士ビル3F 338区","place":"3×3Labo（さんさんラボ）","lat":35.6777,"lon":139.762,"state":"closed","id":null},{"event_id":"51559","title":"【1日目】ShareLab モノづくり合宿＋勉強","url":"https://atnd.org/events/51559","shortener_url":null,"started_at":"2014-06-02T11:00:00.000+09:00","ended_at":"2014-06-02T13:00:00.000+09:00","limit_number":14,"address":"東京都千代田区外神田4丁目","place":"東京　末広町駅近辺","lat":35.7016,"lon":139.773,"state":"closed","id":null},{"event_id":"49530","title":"Local Area Developer Conference 2014 in GEUDA, KANAZAWA","url":"https://atnd.org/events/49530","shortener_url":null,"started_at":"2014-06-02T09:00:00.000+09:00","ended_at":"2014-06-07T06:00:00.000+09:00","limit_number":10,"address":"石川県金沢市尾張町1-8-1","place":"GEUDA, General Incorporate Assosiation","lat":36.5706,"lon":136.663,"state":"closed","id":null},{"event_id":"51545","title":"第148回オフライン開発ミーティング","url":"https://atnd.org/events/51545","shortener_url":null,"started_at":"2014-06-01T01:00:00.000+09:00","ended_at":"2014-06-01T03:00:00.000+09:00","limit_number":null,"address":"東京都品川区大崎1-11-1","place":"ゲートシティ大崎B1アトリウムフリー座席","lat":35.6194,"lon":139.731,"state":"closed","id":null},{"event_id":"50214","title":"「激論」ソーシャルメディア時代のジャーナリストに必要なスキルとは何か #JCEJ ジャーナリストキャンプ2014報告会を開催します ","url":"https://atnd.org/events/50214","shortener_url":null,"started_at":"2014-06-28T05:00:00.000+09:00","ended_at":"2014-06-28T08:30:00.000+09:00","limit_number":80,"address":"東京都千代田区富士見2-17-1","place":"法政大学市ヶ谷キャンパス55年館858教室【市ヶ谷駅から徒歩10分：JR/都営新宿線/東京メトロ南北線】 （東京都千代田区富士見2-17-1）","lat":35.6956,"lon":139.741,"state":"closed","id":null},{"event_id":"6395","title":"Dev-Camp in さいたま 2014/06/14","url":"https://devcamp.connpass.com/event/6395/","shortener_url":null,"started_at":"2014-06-14T02:00:00.000+09:00","ended_at":"2014-06-15T00:00:00.000+09:00","limit_number":null,"address":"さいたま市中央区上落合","place":"ラウンジ","lat":35.8943,"lon":139.626,"state":"active","id":null}]