[{"event_id":"9404","title":"NCMB勉強会 #5「Unity」","url":"https://ncmb.connpass.com/event/9404/","shortener_url":null,"started_at":"2014-11-11T10:00:00.000+09:00","ended_at":"2014-11-11T13:00:00.000+09:00","limit_number":82,"address":"東京都新宿区北新宿2-21-1（新宿フロントタワー）","place":"FJCT セミナールーム（18階受付）","lat":35.6961,"lon":139.689,"state":"active","id":null},{"event_id":"9888","title":"Gentoo勉強会 2014-11-15","url":"https://gentoo.connpass.com/event/9888/","shortener_url":null,"started_at":"2014-11-15T15:00:00.000+09:00","ended_at":"2014-11-15T19:00:00.000+09:00","limit_number":20,"address":"東京都港区芝 3-24-7 芝エクセージビルディング5階","place":"ミラクル・リナックス 本館オフィス5F","lat":35.6512,"lon":139.748,"state":"active","id":null},{"event_id":"9662","title":"東銀座Pebbleハッカソン","url":"https://netoken.connpass.com/event/9662/","shortener_url":null,"started_at":"2014-11-22T13:00:00.000+09:00","ended_at":"2014-11-22T18:00:00.000+09:00","limit_number":35,"address":"東京都中央区銀座4-12-15","place":"ドワンゴ セミナールーム（歌舞伎座タワー 14F）","lat":35.6697,"lon":139.768,"state":"active","id":null},{"event_id":"9773","title":"【Swift】ペアペアキャンプ【対戦型脳トレゲーム編】","url":"https://connpass.com/event/9773/","shortener_url":null,"started_at":"2014-11-16T12:00:00.000+09:00","ended_at":"2014-11-16T21:30:00.000+09:00","limit_number":10,"address":"東京都渋谷区恵比寿南１丁目21-22(レジデンス恵比寿302)","place":"レジデンス恵比寿","lat":35.6437,"lon":139.711,"state":"active","id":null},{"event_id":"9520","title":"第4回Unity講座＆Game Jam in 仙台","url":"https://connpass.com/event/9520/","shortener_url":null,"started_at":"2014-11-09T00:00:00.000+09:00","ended_at":"2014-11-09T09:00:00.000+09:00","limit_number":60,"address":"宮城県仙台市青葉区本町2-11-10","place":"専門学校デジタルアーツ仙台","lat":38.2652,"lon":140.876,"state":"active","id":null},{"event_id":"9501","title":"約24時間耐久「第1回華麗にシャチクソン」@五反田","url":"https://shachiku.connpass.com/event/9501/","shortener_url":null,"started_at":"2014-11-07T20:00:00.000+09:00","ended_at":"2014-11-08T19:00:00.000+09:00","limit_number":15,"address":"東京都品川区西五反田8-2-12(フラッツ増沢５B)","place":"株式会社ジェネストリーム","lat":35.6229,"lon":139.721,"state":"active","id":null},{"event_id":"9820","title":"IoT Kyoto Vol.6 第７回 モノとインターネットがつなぐ未来","url":"https://connpass.com/event/9820/","shortener_url":null,"started_at":"2014-11-28T10:00:00.000+09:00","ended_at":"2014-11-28T12:00:00.000+09:00","limit_number":null,"address":"","place":"オンライン","lat":35.0003,"lon":135.757,"state":"active","id":null},{"event_id":"9329","title":"ジンジャエール処理系ハッカソン","url":"https://gingerhack.connpass.com/event/9329/","shortener_url":null,"started_at":"2014-11-03T10:00:00.000+09:00","ended_at":"2014-11-03T18:30:00.000+09:00","limit_number":8,"address":"東京都田端駅","place":"ハッカソンハウス(集合は田端駅)","lat":35.7381,"lon":139.761,"state":"active","id":null},{"event_id":"9491","title":"Docker Global Hack Day #2 - Tokyo Edition","url":"https://dockerjp.connpass.com/event/9491/","shortener_url":null,"started_at":"2014-11-01T02:00:00.000+09:00","ended_at":"2014-11-03T10:00:00.000+09:00","limit_number":16,"address":"東京都港区白金台 3-19-6 白金台ビル3F","place":"Wantedlyオフィス","lat":35.635,"lon":139.721,"state":"active","id":null},{"event_id":"9495","title":"「Unityでアプリ制作！ 広告・ゲームアプリ ＵＩ実践講座」","url":"https://connpass.com/event/9495/","shortener_url":null,"started_at":"2014-11-01T05:00:00.000+09:00","ended_at":"2014-11-01T09:00:00.000+09:00","limit_number":11,"address":"東京都千代田区麹町2丁目10番9号　C\u0026Rグループビル","place":"C\u0026R社本社セミナールーム","lat":35.6854,"lon":139.741,"state":"active","id":null},{"event_id":"9233","title":"「Live2D　× Unity　野望編」　ClubPEC Jam 11.1","url":"https://connpass.com/event/9233/","shortener_url":null,"started_at":"2014-11-01T02:00:00.000+09:00","ended_at":"2014-11-01T04:30:00.000+09:00","limit_number":80,"address":"東京都千代田区麹町2丁目10番9号　C\u0026Rグループビル","place":"C\u0026R社本社セミナールーム","lat":35.6854,"lon":139.741,"state":"active","id":null},{"event_id":"9148","title":"pylons/pyramidはっかそん2014.11","url":"https://pylons.connpass.com/event/9148/","shortener_url":null,"started_at":"2014-11-01T12:00:00.000+09:00","ended_at":"2014-11-01T19:00:00.000+09:00","limit_number":15,"address":"東京都渋谷区千駄ヶ谷5-32-7 (NOF南新宿ビル4F)","place":"Be Proud 会議室","lat":35.6864,"lon":139.704,"state":"active","id":null},{"event_id":"59639","title":"第172回オフライン開発ミーティング","url":"https://atnd.org/events/59639","shortener_url":null,"started_at":"2014-11-30T01:00:00.000+09:00","ended_at":"2014-11-30T03:00:00.000+09:00","limit_number":null,"address":"東京都品川区大崎1-11-1","place":"ゲートシティ大崎B1アトリウムフリー座席","lat":35.6194,"lon":139.731,"state":"closed","id":null},{"event_id":"58929","title":"AngularJS ハッカソン","url":"https://atnd.org/events/58929","shortener_url":null,"started_at":"2014-11-30T01:00:00.000+09:00","ended_at":"2014-11-30T11:00:00.000+09:00","limit_number":35,"address":"東京都渋谷区東1-2-20 住友不動産渋谷ファーストタワー7F","place":"株式会社ミクシィ","lat":35.658,"lon":139.709,"state":"closed","id":null},{"event_id":"58903","title":"11月29日(11/29)心斎橋コンパ合コン飲み会","url":"https://atnd.org/events/58903","shortener_url":null,"started_at":"2014-11-29T11:30:00.000+09:00","ended_at":"2014-11-29T13:30:00.000+09:00","limit_number":null,"address":"大阪市中央区心斎橋筋2-6-8 シャンペンジャムビル4F","place":"心斎橋LOGIC(ロジック)","lat":34.6701,"lon":135.501,"state":"closed","id":null},{"event_id":"59483","title":"ペッパソン #1","url":"https://atnd.org/events/59483","shortener_url":null,"started_at":"2014-11-29T04:00:00.000+09:00","ended_at":"2014-11-29T09:00:00.000+09:00","limit_number":5,"address":"東京都港区港南2-16-2","place":"株式会社ブリリアントサービス 会議室","lat":35.6272,"lon":139.741,"state":"closed","id":null},{"event_id":"58932","title":"第３回名古屋Swiftハッカソン（Swift初心者向けワークショップもあり）","url":"https://atnd.org/events/58932","shortener_url":null,"started_at":"2014-11-29T01:00:00.000+09:00","ended_at":"2014-12-01T23:59:59.000+09:00","limit_number":20,"address":"愛知県名古屋市中区栄 2-2-23 アーク白川公園ビルディング7F","place":"MYCAFE（マイカフェ）伏見本店","lat":35.1674,"lon":136.9,"state":"closed","id":null},{"event_id":"58798","title":"IoT Kyoto Vol.6 ","url":"https://atnd.org/events/58798","shortener_url":null,"started_at":"2014-11-28T10:00:00.000+09:00","ended_at":"2014-11-28T12:00:00.000+09:00","limit_number":15,"address":"京都府京都市下京区岩戸山町440 3F","place":"コワーキングスペース小脇","lat":35.0003,"lon":135.757,"state":"closed","id":null},{"event_id":"57896","title":"第2回 多重化クリエイソン - Multiplex Creathon #2","url":"https://atnd.org/events/57896","shortener_url":null,"started_at":"2014-11-28T04:00:00.000+09:00","ended_at":"2014-11-28T08:00:00.000+09:00","limit_number":10,"address":"川崎市中原区小杉町 1-403 武蔵小杉タワープレイス 23F 株式会社 富士通ソーシアルサイエンスラボラトリ","place":"Innovation Lab （富士通SSL）","lat":35.5776,"lon":139.658,"state":"closed","id":null},{"event_id":"58835","title":"第1回チームラボによるPepperモーション制作ハッカソン 11/25","url":"https://atnd.org/events/58835","shortener_url":null,"started_at":"2014-11-25T09:00:00.000+09:00","ended_at":"2014-11-25T12:00:00.000+09:00","limit_number":16,"address":"東京都千代田区外神田6丁目11-14","place":"アトリエ秋葉原 ＠3331  http://www.3331.jp/access/","lat":35.7042,"lon":139.771,"state":"closed","id":null},{"event_id":"59425","title":"Machida.pm #4","url":"https://atnd.org/events/59425","shortener_url":null,"started_at":"2014-11-24T06:00:00.000+09:00","ended_at":"2014-11-24T10:00:00.000+09:00","limit_number":10,"address":"東京都町田市 鶴間1685-2","place":"東京湯河原温泉　万葉の湯","lat":35.5075,"lon":139.477,"state":"closed","id":null},{"event_id":"59391","title":"第171回オフライン開発ミーティング","url":"https://atnd.org/events/59391","shortener_url":null,"started_at":"2014-11-23T01:00:00.000+09:00","ended_at":"2014-11-23T03:00:00.000+09:00","limit_number":null,"address":"東京都品川区大崎1-11-1","place":"ゲートシティ大崎B1アトリウムフリー座席","lat":35.6194,"lon":139.731,"state":"closed","id":null},{"event_id":"57534","title":"ニコ技Pepperハッカソン 15:30-　 #ntpepper","url":"https://atnd.org/events/57534","shortener_url":null,"started_at":"2014-11-22T06:30:00.000+09:00","ended_at":"2014-11-22T09:30:00.000+09:00","limit_number":20,"address":"〒101-0021 東京都千代田区外神田6丁目11-14","place":"アルデバラン・アトリエ秋葉原 with SoftBank","lat":35.7043,"lon":139.771,"state":"closed","id":null},{"event_id":"57532","title":"ニコ技Pepperハッカソン 13:00-　 #ntpepper","url":"https://atnd.org/events/57532","shortener_url":null,"started_at":"2014-11-22T04:00:00.000+09:00","ended_at":"2014-11-22T06:00:00.000+09:00","limit_number":20,"address":"〒101-0021 東京都千代田区外神田6丁目11-14","place":"アルデバラン・アトリエ秋葉原 with SoftBank","lat":35.7043,"lon":139.771,"state":"closed","id":null},{"event_id":"58009","title":"ハツカソン(2014年11月20日) - 毎月20日は #ハツカソン","url":"https://atnd.org/events/58009","shortener_url":null,"started_at":"2014-11-19T15:00:00.000+09:00","ended_at":"2014-11-20T14:59:00.000+09:00","limit_number":null,"address":"","place":"各自で","lat":null,"lon":null,"state":"closed","id":null},{"event_id":"59181","title":"第170回オフライン開発ミーティング","url":"https://atnd.org/events/59181","shortener_url":null,"started_at":"2014-11-16T01:00:00.000+09:00","ended_at":"2014-11-16T03:00:00.000+09:00","limit_number":null,"address":"東京都品川区大崎1-11-1","place":"ゲートシティ大崎B1アトリウムフリー座席","lat":35.6194,"lon":139.731,"state":"closed","id":null},{"event_id":"58867","title":"『Open Web Board』 『Gluin』  ハンズオン＆ラピッドプロトタイピング","url":"https://atnd.org/events/58867","shortener_url":null,"started_at":"2014-11-15T01:30:00.000+09:00","ended_at":"2014-11-15T09:00:00.000+09:00","limit_number":25,"address":"大阪府大阪市中央区城見2-2-72","place":"KDDI大阪ビル（受付1階 10時より）","lat":34.693,"lon":135.534,"state":"closed","id":null},{"event_id":"57776","title":"IoTapp（あいおーてぃーあっぷ）勉強会 #5","url":"https://atnd.org/events/57776","shortener_url":null,"started_at":"2014-11-09T04:00:00.000+09:00","ended_at":"2014-11-09T07:30:00.000+09:00","limit_number":20,"address":"東京都千代田区外神田3-10-12 日加石油ビル2F","place":"RMバーガー","lat":35.7008,"lon":139.771,"state":"closed","id":null},{"event_id":"58695","title":"第169回オフライン開発ミーティング","url":"https://atnd.org/events/58695","shortener_url":null,"started_at":"2014-11-09T01:00:00.000+09:00","ended_at":"2014-11-09T03:00:00.000+09:00","limit_number":null,"address":"東京都品川区大崎1-11-1","place":"ゲートシティ大崎B1アトリウムフリー座席","lat":35.6194,"lon":139.731,"state":"closed","id":null},{"event_id":"58403","title":"デザイナー視点でFirefox OSアプリをつくってみよう","url":"https://atnd.org/events/58403","shortener_url":null,"started_at":"2014-11-08T04:00:00.000+09:00","ended_at":"2014-11-08T08:00:00.000+09:00","limit_number":35,"address":"東京都千代田区飯田橋3-10-10","place":"KDDI 飯田橋本社ビル（1Fロビー受付 12:30〜）","lat":35.7005,"lon":139.751,"state":"closed","id":null},{"event_id":"57236","title":"第1回 多重化クリエイソン - Multiplex Creathon #1","url":"https://atnd.org/events/57236","shortener_url":null,"started_at":"2014-11-07T04:00:00.000+09:00","ended_at":"2014-11-07T08:00:00.000+09:00","limit_number":10,"address":"川崎市中原区小杉町 1-403 武蔵小杉タワープレイス 23F 株式会社 富士通ソーシアルサイエンスラボラトリ","place":"Innovation Lab （富士通SSL）","lat":35.5776,"lon":139.658,"state":"closed","id":null},{"event_id":"58620","title":"日本Androidの会秋葉原支部ロボット部　第31回勉強会","url":"https://atnd.org/events/58620","shortener_url":null,"started_at":"2014-11-02T03:30:00.000+09:00","ended_at":"2014-11-02T08:30:00.000+09:00","limit_number":8,"address":"千代田区神田紺屋町37番地 今井ビル3F","place":"ギークハウス神田秋葉原","lat":35.693,"lon":139.774,"state":"closed","id":null},{"event_id":"58644","title":"第168回オフライン開発ミーティング","url":"https://atnd.org/events/58644","shortener_url":null,"started_at":"2014-11-02T01:00:00.000+09:00","ended_at":"2014-11-02T03:00:00.000+09:00","limit_number":null,"address":"東京都品川区大崎1-11-1","place":"ゲートシティ大崎B1アトリウムフリー座席","lat":35.6194,"lon":139.731,"state":"closed","id":null},{"event_id":"57670","title":"JAISTGameJam","url":"https://atnd.org/events/57670","shortener_url":null,"started_at":"2014-11-02T01:00:00.000+09:00","ended_at":"2014-11-03T10:00:00.000+09:00","limit_number":20,"address":"石川県能美市旭台1-1","place":"JAIST 知識科学研究科棟 K33","lat":36.4445,"lon":136.593,"state":"closed","id":null},{"event_id":"57987","title":"「Unityでアプリ制作！ 広告・ゲームアプリ ＵＩ実践講座」","url":"https://atnd.org/events/57987","shortener_url":null,"started_at":"2014-11-01T05:00:00.000+09:00","ended_at":"2014-11-01T09:00:00.000+09:00","limit_number":15,"address":"東京都千代田区麹町2-10-9 C\u0026Rグループビル","place":"C\u0026R社本社2Fセミナールーム","lat":35.6854,"lon":139.741,"state":"closed","id":null},{"event_id":"57038","title":"Hokkaido.pm#12","url":"https://atnd.org/events/57038","shortener_url":null,"started_at":"2014-11-01T04:30:00.000+09:00","ended_at":"2014-11-01T08:00:00.000+09:00","limit_number":22,"address":"札幌市中央区北3条西4丁目1-1 日本生命札幌ビル11F","place":"クリプトン・フューチャー・メディア株式会社 会議室","lat":43.0649,"lon":141.35,"state":"closed","id":null},{"event_id":"57283","title":"休日はさぁ〜、ゆる〜くプログラミングしようぜぃ","url":"https://atnd.org/events/57283","shortener_url":null,"started_at":"2014-11-01T02:00:00.000+09:00","ended_at":"2014-11-01T09:00:00.000+09:00","limit_number":20,"address":"〒102-0071 東京都千代田区富士見2-10-2 飯田橋グラン・ブルーム","place":"株式会社インターネットイニシアティブ","lat":35.6989,"lon":139.744,"state":"closed","id":null},{"event_id":"58140","title":"「Live2D　× Unity　野望編」　ClubPEC Jam 11.1　","url":"https://atnd.org/events/58140","shortener_url":null,"started_at":"2014-11-01T01:30:00.000+09:00","ended_at":"2014-11-01T03:30:00.000+09:00","limit_number":80,"address":"東京都千代田区麹町2-10-9 C\u0026Rグループビル","place":"C\u0026R社本社2Fセミナールーム","lat":35.6854,"lon":139.741,"state":"closed","id":null},{"event_id":"58127","title":"『Open Web Board』 『Gluin』  ハンズオン＆ラピッドプロトタイピング","url":"https://atnd.org/events/58127","shortener_url":null,"started_at":"2014-11-01T01:00:00.000+09:00","ended_at":"2014-11-01T10:00:00.000+09:00","limit_number":30,"address":"東京都千代田区飯田橋3-10-10","place":"KDDI 飯田橋本社ビル(受付１階ロビー ９:３０～）","lat":35.7005,"lon":139.751,"state":"closed","id":null},{"event_id":"56129","title":"a-blog cms Training Camp 2014 Autumn","url":"https://atnd.org/events/56129","shortener_url":null,"started_at":"2014-11-21T04:00:00.000+09:00","ended_at":"2014-11-22T03:00:00.000+09:00","limit_number":22,"address":"愛知県知多郡南知多町大字師崎字高岩57","place":"師崎荘","lat":34.7012,"lon":136.968,"state":"closed","id":null},{"event_id":"56444","title":"Zbrushよくわからん会温泉合宿　in　熱海","url":"https://atnd.org/events/56444","shortener_url":null,"started_at":"2014-11-15T03:30:00.000+09:00","ended_at":"2014-11-16T06:00:00.000+09:00","limit_number":23,"address":"静岡県熱海市熱海1993−250","place":"ホテルニューアカオ","lat":35.0865,"lon":139.082,"state":"closed","id":null},{"event_id":"9466","title":"Tokyo OpenSolaris 勉強会 2014.11 静岡合宿","url":"https://connpass.com/event/9466/","shortener_url":null,"started_at":"2014-11-22T04:00:00.000+09:00","ended_at":"2014-11-23T02:00:00.000+09:00","limit_number":null,"address":"静岡県静岡市葵区御幸町  3番地の21","place":"B-nest 静岡産学交流センター 6F 演習室4","lat":34.975,"lon":138.386,"state":"active","id":null}]