[{"event_id":"4779","title":"三保松原 世界遺産（構成資産）登録記念 マッピング・パーティ 三保 #osmtokai","url":"https://connpass.com/event/4779/","shortener_url":null,"started_at":"2014-02-22T09:30:00.000+09:00","ended_at":"2014-02-22T17:00:00.000+09:00","limit_number":20,"address":"静岡県静岡市清水区三保1074-8","place":"三保生涯学習交流館 第二会議室","lat":34.9996,"lon":138.52,"state":"active","id":null},{"event_id":"5170","title":"第38回 デザイナー向けプログラム部 #p4d at forkwell","url":"https://p4d.connpass.com/event/5170/","shortener_url":null,"started_at":"2014-02-19T19:30:00.000+09:00","ended_at":"2014-02-19T21:30:00.000+09:00","limit_number":8,"address":"東京都港区南青山5-6-24 (南青山ステラハウス4F　株）garbs内)","place":"Forkwell ミーティングルーム","lat":35.6637,"lon":139.712,"state":"active","id":null},{"event_id":"5003","title":"日本Androidの会浜松支部　第34回ミーティング #jaghama","url":"https://connpass.com/event/5003/","shortener_url":null,"started_at":"2014-02-08T01:00:00.000+09:00","ended_at":"2014-02-08T08:00:00.000+09:00","limit_number":10,"address":"静岡県浜松市中区海老塚2-18-28-1E","place":"ジョーカーピース株式会社","lat":34.6972,"lon":137.731,"state":"active","id":null},{"event_id":"5031","title":"【中止】デバイス・ハッカソン in MONO","url":"https://connpass.com/event/5031/","shortener_url":null,"started_at":"2014-02-08T13:00:00.000+09:00","ended_at":"2014-02-08T17:00:00.000+09:00","limit_number":30,"address":"東京都江東区青海二丁目5番10号(テレコムセンタービル東棟14階)","place":"MONO","lat":35.6174,"lon":139.78,"state":"active","id":null},{"event_id":"5038","title":"第37回 デザイナー向けプログラム部 #p4d at 万葉","url":"https://p4d.connpass.com/event/5038/","shortener_url":null,"started_at":"2014-02-06T19:30:00.000+09:00","ended_at":"2014-02-06T21:30:00.000+09:00","limit_number":10,"address":"東京都千代田区神田錦町3丁目16-11 (エルヴァージュ神田錦町8F)","place":"株式会社万葉 様","lat":35.6936,"lon":139.761,"state":"active","id":null},{"event_id":"5058","title":"Entertainmentハッカソン（2/23）","url":"https://connpass.com/event/5058/","shortener_url":null,"started_at":"2014-02-23T11:00:00.000+09:00","ended_at":"2014-02-23T18:00:00.000+09:00","limit_number":null,"address":"東京都中野区中央4-5-3","place":"構造計画研究所","lat":35.6978,"lon":139.668,"state":"active","id":null},{"event_id":"5062","title":"http2 ハッカソン #1","url":"https://http2study.connpass.com/event/5062/","shortener_url":null,"started_at":"2014-02-23T03:00:00.000+09:00","ended_at":"2014-02-23T09:00:00.000+09:00","limit_number":50,"address":"〒101-0051 東京都千代田区神田神保町1-105 神保町三井ビルディング","place":"株式会社インターネットイニシアティブ 17階会議室","lat":35.6942,"lon":139.76,"state":"active","id":null},{"event_id":"4714","title":"International Open Data Day 2014 in 湖西市","url":"https://connpass.com/event/4714/","shortener_url":null,"started_at":"2014-02-22T01:00:00.000+09:00","ended_at":"2014-02-22T08:00:00.000+09:00","limit_number":40,"address":"静岡県湖西市鷲津1293-4","place":"鷲津駅前事務所","lat":34.7177,"lon":137.545,"state":"active","id":null},{"event_id":"4535","title":"【中止】バレンタインソン","url":"https://connpass.com/event/4535/","shortener_url":null,"started_at":"2014-02-15T12:30:00.000+09:00","ended_at":"2014-02-15T19:30:00.000+09:00","limit_number":6,"address":"東京都渋谷区渋谷駅","place":"にゃるせ氏宅","lat":35.6585,"lon":139.701,"state":"active","id":null},{"event_id":"47825","title":"Salesforce Developer User Group [Tokyo] アイディアソン for HackChallenge（＋もくもく）","url":"https://atnd.org/events/47825","shortener_url":null,"started_at":"2014-02-28T10:00:00.000+09:00","ended_at":"2014-02-28T13:00:00.000+09:00","limit_number":35,"address":"東京都千代田区丸の内2-7-2 JPタワー12階","place":"セールスフォース・ドットコム 東京オフィス","lat":35.6798,"lon":139.765,"state":"closed","id":null},{"event_id":"48078","title":"横須賀市防災情報オープンデータ アイデアソン","url":"https://atnd.org/events/48078","shortener_url":null,"started_at":"2014-02-28T09:00:00.000+09:00","ended_at":"2014-02-28T10:30:00.000+09:00","limit_number":null,"address":"神奈川県横須賀市光の丘3番4号","place":"YRPセンター1番館2階第1会議室","lat":35.2236,"lon":139.674,"state":"closed","id":null},{"event_id":"47615","title":"The Day of D #2","url":"https://atnd.org/events/47615","shortener_url":null,"started_at":"2014-02-27T03:00:00.000+09:00","ended_at":"2014-02-28T07:00:00.000+09:00","limit_number":null,"address":"福島県磐梯町耶麻郡更科清水平6838-68","place":"アルツ磐梯スキー場","lat":37.5799,"lon":140.028,"state":"closed","id":null},{"event_id":"47286","title":"Medical × Security Hackathon 2014 / Health 2.0 Fukushima Chapter Vol. 4","url":"https://atnd.org/events/47286","shortener_url":null,"started_at":"2014-02-27T02:00:00.000+09:00","ended_at":"2014-02-28T07:00:00.000+09:00","limit_number":50,"address":"福島県耶麻郡磐梯町大字更科字清水平6838-68","place":"星野リゾート アルツ磐梯スキー場","lat":37.5799,"lon":140.028,"state":"closed","id":null},{"event_id":"47874","title":"第136回オフライン開発ミーティング","url":"https://atnd.org/events/47874","shortener_url":null,"started_at":"2014-02-23T01:00:00.000+09:00","ended_at":"2014-02-23T03:00:00.000+09:00","limit_number":null,"address":"東京都品川区大崎1-11-1","place":"ゲートシティ大崎B1アトリウムフリー座席","lat":35.6194,"lon":139.731,"state":"closed","id":null},{"event_id":"47259","title":"天神Perl #6","url":"https://atnd.org/events/47259","shortener_url":null,"started_at":"2014-02-22T04:00:00.000+09:00","ended_at":"2014-02-22T09:00:00.000+09:00","limit_number":8,"address":"福岡県福岡市中央区天神4-8-2 天神ビルプラス8F","place":"株式会社イーハイブ","lat":33.595,"lon":130.4,"state":"closed","id":null},{"event_id":"47841","title":"スマートグラス ハッカソン（第３回ハッカソン）","url":"https://atnd.org/events/47841","shortener_url":null,"started_at":"2014-02-22T01:00:00.000+09:00","ended_at":"2014-02-22T08:00:00.000+09:00","limit_number":20,"address":"熊本県熊本市中央区草葉町5−1‎","place":"熊本市中央公民館（【午前：5階 第３研修室】【午後：5階 第２研修室】）","lat":32.8046,"lon":130.715,"state":"closed","id":null},{"event_id":"46925","title":"International Open Data Day 2014 in 湖西市","url":"https://atnd.org/events/46925","shortener_url":null,"started_at":"2014-02-22T01:00:00.000+09:00","ended_at":"2014-02-22T08:00:00.000+09:00","limit_number":40,"address":"静岡県湖西市鷲津1293-4","place":"鷲津駅前事務所","lat":34.7177,"lon":137.545,"state":"closed","id":null},{"event_id":"47766","title":"第135回オフライン開発ミーティング","url":"https://atnd.org/events/47766","shortener_url":null,"started_at":"2014-02-16T01:00:00.000+09:00","ended_at":"2014-02-16T03:00:00.000+09:00","limit_number":null,"address":"東京都品川区大崎1-11-1","place":"ゲートシティ大崎B1アトリウムフリー座席","lat":35.6194,"lon":139.731,"state":"closed","id":null},{"event_id":"47021","title":"個人でハードウェア開発・製造・販売のベストプラクティスについて語る飲み会","url":"https://atnd.org/events/47021","shortener_url":null,"started_at":"2014-02-15T10:00:00.000+09:00","ended_at":"2014-02-15T12:00:00.000+09:00","limit_number":10,"address":"東京都千代田区外神田1-16-1 トゥモロービル7F","place":"甘太郎　秋葉原店","lat":35.6973,"lon":139.771,"state":"closed","id":null},{"event_id":"47796","title":"Hachioji.pm #38","url":"https://atnd.org/events/47796","shortener_url":null,"started_at":"2014-02-15T09:00:00.000+09:00","ended_at":"2014-02-17T23:59:59.000+09:00","limit_number":8,"address":"東京都八王子市旭町","place":"八王子駅南口 花の舞（多分）","lat":35.6571,"lon":139.338,"state":"closed","id":null},{"event_id":"47414","title":"福岡 冬のハッカソン祭り","url":"https://atnd.org/events/47414","shortener_url":null,"started_at":"2014-02-15T04:00:00.000+09:00","ended_at":"2014-02-15T11:00:00.000+09:00","limit_number":15,"address":"福岡県福岡市中央区大名1丁目14-28 第一松村ビル 3F","place":"AIP Cafe","lat":33.5876,"lon":130.395,"state":"closed","id":null},{"event_id":"47314","title":"Hack for Town in Aizu","url":"https://atnd.org/events/47314","shortener_url":null,"started_at":"2014-02-15T00:00:00.000+09:00","ended_at":"2014-02-16T09:00:00.000+09:00","limit_number":60,"address":"会津若松市栄町3番50号","place":"會津稽古堂","lat":37.4967,"lon":139.93,"state":"closed","id":null},{"event_id":"356","title":"Slimy Hackathon#1","url":"https://atnd.org/events/356","shortener_url":null,"started_at":"2014-02-12T08:00:00.000+09:00","ended_at":"2014-02-14T23:59:59.000+09:00","limit_number":null,"address":"","place":"","lat":null,"lon":null,"state":"closed","id":null},{"event_id":"47625","title":"第134回オフライン開発ミーティング","url":"https://atnd.org/events/47625","shortener_url":null,"started_at":"2014-02-09T01:00:00.000+09:00","ended_at":"2014-02-09T03:00:00.000+09:00","limit_number":null,"address":"東京都品川区大崎1-11-1","place":"ゲートシティ大崎B1アトリウムフリー座席","lat":35.6194,"lon":139.731,"state":"closed","id":null},{"event_id":"47361","title":"スマートグラス ハッカソン（第２回ハッカソン）","url":"https://atnd.org/events/47361","shortener_url":null,"started_at":"2014-02-09T01:00:00.000+09:00","ended_at":"2014-02-09T08:00:00.000+09:00","limit_number":20,"address":"熊本県熊本市中央区細工町2丁目25","place":"五福公民館（和室）","lat":32.7958,"lon":130.696,"state":"closed","id":null},{"event_id":"47165","title":"日本Androidの会秋葉原支部ロボット部　第23回勉強会","url":"https://atnd.org/events/47165","shortener_url":null,"started_at":"2014-02-08T03:00:00.000+09:00","ended_at":"2014-02-08T08:30:00.000+09:00","limit_number":15,"address":"東京都世田谷区代田6-11-14-G1","place":"下北沢オープンソースカフェ","lat":35.6655,"lon":139.663,"state":"closed","id":null},{"event_id":"47180","title":"アプリ開発アイデアソン","url":"https://atnd.org/events/47180","shortener_url":null,"started_at":"2014-02-08T01:30:00.000+09:00","ended_at":"2014-02-08T08:00:00.000+09:00","limit_number":30,"address":"広島市佐伯区三宅2-1-1","place":"広島工業大学　新四号館の211部屋","lat":34.3706,"lon":132.343,"state":"closed","id":null},{"event_id":"47389","title":"Global Game jam 2014 大阪 打ち上げ","url":"https://atnd.org/events/47389","shortener_url":null,"started_at":"2014-02-02T10:00:00.000+09:00","ended_at":"2014-02-04T23:59:59.000+09:00","limit_number":null,"address":"大阪府 大阪市淀川区西中島3-13-8 北中ビル 3F","place":"スノーの酒場","lat":34.7268,"lon":135.5,"state":"closed","id":null},{"event_id":"47343","title":"第133回オフライン開発ミーティング","url":"https://atnd.org/events/47343","shortener_url":null,"started_at":"2014-02-02T01:00:00.000+09:00","ended_at":"2014-02-02T03:00:00.000+09:00","limit_number":null,"address":"東京都品川区大崎1-11-1","place":"ゲートシティ大崎B1アトリウムフリー座席","lat":35.6194,"lon":139.731,"state":"closed","id":null},{"event_id":"46927","title":"Windows Azure ハッカソン","url":"https://atnd.org/events/46927","shortener_url":null,"started_at":"2014-02-01T04:00:00.000+09:00","ended_at":"2014-02-01T09:00:00.000+09:00","limit_number":15,"address":"愛知県名古屋市中区金山5丁目11-6","place":"名古屋ソフトウェアセンター","lat":35.1449,"lon":136.911,"state":"closed","id":null},{"event_id":"44052","title":"2014年02月01日『夢幻諸島から』合宿読書会","url":"https://atnd.org/events/44052","shortener_url":null,"started_at":"2014-02-01T06:00:00.000+09:00","ended_at":"2014-02-03T23:59:59.000+09:00","limit_number":15,"address":"京都府南丹市園部町新町51-1","place":"かいちや旅館","lat":35.1071,"lon":135.479,"state":"closed","id":null},{"event_id":"5040","title":"gumiWestStudy #2","url":"https://connpass.com/event/5040/","shortener_url":null,"started_at":"2014-02-14T10:00:00.000+09:00","ended_at":"2014-02-14T12:30:00.000+09:00","limit_number":30,"address":"福岡県福岡市博多区上呉服町10番10号 呉服町ビジネスセンター 5階","place":"株式会社 gumi West","lat":33.5979,"lon":130.41,"state":"active","id":null},{"event_id":"4934","title":"(第40回)Python mini Hack-a-thon","url":"https://pyhack.connpass.com/event/4934/","shortener_url":null,"started_at":"2014-02-22T02:00:00.000+09:00","ended_at":"2014-02-22T10:00:00.000+09:00","limit_number":21,"address":"渋谷区千駄ヶ谷5-32-7 野村不動産南新宿ビル4F","place":"ビープラウド会議室","lat":35.6864,"lon":139.704,"state":"active","id":null}]