[{"event_id":"55920","title":"Pepperくんと遊んでみよう!（ハンズオン＆ミニミニハッカソン）","url":"https://umekitaforce.connpass.com/event/55920/","shortener_url":null,"started_at":"2015-11-05T20:00:00.000+09:00","ended_at":"2015-11-05T22:00:00.000+09:00","limit_number":null,"address":"","place":"","lat":null,"lon":null,"state":"active","id":null},{"event_id":"21864","title":"【渋谷】【女性向け】おしゃれカフェ風オフィスでiPhoneアプリを作ろう！","url":"https://morei.connpass.com/event/21864/","shortener_url":null,"started_at":"2015-11-25T11:00:00.000+09:00","ended_at":"2015-11-25T13:30:00.000+09:00","limit_number":20,"address":"東京都渋谷区神宮前5-52-2 青山オーバルビル13F","place":"Sansan株式会社","lat":35.6628,"lon":139.709,"state":"active","id":null},{"event_id":"22468","title":"「第10回エフェクタミニハッカソン」と「第12回Pure Dataパッチングサークル東京」共同開催","url":"https://effectorhack.connpass.com/event/22468/","shortener_url":null,"started_at":"2015-11-29T13:00:00.000+09:00","ended_at":"2015-11-29T18:00:00.000+09:00","limit_number":null,"address":"東京都渋谷区渋谷1-7-7(住友不動産青山通ビル13階)","place":"CRI・ミドルウェアC会議室","lat":35.6605,"lon":139.706,"state":"active","id":null},{"event_id":"22829","title":"第12回Reactive Design Patterns読書会@西新宿","url":"https://readeffectiveakka.connpass.com/event/22829/","shortener_url":null,"started_at":"2015-11-26T19:00:00.000+09:00","ended_at":"2015-11-26T22:00:00.000+09:00","limit_number":6,"address":"東京都新宿区西新宿8-17-1(住友不動産新宿グランドタワー)","place":"TIS株式会社","lat":35.696,"lon":139.691,"state":"active","id":null},{"event_id":"22948","title":"PyData.Tokyo Hackathon #2 - TensorFlow","url":"https://pydatatokyo.connpass.com/event/22948/","shortener_url":null,"started_at":"2015-11-26T10:30:00.000+09:00","ended_at":"2015-11-26T14:00:00.000+09:00","limit_number":36,"address":"東京都渋谷区渋谷2-15−1 (渋谷クロスタワー 28F)","place":"デンソーアイティーラボラトリ","lat":35.6588,"lon":139.705,"state":"active","id":null},{"event_id":"22858","title":"DevOpsハッカソン＠JJUG CCC","url":"https://devopsjp.connpass.com/event/22858/","shortener_url":null,"started_at":"2015-11-28T13:00:00.000+09:00","ended_at":"2015-11-29T17:00:00.000+09:00","limit_number":25,"address":"160-0023 東京都 新宿区 西新宿 8-17-3","place":"ベルサール新宿グランド５F 会議室　Room I ","lat":35.6962,"lon":139.691,"state":"active","id":null},{"event_id":"21717","title":"はてな×ドワンゴ合同ハッカソン@東京","url":"https://dwangohatena.connpass.com/event/21717/","shortener_url":null,"started_at":"2015-11-28T10:00:00.000+09:00","ended_at":"2015-11-28T21:30:00.000+09:00","limit_number":50,"address":"東京都中央区銀座4-12-15","place":"ドワンゴ セミナールーム（歌舞伎座タワー 14F）","lat":35.6701,"lon":139.768,"state":"active","id":null},{"event_id":"21713","title":"はてな×ドワンゴ合同ハッカソン@京都","url":"https://dwangohatena.connpass.com/event/21713/","shortener_url":null,"started_at":"2015-11-22T10:00:00.000+09:00","ended_at":"2015-11-22T21:30:00.000+09:00","limit_number":50,"address":"京都府京都市下京区立売東町1 (京都フコク生命四条柳馬場ビル)","place":"サポーターズ京都オフィス","lat":35.0041,"lon":135.764,"state":"active","id":null},{"event_id":"21478","title":"カーネル／VMキャンプ #2","url":"https://connpass.com/event/21478/","shortener_url":null,"started_at":"2015-11-21T07:00:00.000+09:00","ended_at":"2015-11-23T20:00:00.000+09:00","limit_number":10,"address":"群馬県利根郡みなかみ町谷川127-17","place":"ペンション木馬","lat":36.7839,"lon":138.96,"state":"active","id":null},{"event_id":"22917","title":"IchigoJamをつかった、BASIC入門(２回)@大阪","url":"https://connpass.com/event/22917/","shortener_url":null,"started_at":"2015-11-21T10:00:00.000+09:00","ended_at":"2015-12-05T16:30:00.000+09:00","limit_number":5,"address":"大阪市中央区本町１丁目４番５号","place":"大阪産業創造館","lat":34.6839,"lon":135.509,"state":"active","id":null},{"event_id":"21656","title":"IHANet Hackathon@新宿 \u0026 peering day #6","url":"https://ihanet.connpass.com/event/21656/","shortener_url":null,"started_at":"2015-11-21T04:00:00.000+09:00","ended_at":"2015-11-21T10:00:00.000+09:00","limit_number":70,"address":"東京都新宿区西新宿3-20-2 東京オペラシティータワー45F","place":"Juniper様会議室","lat":35.683,"lon":139.687,"state":"active","id":null},{"event_id":"21444","title":"【女性向け】初心者でも大丈夫♡おしゃれカフェ風オフィスでアプリを作ろう☆","url":"https://morei.connpass.com/event/21444/","shortener_url":null,"started_at":"2015-11-11T11:00:00.000+09:00","ended_at":"2015-11-11T13:30:00.000+09:00","limit_number":20,"address":"東京都港区赤坂1-12-32　アーク森ビル34階","place":"株式会社アイスタイル （英文表記：istyle Inc.）","lat":35.6671,"lon":139.74,"state":"active","id":null},{"event_id":"22624","title":"【20名限定】【女性向け】おしゃれカフェ風オフィスでアプリを作ろう☆","url":"https://morei.connpass.com/event/22624/","shortener_url":null,"started_at":"2015-11-18T11:00:00.000+09:00","ended_at":"2015-11-18T13:30:00.000+09:00","limit_number":20,"address":"東京都中央区晴海一丁目8番10号 晴海アイランドトリトンスクエアオフィスタワーX37階","place":"株式会社メンバーズキャリア","lat":35.6564,"lon":139.782,"state":"active","id":null},{"event_id":"22620","title":"【学生限定】ハッカソンイベント HACKER WARS episode2 〜エンジニアの覚醒〜","url":"https://gfe.connpass.com/event/22620/","shortener_url":null,"started_at":"2015-11-28T10:00:00.000+09:00","ended_at":"2015-11-29T21:00:00.000+09:00","limit_number":50,"address":"東京都港区南青山2-11-17　第一法規本社ビル 2･3F","place":"Goodfindセミナールーム","lat":35.6715,"lon":139.722,"state":"active","id":null},{"event_id":"22169","title":"【女性向け】初心者でも安心♡おしゃれカフェでマンツーマンのプログラミング教室！","url":"https://morei.connpass.com/event/22169/","shortener_url":null,"started_at":"2015-11-07T03:00:00.000+09:00","ended_at":"2015-11-07T06:00:00.000+09:00","limit_number":1,"address":"東京都 渋谷区 円山町 28-4 大場ビルB館 B1F","place":"コインサイド","lat":35.6558,"lon":139.694,"state":"active","id":null},{"event_id":"20576","title":"クリスマスの前に!!女子会のように何でもキャリアについて相談してみよう♡","url":"https://morei.connpass.com/event/20576/","shortener_url":null,"started_at":"2015-11-06T11:00:00.000+09:00","ended_at":"2015-11-06T13:00:00.000+09:00","limit_number":10,"address":"〒150-0001 東京都渋谷区神宮前3-32-5","place":"株式会社シナップ","lat":35.6716,"lon":139.711,"state":"active","id":null},{"event_id":"20658","title":"【裏鎌倉×野良IT】感性ビジュアライズの世界（残りわずか！）","url":"https://e2d3.connpass.com/event/20658/","shortener_url":null,"started_at":"2015-11-07T01:00:00.000+09:00","ended_at":"2015-11-07T11:00:00.000+09:00","limit_number":31,"address":"神奈川県鎌倉市長谷2-4-2","place":"【鎌倉】蕾の家","lat":35.3128,"lon":139.539,"state":"active","id":null},{"event_id":"22354","title":"”5G(次世代移動通信規格)コンテスト”　アイデア創出ワークショップ","url":"https://connpass.com/event/22354/","shortener_url":null,"started_at":"2015-11-06T10:00:00.000+09:00","ended_at":"2015-11-06T12:00:00.000+09:00","limit_number":20,"address":"東京都港区赤坂1-12-32アーク森ビル31階","place":"NTTドコモ・ベンチャーズ　ラウンジ","lat":35.6671,"lon":139.74,"state":"active","id":null},{"event_id":"21909","title":"A3 2015　人工知能トークセッション×5Gハッカソンエンジニアミートアップ","url":"https://a32015.connpass.com/event/21909/","shortener_url":null,"started_at":"2015-11-10T10:00:00.000+09:00","ended_at":"2015-11-10T12:00:00.000+09:00","limit_number":150,"address":"東京都港区赤坂1-12-32　アーク森ビル31階","place":"NTTドコモ・ベンチャーズ","lat":35.6671,"lon":139.74,"state":"active","id":null},{"event_id":"22302","title":"Code for Japan Summit 2015「Party＆Start！」","url":"https://connpass.com/event/22302/","shortener_url":null,"started_at":"2015-11-06T04:00:00.000+09:00","ended_at":"2015-11-08T12:00:00.000+09:00","limit_number":null,"address":"東京都豊島区東池袋1-18-1","place":"豊島区旧庁舎","lat":35.7324,"lon":139.715,"state":"active","id":null},{"event_id":"22202","title":"第11回Reactive Design Patterns読書会@西新宿","url":"https://readeffectiveakka.connpass.com/event/22202/","shortener_url":null,"started_at":"2015-11-12T19:00:00.000+09:00","ended_at":"2015-11-12T22:00:00.000+09:00","limit_number":6,"address":"東京都新宿区西新宿8-17-1(住友不動産新宿グランドタワー)","place":"TIS株式会社","lat":35.696,"lon":139.691,"state":"active","id":null},{"event_id":"22026","title":"【先着順】Chef × Microsoft 共催　DevOpsハッカソン","url":"https://devopsjp.connpass.com/event/22026/","shortener_url":null,"started_at":"2015-11-12T10:00:00.000+09:00","ended_at":"2015-11-13T17:00:00.000+09:00","limit_number":25,"address":"〒150-0042 東京都渋谷区宇田川町20-17","place":"イベント＆コミュニティスペース　dots.","lat":35.661,"lon":139.7,"state":"active","id":null},{"event_id":"21867","title":"JS Board Shibuya #5 クックパッドでIoT","url":"https://jsbshibuya.connpass.com/event/21867/","shortener_url":null,"started_at":"2015-11-07T01:00:00.000+09:00","ended_at":"2015-11-07T12:30:00.000+09:00","limit_number":30,"address":"東京都渋谷区恵比寿4-20-3　恵比寿ガーデンプレイスタワー12F","place":"クックパッド株式会社","lat":35.6421,"lon":139.713,"state":"active","id":null},{"event_id":"21387","title":"カーネル／VMミニキャンプ #1","url":"https://connpass.com/event/21387/","shortener_url":null,"started_at":"2015-11-21T07:00:00.000+09:00","ended_at":"2015-11-23T20:00:00.000+09:00","limit_number":null,"address":"","place":"","lat":null,"lon":null,"state":"active","id":null},{"event_id":"20800","title":"金沢Unity勉強会 第7回","url":"https://kzunity.connpass.com/event/20800/","shortener_url":null,"started_at":"2015-11-01T04:00:00.000+09:00","ended_at":"2015-11-01T08:00:00.000+09:00","limit_number":26,"address":"石川県金沢市武蔵町14番31号","place":"ITビジネスプラザ武蔵 5F 研修室3","lat":36.5713,"lon":136.655,"state":"active","id":null},{"event_id":"19564","title":"アプリ作りたい女子集まれ♡Sweet Swift -女性限定iOSアプリプログラミング講座-","url":"https://morei.connpass.com/event/19564/","shortener_url":null,"started_at":"2015-11-18T11:00:00.000+09:00","ended_at":"2015-11-18T13:30:00.000+09:00","limit_number":5,"address":"東京都品川区西五反田1-18-9 五反田NTビル7F","place":"freee 株式会社","lat":35.6235,"lon":139.723,"state":"active","id":null},{"event_id":"72558","title":"第216回オフライン開発ミーティング","url":"https://atnd.org/events/72558","shortener_url":null,"started_at":"2015-11-29T01:00:00.000+09:00","ended_at":"2015-11-29T03:00:00.000+09:00","limit_number":null,"address":"東京都品川区大崎1-11-1","place":"ゲートシティ大崎B1アトリウムフリー座席","lat":35.6194,"lon":139.731,"state":"closed","id":null},{"event_id":"72404","title":"第215回オフライン開発ミーティング","url":"https://atnd.org/events/72404","shortener_url":null,"started_at":"2015-11-22T01:00:00.000+09:00","ended_at":"2015-11-22T03:00:00.000+09:00","limit_number":null,"address":"東京都品川区大崎1-11-1","place":"ゲートシティ大崎B1アトリウムフリー座席","lat":35.6194,"lon":139.731,"state":"closed","id":null},{"event_id":"70963","title":"ほたハイツハッカソン (第5回ほた中略オフ)","url":"https://atnd.org/events/70963","shortener_url":null,"started_at":"2015-11-22T00:00:00.000+09:00","ended_at":"2015-11-22T13:00:00.000+09:00","limit_number":null,"address":"東京都立川市","place":"ほたハイツ","lat":35.714,"lon":139.408,"state":"closed","id":null},{"event_id":"71122","title":"IchigoJam交流会 in 大阪日本橋 2015秋","url":"https://atnd.org/events/71122","shortener_url":null,"started_at":"2015-11-21T04:00:00.000+09:00","ended_at":"2015-11-21T09:00:00.000+09:00","limit_number":15,"address":"大阪府大阪市浪速区日本橋4-5-15","place":"なんばコワーキング","lat":34.6593,"lon":135.507,"state":"closed","id":null},{"event_id":"71428","title":"IchigoJamをつかった、BASIC入門（２回）@大阪","url":"https://atnd.org/events/71428","shortener_url":null,"started_at":"2015-11-21T01:00:00.000+09:00","ended_at":"2015-12-05T07:30:00.000+09:00","limit_number":5,"address":"大阪府大阪市中央区本町1丁目4番5号","place":"大阪産業創造館","lat":34.6838,"lon":135.509,"state":"closed","id":null},{"event_id":"72210","title":"第214回オフライン開発ミーティング","url":"https://atnd.org/events/72210","shortener_url":null,"started_at":"2015-11-15T01:00:00.000+09:00","ended_at":"2015-11-15T03:00:00.000+09:00","limit_number":null,"address":"東京都品川区大崎1-11-1","place":"ゲートシティ大崎B1アトリウムフリー座席","lat":35.6194,"lon":139.731,"state":"closed","id":null},{"event_id":"70768","title":"Drupal 温泉合宿＠おたる ～Drupal ONSEN～","url":"https://atnd.org/events/70768","shortener_url":null,"started_at":"2015-11-14T04:00:00.000+09:00","ended_at":"2015-11-15T03:30:00.000+09:00","limit_number":20,"address":"北海道小樽市朝里川温泉2丁目673","place":"ロッヂ ガルミッシュ","lat":43.1426,"lon":141.039,"state":"closed","id":null},{"event_id":"71219","title":"ITエンジニア個人作品展 Autumn Gadget Fest. 2015","url":"https://atnd.org/events/71219","shortener_url":null,"started_at":"2015-11-14T02:00:00.000+09:00","ended_at":"2015-11-15T08:00:00.000+09:00","limit_number":null,"address":"千葉県柏市東上町2-28 第一水戸屋ビル3F","place":"Noblesse Oblige@柏 10/31~11/1, 江戸川大学@流山 11/3(祝),KOIL（柏の葉オープンイノベーションラボ） 11/14~15","lat":35.8588,"lon":139.976,"state":"closed","id":null},{"event_id":"71447","title":"NPO法人　TEAM挑戦　IT未来プロジェクト","url":"https://atnd.org/events/71447","shortener_url":null,"started_at":"2015-11-14T01:00:00.000+09:00","ended_at":"2015-11-14T04:00:00.000+09:00","limit_number":50,"address":"東京都文京区春日1-16-21","place":"文京区シビックセンター","lat":35.708,"lon":139.752,"state":"closed","id":null},{"event_id":"71943","title":"第213回オフライン開発ミーティング","url":"https://atnd.org/events/71943","shortener_url":null,"started_at":"2015-11-08T01:00:00.000+09:00","ended_at":"2015-11-08T03:00:00.000+09:00","limit_number":null,"address":"東京都品川区大崎1-11-1","place":"ゲートシティ大崎B1アトリウムフリー座席","lat":35.6194,"lon":139.731,"state":"closed","id":null},{"event_id":"71779","title":"TBC2015日本語プレカンファレンス by 日本医療情報学会関東支部会","url":"https://atnd.org/events/71779","shortener_url":null,"started_at":"2015-11-06T09:00:00.000+09:00","ended_at":"2015-11-06T10:00:00.000+09:00","limit_number":null,"address":"東京都千代田区神田駿河台1-8-14","place":"日本大学理工学部駿河台校舎1号館141教室","lat":35.6976,"lon":139.764,"state":"closed","id":null},{"event_id":"71661","title":"青空シャッカソン #2 〜青空文庫の入力ハッカソン〜","url":"https://atnd.org/events/71661","shortener_url":null,"started_at":"2015-11-03T01:30:00.000+09:00","ended_at":"2015-11-03T08:00:00.000+09:00","limit_number":25,"address":"江東区常盤1-6-3","place":"芭蕉記念館 研修室","lat":35.6862,"lon":139.794,"state":"closed","id":null},{"event_id":"71765","title":"第212回オフライン開発ミーティング","url":"https://atnd.org/events/71765","shortener_url":null,"started_at":"2015-11-01T01:00:00.000+09:00","ended_at":"2015-11-01T03:00:00.000+09:00","limit_number":null,"address":"東京都品川区大崎1-11-1","place":"ゲートシティ大崎B1アトリウムフリー座席","lat":35.6194,"lon":139.731,"state":"closed","id":null},{"event_id":"20894","title":"where.conf(ドココン) #1 @東海大学高輪キャンパス ※初回東海大生限定","url":"https://where-conf.connpass.com/event/20894/","shortener_url":null,"started_at":"2015-11-19T08:30:00.000+09:00","ended_at":"2015-11-19T09:30:00.000+09:00","limit_number":61,"address":"東京都港区高輪2丁目3−23 (東海大学高輪キャンパス1号館1202教室)","place":"東海大学高輪キャンパス1号館1202教室","lat":35.638,"lon":139.734,"state":"active","id":null},{"event_id":"21229","title":"第3回CakePHP温泉部","url":"https://connpass.com/event/21229/","shortener_url":null,"started_at":"2015-11-20T01:00:00.000+09:00","ended_at":"2015-11-22T10:00:00.000+09:00","limit_number":13,"address":"静岡県伊東市東松原町4-7","place":"山喜旅館","lat":34.9725,"lon":139.098,"state":"active","id":null},{"event_id":"19169","title":"PyLadies Tokyo 秋合宿 2015","url":"https://pyladies-tokyo.connpass.com/event/19169/","shortener_url":null,"started_at":"2015-11-27T00:00:00.000+09:00","ended_at":"2015-11-29T09:00:00.000+09:00","limit_number":14,"address":"〒401-0304 山梨県南都留郡富士河口湖町河口2092","place":"カントリーコテージBan","lat":35.5316,"lon":138.764,"state":"active","id":null},{"event_id":"69726","title":"a-blog cms Training Camp 2015 Autumn","url":"https://atnd.org/events/69726","shortener_url":null,"started_at":"2015-11-20T10:00:00.000+09:00","ended_at":"2015-11-21T08:00:00.000+09:00","limit_number":50,"address":"名古屋市中村区名駅3-18-5","place":"ベースキャンプ名古屋","lat":35.1728,"lon":136.887,"state":"closed","id":null},{"event_id":"69727","title":"a-blog cms DAY in NAGOYA 2015/11","url":"https://atnd.org/events/69727","shortener_url":null,"started_at":"2015-11-20T04:00:00.000+09:00","ended_at":"2015-11-20T08:00:00.000+09:00","limit_number":50,"address":"愛知県名古屋市中村区名駅3-23-16","place":"名古屋会議室 名古屋駅前店","lat":35.1724,"lon":136.887,"state":"closed","id":null}]