[{"event_id":"15560","title":"カーネル／VM日帰りキャンプ #1","url":"https://connpass.com/event/15560/","shortener_url":null,"started_at":"2015-06-28T04:00:00.000+09:00","ended_at":"2015-06-28T13:00:00.000+09:00","limit_number":16,"address":"八王子市東町5番6号","place":"クリエイトホール","lat":35.6585,"lon":139.34,"state":"active","id":null},{"event_id":"16712","title":"夜ノMMLハッカソン [第33回 MML mini Hack-a-thon]","url":"https://mmlhack.connpass.com/event/16712/","shortener_url":null,"started_at":"2015-06-27T20:00:00.000+09:00","ended_at":"2015-06-28T05:00:00.000+09:00","limit_number":null,"address":" 東京都板橋区大山町４−１","place":"[最寄り駅]東武東上線　大山駅","lat":35.7484,"lon":139.703,"state":"active","id":null},{"event_id":"15454","title":"今からでも遅くない！学んで使える実践機械学習勉強会！！","url":"https://g-s.connpass.com/event/15454/","shortener_url":null,"started_at":"2015-06-15T19:00:00.000+09:00","ended_at":"2015-06-15T21:15:00.000+09:00","limit_number":101,"address":"東京都渋谷区道玄坂 2-11-1 (G-SQUARE 10F)","place":"21Cafe","lat":35.658,"lon":139.696,"state":"active","id":null},{"event_id":"14868","title":"【面白くて新しい経済データの見せ方を作ろう！】NewsPicks ハッカソン","url":"https://e2d3.connpass.com/event/14868/","shortener_url":null,"started_at":"2015-06-14T10:00:00.000+09:00","ended_at":"2015-06-14T21:00:00.000+09:00","limit_number":100,"address":"東京都港区港南 2-16-3 (品川グランドセントラルタワー31F セミナールームC+D／受付：2F)","place":"日本マイクロソフト株式会社","lat":35.6266,"lon":139.741,"state":"active","id":null},{"event_id":"16151","title":"GCPUG岡山 #2","url":"https://gcpug-okayama.connpass.com/event/16151/","shortener_url":null,"started_at":"2015-06-13T08:00:00.000+09:00","ended_at":"2015-06-13T11:00:00.000+09:00","limit_number":10,"address":"岡山県岡山市北区駅元町1-1","place":"JR岡山駅周辺の飲み屋さん","lat":34.665,"lon":133.918,"state":"active","id":null},{"event_id":"16322","title":"第10回Effective Akka読書会@西新宿","url":"https://readeffectiveakka.connpass.com/event/16322/","shortener_url":null,"started_at":"2015-06-25T19:00:00.000+09:00","ended_at":"2015-06-25T22:00:00.000+09:00","limit_number":8,"address":"東京都新宿区西新宿8-17-1(住友不動産新宿グランドタワー)","place":"TIS株式会社","lat":35.696,"lon":139.691,"state":"active","id":null},{"event_id":"16066","title":"第9回Effective Akka読書会@西新宿","url":"https://readeffectiveakka.connpass.com/event/16066/","shortener_url":null,"started_at":"2015-06-18T19:00:00.000+09:00","ended_at":"2015-06-18T22:00:00.000+09:00","limit_number":8,"address":"東京都新宿区西新宿8-17-1(住友不動産新宿グランドタワー)","place":"TIS株式会社","lat":35.696,"lon":139.691,"state":"active","id":null},{"event_id":"15670","title":"WebAPIの使い方を学ぼう～シェアハウス開催～","url":"https://connpass.com/event/15670/","shortener_url":null,"started_at":"2015-06-06T14:00:00.000+09:00","ended_at":"2015-06-06T17:30:00.000+09:00","limit_number":6,"address":"渋谷区神宮前3-5-6","place":"テックレジデンス表参道","lat":35.6688,"lon":139.712,"state":"active","id":null},{"event_id":"15767","title":"第12回まどべんよっかいち","url":"https://madoben.connpass.com/event/15767/","shortener_url":null,"started_at":"2015-06-07T04:30:00.000+09:00","ended_at":"2015-06-07T08:00:00.000+09:00","limit_number":null,"address":"三重県四日市市安島1丁目3番18号","place":"じばさん三重","lat":34.9684,"lon":136.616,"state":"active","id":null},{"event_id":"15942","title":"カフェで集まってハッカソン！ 06月18日（木）＠表参道","url":"https://hackathon-in-cafe.connpass.com/event/15942/","shortener_url":null,"started_at":"2015-06-18T10:30:00.000+09:00","ended_at":"2015-06-18T13:30:00.000+09:00","limit_number":10,"address":"東京都 港区 北青山3-6-17 アクセス表参道ビル","place":"スターバックス（アクセス表参道店）","lat":35.6648,"lon":139.712,"state":"active","id":null},{"event_id":"15685","title":"Firefox OS 勉強会ハンズオンセミナー in 浜松","url":"https://connpass.com/event/15685/","shortener_url":null,"started_at":"2015-06-07T13:00:00.000+09:00","ended_at":"2015-06-07T15:00:00.000+09:00","limit_number":24,"address":"静岡県浜松市中区東伊場二丁目7番1号","place":"浜松地域イノベーション推進機構 浜松商工会議所会館8階","lat":34.699,"lon":137.717,"state":"active","id":null},{"event_id":"15819","title":"第8回Effective Akka読書会@西新宿","url":"https://readeffectiveakka.connpass.com/event/15819/","shortener_url":null,"started_at":"2015-06-11T19:00:00.000+09:00","ended_at":"2015-06-11T22:00:00.000+09:00","limit_number":8,"address":"東京都新宿区西新宿8-17-1(住友不動産新宿グランドタワー)","place":"TIS株式会社","lat":35.696,"lon":139.691,"state":"active","id":null},{"event_id":"15584","title":"第7回Effective Akka読書会@西新宿","url":"https://readeffectiveakka.connpass.com/event/15584/","shortener_url":null,"started_at":"2015-06-04T19:00:00.000+09:00","ended_at":"2015-06-04T22:00:00.000+09:00","limit_number":8,"address":"東京都新宿区西新宿8-17-1(住友不動産新宿グランドタワー)","place":"TIS株式会社","lat":35.696,"lon":139.691,"state":"active","id":null},{"event_id":"15697","title":"第2回　アントレプレナーのためのBLE勉強会","url":"https://geekgarage.connpass.com/event/15697/","shortener_url":null,"started_at":"2015-06-03T19:30:00.000+09:00","ended_at":"2015-06-03T22:00:00.000+09:00","limit_number":20,"address":"東京都台東区元浅草1-15-9(SAKURAビル2F)","place":"GEEK GARAGE","lat":35.7091,"lon":139.784,"state":"active","id":null},{"event_id":"67583","title":"#つくらぐ温泉 0x07df Summer","url":"https://atnd.org/events/67583","shortener_url":null,"started_at":"2015-06-30T15:00:00.000+09:00","ended_at":"2015-09-30T15:00:00.000+09:00","limit_number":32,"address":"","place":"","lat":null,"lon":null,"state":"closed","id":null},{"event_id":"67544","title":"第198回オフライン開発ミーティング","url":"https://atnd.org/events/67544","shortener_url":null,"started_at":"2015-06-28T01:00:00.000+09:00","ended_at":"2015-06-28T03:00:00.000+09:00","limit_number":null,"address":"東京都品川区大崎1-11-1","place":"ゲートシティ大崎B1アトリウムフリー座席","lat":35.6194,"lon":139.731,"state":"closed","id":null},{"event_id":"65536","title":"【開催決定】第１４回NARAセッション ～物憂げな6月の終わりに。","url":"https://atnd.org/events/65536","shortener_url":null,"started_at":"2015-06-27T06:00:00.000+09:00","ended_at":"2015-06-27T09:00:00.000+09:00","limit_number":10,"address":"東京都渋谷区笹塚3-9-10 B1F","place":"Majestic Studio 笹塚 Fスタジオ","lat":35.6775,"lon":139.669,"state":"closed","id":null},{"event_id":"67099","title":"【学生限定】 ハードウェアに触れてみようハッカソン【CAMPHOR-】","url":"https://atnd.org/events/67099","shortener_url":null,"started_at":"2015-06-27T01:00:00.000+09:00","ended_at":"2015-06-27T12:30:00.000+09:00","limit_number":35,"address":"東京都渋谷区神南1-20-9-6F","place":"TECH LAB PAAK","lat":35.662,"lon":139.7,"state":"closed","id":null},{"event_id":"66998","title":"【大阪80名企画】6月26日（金）◆同世代中心Luxury恋活交流Party◆フリードリンク＆ブッフェ料理～心斎橋イタリアンRestaurant～","url":"https://atnd.org/events/66998","shortener_url":null,"started_at":"2015-06-26T11:30:00.000+09:00","ended_at":"2015-06-26T13:30:00.000+09:00","limit_number":80,"address":"大阪府大阪市中央区心斎橋筋2-6-8 シャンペンジャムビル4F","place":"心斎橋LOGIC","lat":34.6701,"lon":135.501,"state":"closed","id":null},{"event_id":"67374","title":"第197回オフライン開発ミーティング","url":"https://atnd.org/events/67374","shortener_url":null,"started_at":"2015-06-21T01:00:00.000+09:00","ended_at":"2015-06-21T03:00:00.000+09:00","limit_number":null,"address":"東京都品川区大崎1-11-1","place":"ゲートシティ大崎B1アトリウムフリー座席","lat":35.6194,"lon":139.731,"state":"closed","id":null},{"event_id":"67158","title":"草薙会 in 東京 2次会（オールナイト）","url":"https://atnd.org/events/67158","shortener_url":null,"started_at":"2015-06-20T14:00:00.000+09:00","ended_at":"2015-06-20T20:00:00.000+09:00","limit_number":20,"address":"東京都墨田区両国3丁目26番5号 両国ビルディング5階","place":"歌広場 両国店","lat":35.6955,"lon":139.794,"state":"closed","id":null},{"event_id":"66915","title":"【第2回】名古屋iPhone開発者勉強会ビギナーズ（Swift＆Objective-C）","url":"https://atnd.org/events/66915","shortener_url":null,"started_at":"2015-06-20T04:30:00.000+09:00","ended_at":"2015-06-20T09:00:00.000+09:00","limit_number":20,"address":"〒464-0856 名古屋市千種区吹上二丁目6番3号 名古屋市中小企業振興会館","place":"名古屋市中小企業振興会館（吹上ホール）第３会議室　第１室","lat":35.1598,"lon":136.926,"state":"closed","id":null},{"event_id":"65886","title":"IchigoJam交流会 in 大阪日本橋","url":"https://atnd.org/events/65886","shortener_url":null,"started_at":"2015-06-20T04:00:00.000+09:00","ended_at":"2015-06-20T09:00:00.000+09:00","limit_number":12,"address":"大阪府大阪市浪速区日本橋4-5-15","place":"ナンバコワーキング","lat":34.6593,"lon":135.507,"state":"closed","id":null},{"event_id":"66531","title":"Ubuntu 15.04リリースパーティ兼オフラインミーティング15.06 ","url":"https://atnd.org/events/66531","shortener_url":null,"started_at":"2015-06-20T03:30:00.000+09:00","ended_at":"2015-06-20T08:00:00.000+09:00","limit_number":69,"address":"東京都港区六本木6-10-1 六本木ヒルズ森タワー","place":"グリー株式会社","lat":35.6606,"lon":139.729,"state":"closed","id":null},{"event_id":"66987","title":"【大阪80名企画】6月19日（金）◆同世代中心Luxury恋活交流Party◆フリードリンク＆ブッフェ料理～心斎橋イタリアンRestaurant～","url":"https://atnd.org/events/66987","shortener_url":null,"started_at":"2015-06-19T11:30:00.000+09:00","ended_at":"2015-06-19T13:30:00.000+09:00","limit_number":80,"address":"大阪府大阪市中央区心斎橋筋2-6-8 シャンペンジャムビル4F","place":"心斎橋LOGIC","lat":34.6701,"lon":135.501,"state":"closed","id":null},{"event_id":"66286","title":"Game Creation Mini Hackathon \"CREATIVE CRUISING\"","url":"https://atnd.org/events/66286","shortener_url":null,"started_at":"2015-06-14T04:30:00.000+09:00","ended_at":"2015-06-14T07:30:00.000+09:00","limit_number":15,"address":"東京都墨田区錦糸4丁目10−14 ドルミ錦糸町パークサイドビル201","place":"123Rooms in Kinshicho B-Room","lat":35.6979,"lon":139.819,"state":"closed","id":null},{"event_id":"67069","title":"第196回オフライン開発ミーティング","url":"https://atnd.org/events/67069","shortener_url":null,"started_at":"2015-06-14T01:00:00.000+09:00","ended_at":"2015-06-14T03:00:00.000+09:00","limit_number":null,"address":"東京都品川区大崎1-11-1","place":"ゲートシティ大崎B1アトリウムフリー座席","lat":35.6194,"lon":139.731,"state":"closed","id":null},{"event_id":"66772","title":"ソースコードを見せ合うコンビーズハッカソン　～WEB開発編～","url":"https://atnd.org/events/66772","shortener_url":null,"started_at":"2015-06-12T10:00:00.000+09:00","ended_at":"2015-06-12T13:00:00.000+09:00","limit_number":null,"address":"大阪市北区堂島浜1丁目4-19 マニュライフプレイス堂島5F (オンライン参加も可能です)","place":"株式会社コンビーズ セミナールーム","lat":34.6956,"lon":135.496,"state":"closed","id":null},{"event_id":"67104","title":"【2015/06/11】kibanaもくもく会＠秋葉原","url":"https://atnd.org/events/67104","shortener_url":null,"started_at":"2015-06-11T10:00:00.000+09:00","ended_at":"2015-06-11T13:30:00.000+09:00","limit_number":10,"address":"〒101-0032東京都千代田区岩本町2丁目17-2","place":"秋葉原サウスイーストビルディング　5階","lat":35.6937,"lon":139.778,"state":"closed","id":null},{"event_id":"66878","title":"第195回オフライン開発ミーティング","url":"https://atnd.org/events/66878","shortener_url":null,"started_at":"2015-06-07T01:00:00.000+09:00","ended_at":"2015-06-07T03:00:00.000+09:00","limit_number":null,"address":"東京都品川区大崎1-11-1","place":"ゲートシティ大崎B1アトリウムフリー座席","lat":35.6194,"lon":139.731,"state":"closed","id":null},{"event_id":"66774","title":"a-blog cms DAY in NAGOYA 2015/06","url":"https://atnd.org/events/66774","shortener_url":null,"started_at":"2015-06-19T04:00:00.000+09:00","ended_at":"2015-06-19T12:00:00.000+09:00","limit_number":20,"address":"名古屋市中村区名駅3-18-5","place":"ベースキャンプ名古屋","lat":35.1728,"lon":136.887,"state":"closed","id":null},{"event_id":"67171","title":"【参加者募集】IoTデバイス開発で過疎地域を盛り上げろ！合宿型インターン","url":"https://atnd.org/events/67171","shortener_url":null,"started_at":"2015-06-10T04:00:00.000+09:00","ended_at":"2015-07-20T15:00:00.000+09:00","limit_number":10,"address":"徳島県海部郡美波町恵比須浜字田井266番地","place":"徳島県海部郡美波町　サイファー・テック株式会社「本社・美波Lab」","lat":33.7456,"lon":134.558,"state":"closed","id":null}]