[{"event_id":"16546","title":"DjangoGirlsTokyo スポンサー","url":"https://djangogirls-org.connpass.com/event/16546/","shortener_url":null,"started_at":"2015-07-26T10:00:00.000+09:00","ended_at":"2015-07-26T18:00:00.000+09:00","limit_number":null,"address":"東京都渋谷区神南1-20-9","place":"TECH LAB PAAK","lat":35.662,"lon":139.7,"state":"active","id":null},{"event_id":"17212","title":"※増席しました！※[TECH VALLEY#5]「技術を持ったエンジニアだから出来る経営」とは？","url":"https://connpass.com/event/17212/","shortener_url":null,"started_at":"2015-07-29T19:30:00.000+09:00","ended_at":"2015-07-29T21:30:00.000+09:00","limit_number":60,"address":"福岡県福岡市中央区天神3-4-3 大隈ビル8F","place":"TechJIN社 イベントスペース","lat":33.5919,"lon":130.396,"state":"active","id":null},{"event_id":"18066","title":"第４回　しずおかアプリ部","url":"https://connpass.com/event/18066/","shortener_url":null,"started_at":"2015-07-25T16:00:00.000+09:00","ended_at":"2015-07-25T18:00:00.000+09:00","limit_number":null,"address":"〒422-8061　静岡市駿河区森下町4-25","place":"学校法人 中村学園 静岡電子情報カレッジ 森下町キャンパス 7階","lat":34.9723,"lon":138.393,"state":"active","id":null},{"event_id":"17498","title":"[中止]第13回Effective Akka読書会@西新宿","url":"https://readeffectiveakka.connpass.com/event/17498/","shortener_url":null,"started_at":"2015-07-16T19:00:00.000+09:00","ended_at":"2015-07-16T22:00:00.000+09:00","limit_number":8,"address":"東京都新宿区西新宿8-17-1(住友不動産新宿グランドタワー)","place":"TIS株式会社","lat":35.696,"lon":139.691,"state":"active","id":null},{"event_id":"17213","title":"第８回エフェクターミニハッカソン","url":"https://effectorhack.connpass.com/event/17213/","shortener_url":null,"started_at":"2015-07-11T13:00:00.000+09:00","ended_at":"2015-07-11T18:00:00.000+09:00","limit_number":null,"address":"東京都渋谷区渋谷1-7-7(住友不動産青山通ビル13階)","place":"CRI・ミドルウェアC会議室","lat":35.6605,"lon":139.706,"state":"active","id":null},{"event_id":"17466","title":" A3 2015 DevSession Osaka「ウェアラブルを切り口にIoTを考える」","url":"https://a32015.connpass.com/event/17466/","shortener_url":null,"started_at":"2015-07-24T10:00:00.000+09:00","ended_at":"2015-07-25T08:00:00.000+09:00","limit_number":null,"address":"大阪市北区西天満2-6-8（堂島ビルヂング1F）","place":"堂島ビルヂング","lat":34.6956,"lon":135.502,"state":"active","id":null},{"event_id":"17305","title":"フレームワークビギナー勉強会 CSSフレームワーク「Bootstrap」編 ※フリーランス交流会アリ","url":"https://connpass.com/event/17305/","shortener_url":null,"started_at":"2015-07-24T10:30:00.000+09:00","ended_at":"2015-07-24T12:30:00.000+09:00","limit_number":10,"address":"東京都渋谷区桜丘町22-19 JAMビル","place":"communSHIBUYA","lat":35.655,"lon":139.7,"state":"active","id":null},{"event_id":"17311","title":"「.link」","url":"https://connpass.com/event/17311/","shortener_url":null,"started_at":"2015-07-15T10:00:00.000+09:00","ended_at":"2015-07-15T12:00:00.000+09:00","limit_number":null,"address":"〒150-0043 東京都渋谷区道玄坂1-14-6 (ヒューマックス渋谷ビル3F)","place":"21cafe","lat":35.6572,"lon":139.698,"state":"active","id":null},{"event_id":"14381","title":"SMART LIFE HACKATHON #2","url":"https://connpass.com/event/14381/","shortener_url":null,"started_at":"2015-07-18T04:00:00.000+09:00","ended_at":"2015-07-19T08:30:00.000+09:00","limit_number":null,"address":"東京都文京区弥生2-1-1(東京大学弥生キャンパスI-REF棟)","place":"東京大学 I-REF棟","lat":35.7138,"lon":139.766,"state":"active","id":null},{"event_id":"14383","title":"SMART LIFE HACKATHON #2","url":"https://connpass.com/event/14383/","shortener_url":null,"started_at":"2015-07-12T04:00:00.000+09:00","ended_at":"2015-07-12T09:00:00.000+09:00","limit_number":null,"address":"東京都文京区弥生2-1-1(東京大学弥生キャンパスI-REF棟)","place":"東京大学 I-REF棟","lat":35.7138,"lon":139.766,"state":"active","id":null},{"event_id":"17138","title":"【学生限定】Firefox OS アプリハッカソンー 音の出るものを作るー","url":"https://connpass.com/event/17138/","shortener_url":null,"started_at":"2015-07-04T10:00:00.000+09:00","ended_at":"2015-07-04T20:00:00.000+09:00","limit_number":10,"address":"東京都渋谷区神南1-20-9-6F","place":"TECH LAB PAAK","lat":35.662,"lon":139.7,"state":"active","id":null},{"event_id":"16634","title":"第11回Effective Akka読書会@西新宿","url":"https://readeffectiveakka.connpass.com/event/16634/","shortener_url":null,"started_at":"2015-07-02T19:00:00.000+09:00","ended_at":"2015-07-02T22:00:00.000+09:00","limit_number":8,"address":"東京都新宿区西新宿8-17-1(住友不動産新宿グランドタワー)","place":"TIS株式会社","lat":35.696,"lon":139.691,"state":"active","id":null},{"event_id":"17091","title":"第12回Effective Akka読書会@西新宿","url":"https://readeffectiveakka.connpass.com/event/17091/","shortener_url":null,"started_at":"2015-07-09T19:00:00.000+09:00","ended_at":"2015-07-09T22:00:00.000+09:00","limit_number":8,"address":"東京都新宿区西新宿8-17-1(住友不動産新宿グランドタワー)","place":"TIS株式会社","lat":35.696,"lon":139.691,"state":"active","id":null},{"event_id":"16809","title":"Intel Edisonハッカソン＆コンテスト（Intel Edisonユーザ会主催）","url":"https://intel-edison-users.connpass.com/event/16809/","shortener_url":null,"started_at":"2015-07-03T10:00:00.000+09:00","ended_at":"2015-07-04T11:00:00.000+09:00","limit_number":40,"address":"千代田区神田佐久間町3-6　M's WORKS BLDG 3F","place":"クリエーションライン株式会社","lat":35.6974,"lon":139.777,"state":"active","id":null},{"event_id":"16335","title":"【6/28まで】AppliCareの応募が始まりました!!","url":"https://connpass.com/event/16335/","shortener_url":null,"started_at":"2015-07-01T10:00:00.000+09:00","ended_at":"2015-08-23T10:00:00.000+09:00","limit_number":null,"address":"","place":"飯田橋","lat":null,"lon":null,"state":"active","id":null},{"event_id":"67797","title":"【大阪80名企画】7月31日（金）◆Luxury男性ビジネスマン/女性20代30代恋活交流Party◆フリードリンク＆ブッフェ料理～心斎橋イタリアンRestaurant～","url":"https://atnd.org/events/67797","shortener_url":null,"started_at":"2015-07-31T11:30:00.000+09:00","ended_at":"2015-07-31T13:30:00.000+09:00","limit_number":80,"address":"大阪府大阪市中央区心斎橋筋2-6-8 シャンペンジャムビル4F","place":"心斎橋LOGIC","lat":34.6701,"lon":135.501,"state":"closed","id":null},{"event_id":"68434","title":"夏だ！ 「秘密結社フリーソーメン」今年もスタート! : 日本Androidの会秋葉原支部ロボット部　第36回勉強会 ","url":"https://atnd.org/events/68434","shortener_url":null,"started_at":"2015-07-26T03:00:00.000+09:00","ended_at":"2015-07-26T08:00:00.000+09:00","limit_number":10,"address":"千代田区神田紺屋町37番地 今井ビル2F","place":"ギークハウス神田秋葉原","lat":35.693,"lon":139.774,"state":"closed","id":null},{"event_id":"68369","title":"Web Music ハッカソン #4@京都懇親会","url":"https://atnd.org/events/68369","shortener_url":null,"started_at":"2015-07-25T09:30:00.000+09:00","ended_at":"2015-07-25T11:30:00.000+09:00","limit_number":30,"address":"京都市下京区中堂寺南町9−7","place":"まるへい","lat":34.9941,"lon":135.741,"state":"closed","id":null},{"event_id":"67975","title":"青空シャッカソン #1 〜青空文庫の入力ハッカソン〜","url":"https://atnd.org/events/67975","shortener_url":null,"started_at":"2015-07-25T04:00:00.000+09:00","ended_at":"2015-07-25T08:00:00.000+09:00","limit_number":40,"address":"東京都江東区東陽4-11-3","place":"江東区文化センター 第一和室","lat":35.6725,"lon":139.818,"state":"closed","id":null},{"event_id":"67782","title":"Web Music ハッカソン #4@京都","url":"https://atnd.org/events/67782","shortener_url":null,"started_at":"2015-07-25T01:00:00.000+09:00","ended_at":"2015-07-25T09:00:00.000+09:00","limit_number":50,"address":"〒600-8815 京都市下京区中堂寺粟田町90","place":"京都リサーチパーク","lat":34.9944,"lon":135.737,"state":"closed","id":null},{"event_id":"68377","title":"第201回オフライン開発ミーティング","url":"https://atnd.org/events/68377","shortener_url":null,"started_at":"2015-07-19T01:00:00.000+09:00","ended_at":"2015-07-19T03:00:00.000+09:00","limit_number":null,"address":"東京都品川区大崎1-11-1","place":"ゲートシティ大崎B1アトリウムフリー座席","lat":35.6194,"lon":139.731,"state":"closed","id":null},{"event_id":"67759","title":"【横浜50名企画】7月18日（土）◆Luxuryアラサー（25歳～35歳）限定恋活交流Party◆フリードリンク＆ブッフェ料理～桜木町の街並みと共に～","url":"https://atnd.org/events/67759","shortener_url":null,"started_at":"2015-07-18T11:00:00.000+09:00","ended_at":"2015-07-18T13:00:00.000+09:00","limit_number":60,"address":"http://r.gnavi.co.jp/gtkv350d0000/map/","place":"横浜JAM THE SECOND","lat":null,"lon":null,"state":"closed","id":null},{"event_id":"68059","title":"ソースコードを見せ合うコンビーズハッカソン　～WEB開発編～","url":"https://atnd.org/events/68059","shortener_url":null,"started_at":"2015-07-17T10:00:00.000+09:00","ended_at":"2015-07-17T13:00:00.000+09:00","limit_number":null,"address":"大阪市北区堂島浜1丁目4-19 マニュライフプレイス堂島5F (オンライン参加も可能です)","place":"株式会社コンビーズ セミナールーム","lat":34.6956,"lon":135.496,"state":"closed","id":null},{"event_id":"68148","title":"日本Androidの会 埼玉支部定例会 2015 Q2","url":"https://atnd.org/events/68148","shortener_url":null,"started_at":"2015-07-12T08:00:00.000+09:00","ended_at":"2015-07-12T10:00:00.000+09:00","limit_number":10,"address":"〒330-0802 埼玉県さいたま市大宮区宮町1-5 銀座ビル7階","place":"コワーキングスペース 7F","lat":35.9077,"lon":139.625,"state":"closed","id":null},{"event_id":"68182","title":"第200回オフライン開発ミーティング","url":"https://atnd.org/events/68182","shortener_url":null,"started_at":"2015-07-12T01:00:00.000+09:00","ended_at":"2015-07-12T03:00:00.000+09:00","limit_number":null,"address":"東京都品川区大崎1-11-1","place":"ゲートシティ大崎B1アトリウムフリー座席","lat":35.6194,"lon":139.731,"state":"closed","id":null},{"event_id":"67735","title":"【 まからずや / 7月9日開催！】課題解決アイデアソン  〜ハグ旦那を増やすには？〜","url":"https://atnd.org/events/67735","shortener_url":null,"started_at":"2015-07-09T10:00:00.000+09:00","ended_at":"2015-07-09T12:30:00.000+09:00","limit_number":10,"address":"鹿児島県鹿児島市船津町1-11","place":"株式会社マチトビラ","lat":31.5891,"lon":130.557,"state":"closed","id":null},{"event_id":"67816","title":"第199回オフライン開発ミーティング","url":"https://atnd.org/events/67816","shortener_url":null,"started_at":"2015-07-05T01:00:00.000+09:00","ended_at":"2015-07-05T03:00:00.000+09:00","limit_number":null,"address":"東京都品川区大崎1-11-1","place":"ゲートシティ大崎B1アトリウムフリー座席","lat":35.6194,"lon":139.731,"state":"closed","id":null},{"event_id":"67734","title":"【 藤安醸造 / 7月4日開催！】課題解決アイデアソン  〜若者の味噌・醤油離れを解決するには？〜","url":"https://atnd.org/events/67734","shortener_url":null,"started_at":"2015-07-04T05:00:00.000+09:00","ended_at":"2015-07-04T07:00:00.000+09:00","limit_number":10,"address":"鹿児島県鹿児島市船津町1-11","place":"株式会社マチトビラ","lat":31.5891,"lon":130.557,"state":"closed","id":null},{"event_id":"66907","title":"初心者歓迎【学生限定】Firefox OS アプリハッカソン　ー 音の出るものを作るー","url":"https://atnd.org/events/66907","shortener_url":null,"started_at":"2015-07-04T01:00:00.000+09:00","ended_at":"2015-07-04T11:00:00.000+09:00","limit_number":50,"address":"東京都渋谷区神南1-20-9-6F","place":"TECH LAB PAAK","lat":35.662,"lon":139.7,"state":"closed","id":null},{"event_id":"67361","title":"ソースコードを見せ合うコンビーズハッカソン　～WEB開発編～","url":"https://atnd.org/events/67361","shortener_url":null,"started_at":"2015-07-03T10:00:00.000+09:00","ended_at":"2015-07-03T13:00:00.000+09:00","limit_number":null,"address":"大阪市北区堂島浜1丁目4-19 マニュライフプレイス堂島5F (オンライン参加も可能です)","place":"株式会社コンビーズ セミナールーム","lat":34.6956,"lon":135.496,"state":"closed","id":null},{"event_id":"67268","title":"医療で思いっきり開発したい学生エンジニア募集中！","url":"https://atnd.org/events/67268","shortener_url":null,"started_at":"2015-07-01T10:00:00.000+09:00","ended_at":"2015-08-23T10:00:00.000+09:00","limit_number":10,"address":"東京都千代田区富士見1丁目3−11 富士見デュープレックスビズ801号室","place":"AppliCare本部","lat":35.6983,"lon":139.747,"state":"closed","id":null},{"event_id":"17322","title":"第37回 名古屋CV・PRML勉強会","url":"https://nagoyacv.connpass.com/event/17322/","shortener_url":null,"started_at":"2015-07-18T04:30:00.000+09:00","ended_at":"2015-07-18T07:30:00.000+09:00","limit_number":null,"address":"名古屋市中区千代田5-14-22","place":"中部大学 名古屋キャンパス","lat":35.1582,"lon":136.919,"state":"active","id":null},{"event_id":"17590","title":"IHANet peering day #4 (IHANet13合宿と同時開催)","url":"https://ihanet.connpass.com/event/17590/","shortener_url":null,"started_at":"2015-07-18T07:00:00.000+09:00","ended_at":"2015-07-18T18:00:00.000+09:00","limit_number":50,"address":"","place":"IRC #IHANet (Reichanet)","lat":35.683,"lon":139.687,"state":"active","id":null},{"event_id":"15007","title":"(第55回)Python mini Hack-a-thon","url":"https://pyhack.connpass.com/event/15007/","shortener_url":null,"started_at":"2015-07-11T02:00:00.000+09:00","ended_at":"2015-07-11T10:00:00.000+09:00","limit_number":20,"address":"渋谷区千駄ヶ谷5-32-7 野村不動産南新宿ビル4F","place":"ビープラウド会議室","lat":35.6864,"lon":139.704,"state":"active","id":null}]