[{"event_id":"11411","title":"百戦錬磨のサーバー技術者が語る　モバイルクラウド開発最前線","url":"https://cr-games.connpass.com/event/11411/","shortener_url":null,"started_at":"2015-02-09T19:00:00.000+09:00","ended_at":"2015-02-09T21:30:00.000+09:00","limit_number":80,"address":"35.685426, 139.740552","place":"株式会社クリーク・アンド・リバー社　２F （〒100-8111 東京都千代田区麹町２丁目１０−９） ","lat":35.6854,"lon":139.741,"state":"active","id":null},{"event_id":"10873","title":"第0回　モデルベースソフトウェア開発コミュニティ　キックオフ","url":"https://mbsdcjapan.connpass.com/event/10873/","shortener_url":null,"started_at":"2015-02-07T14:00:00.000+09:00","ended_at":"2015-02-07T17:30:00.000+09:00","limit_number":170,"address":"東京都渋谷区代々木1-27-16 JECビル","place":"代々木TechBuzzSpace","lat":35.6824,"lon":139.701,"state":"active","id":null},{"event_id":"11779","title":"Windowsでの自動化について考える会","url":"https://connpass.com/event/11779/","shortener_url":null,"started_at":"2015-02-21T13:30:00.000+09:00","ended_at":"2015-02-21T17:30:00.000+09:00","limit_number":30,"address":"大阪市淀川区西中島5-12-12","place":"エムオーテックス新大阪ビル","lat":34.7293,"lon":135.499,"state":"active","id":null},{"event_id":"11245","title":"CFGRJP＠デブサミ2015","url":"https://cfgrjp.connpass.com/event/11245/","shortener_url":null,"started_at":"2015-02-19T00:30:00.000+09:00","ended_at":"2015-02-20T10:00:00.000+09:00","limit_number":null,"address":"東京都目黒区下目黒１−８−１","place":"目黒雅叙園","lat":35.6314,"lon":139.714,"state":"active","id":null},{"event_id":"11987","title":"はまぞうアイデアソン(仮) 第1回","url":"https://hamazo.connpass.com/event/11987/","shortener_url":null,"started_at":"2015-02-18T10:00:00.000+09:00","ended_at":"2015-02-18T12:00:00.000+09:00","limit_number":10,"address":"静岡県浜松市中区富塚町1933-1 佐鳴湖パークタウンサウス2F","place":"はまぞうメディアラボ","lat":34.7222,"lon":137.7,"state":"active","id":null},{"event_id":"11346","title":"第1回東京SoftLayer Hackathon","url":"https://bmxug.connpass.com/event/11346/","shortener_url":null,"started_at":"2015-02-13T09:00:00.000+09:00","ended_at":"2015-02-13T12:00:00.000+09:00","limit_number":50,"address":"東京都港区南麻布2-12-3","place":"サイオステクノロジー株式会社セミナールーム ","lat":35.6473,"lon":139.736,"state":"active","id":null},{"event_id":"11813","title":"オープンデータハッカソン2015福岡","url":"https://connpass.com/event/11813/","shortener_url":null,"started_at":"2015-02-21T10:00:00.000+09:00","ended_at":"2015-02-21T18:00:00.000+09:00","limit_number":30,"address":"福岡市中央区大名2丁目4-22　新日本ビル3F","place":"OnRAMP Salon \u0026 Co-Working Cafe","lat":33.5888,"lon":130.391,"state":"active","id":null},{"event_id":"11117","title":"Google Code Jam の過去問を解く会 2月6日(金) [会場:渋谷 Beez]","url":"https://connpass.com/event/11117/","shortener_url":null,"started_at":"2015-02-06T09:30:00.000+09:00","ended_at":"2015-02-06T12:00:00.000+09:00","limit_number":18,"address":"東京都渋谷区渋谷2-22-14渋谷二丁目ビル7F","place":"beez (渋谷店)","lat":35.6604,"lon":139.708,"state":"active","id":null},{"event_id":"10796","title":"UI温泉#01","url":"https://ui-onsen.connpass.com/event/10796/","shortener_url":null,"started_at":"2015-02-07T17:00:00.000+09:00","ended_at":"2015-02-07T21:00:00.000+09:00","limit_number":100,"address":"神奈川県横浜市港北区綱島1-8-11","place":"綱島ラジウム温泉～東京園","lat":35.5367,"lon":139.636,"state":"active","id":null},{"event_id":"11634","title":"渋谷 関数型ハッカソン","url":"https://fancs.connpass.com/event/11634/","shortener_url":null,"started_at":"2015-02-07T11:00:00.000+09:00","ended_at":"2015-02-07T19:00:00.000+09:00","limit_number":20,"address":"東京都渋谷区渋谷1-1-8　青山ダイヤモンドビル 2階","place":"F@N Communications","lat":35.6611,"lon":139.707,"state":"active","id":null},{"event_id":"11734","title":"白ヤギ勉強会（第7回）","url":"https://aial.connpass.com/event/11734/","shortener_url":null,"started_at":"2015-02-04T11:00:00.000+09:00","ended_at":"2015-02-04T14:00:00.000+09:00","limit_number":10,"address":"渋谷区元代々木町2-4","place":"白ヤギコーポレーション","lat":35.6705,"lon":139.688,"state":"active","id":null},{"event_id":"11174","title":"GDG Shikoku - Android Wear バレンタイン ハッカソン","url":"https://gdgshikoku.connpass.com/event/11174/","shortener_url":null,"started_at":"2015-02-07T01:00:00.000+09:00","ended_at":"2015-02-07T08:00:00.000+09:00","limit_number":20,"address":"香川県高松市サンポート2-1","place":"e-とぴあ・かがわ","lat":34.3527,"lon":134.047,"state":"active","id":null},{"event_id":"59928","title":"[春期]私立・プログラミングキャンプ　2015 関西大会","url":"https://atnd.org/events/59928","shortener_url":null,"started_at":"2015-02-28T04:00:00.000+09:00","ended_at":"2015-02-28T10:00:00.000+09:00","limit_number":20,"address":"大阪市北区中崎西2丁目3番35号","place":"ECCコンピュータ専門学校","lat":34.7065,"lon":135.503,"state":"closed","id":null},{"event_id":"62387","title":"FxOSコードリーディングミートアップ＃１４","url":"https://atnd.org/events/62387","shortener_url":null,"started_at":"2015-02-25T10:30:00.000+09:00","ended_at":"2015-02-25T12:30:00.000+09:00","limit_number":20,"address":"東京都港区六本木 7-5-6","place":"Mozilla Japan オフィス","lat":35.6652,"lon":139.728,"state":"closed","id":null},{"event_id":"62949","title":"第181回オフライン開発ミーティング","url":"https://atnd.org/events/62949","shortener_url":null,"started_at":"2015-02-22T01:00:00.000+09:00","ended_at":"2015-02-22T03:00:00.000+09:00","limit_number":null,"address":"東京都品川区大崎1-11-1","place":"ゲートシティ大崎B1アトリウムフリー座席","lat":35.6194,"lon":139.731,"state":"closed","id":null},{"event_id":"62149","title":"第４回名古屋Swiftハッカソン（Swift初心者向けワークショップもあり）","url":"https://atnd.org/events/62149","shortener_url":null,"started_at":"2015-02-21T04:30:00.000+09:00","ended_at":"2015-02-21T08:00:00.000+09:00","limit_number":20,"address":"愛知県名古屋市中区錦 1-17-13 名興ビル2F","place":"MYCAFE（マイカフェ）錦通店","lat":35.1691,"lon":136.894,"state":"closed","id":null},{"event_id":"62436","title":"横須賀市オープンデータアイデアソン","url":"https://atnd.org/events/62436","shortener_url":null,"started_at":"2015-02-21T04:00:00.000+09:00","ended_at":"2015-02-21T06:30:00.000+09:00","limit_number":null,"address":"神奈川県横須賀市稲岡町82-19","place":"記念艦三笠","lat":35.2852,"lon":139.674,"state":"closed","id":null},{"event_id":"61325","title":"インターナショナルオープンデータデイ2015 in ISHIKAWA","url":"https://atnd.org/events/61325","shortener_url":null,"started_at":"2015-02-21T04:00:00.000+09:00","ended_at":"2015-02-21T08:30:00.000+09:00","limit_number":40,"address":"石川県 金沢市武蔵町14番31号","place":"ITビジネスプラザ武蔵","lat":36.5713,"lon":136.655,"state":"closed","id":null},{"event_id":"61642","title":"【#TechBuzz】第29回代々木Unity勉強会 今月のテーマ【UnityでのLINQ活用例】","url":"https://atnd.org/events/61642","shortener_url":null,"started_at":"2015-02-20T10:30:00.000+09:00","ended_at":"2015-02-20T13:00:00.000+09:00","limit_number":40,"address":"東京都渋谷区代々木1-27-16 JECビル 5F","place":"代々木TechBuzzSpace（JECビル 5F）","lat":35.6824,"lon":139.701,"state":"closed","id":null},{"event_id":"62894","title":"日本Androidの会香川支部 第18回定例会","url":"https://atnd.org/events/62894","shortener_url":null,"started_at":"2015-02-18T10:00:00.000+09:00","ended_at":"2015-02-18T11:00:00.000+09:00","limit_number":10,"address":"","place":"e-とぴあ・かがわ BBサロン","lat":null,"lon":null,"state":"closed","id":null},{"event_id":"62601","title":"音をクラウド解析するリスニング・デバイス「Listnr」アイデアソン","url":"https://atnd.org/events/62601","shortener_url":null,"started_at":"2015-02-17T10:30:00.000+09:00","ended_at":"2015-02-19T23:59:59.000+09:00","limit_number":40,"address":"東京都千代田区神田練塀町3","place":"DMM.make AKIBA","lat":35.7001,"lon":139.774,"state":"closed","id":null},{"event_id":"62634","title":"Sapporo No Game Jam","url":"https://atnd.org/events/62634","shortener_url":null,"started_at":"2015-02-15T11:00:00.000+09:00","ended_at":"2015-02-17T23:59:59.000+09:00","limit_number":5,"address":"","place":"すすきの","lat":null,"lon":null,"state":"closed","id":null},{"event_id":"62611","title":"第180回オフライン開発ミーティング","url":"https://atnd.org/events/62611","shortener_url":null,"started_at":"2015-02-15T01:00:00.000+09:00","ended_at":"2015-02-15T03:00:00.000+09:00","limit_number":null,"address":"東京都品川区大崎1-11-1","place":"ゲートシティ大崎B1アトリウムフリー座席","lat":35.6194,"lon":139.731,"state":"closed","id":null},{"event_id":"62419","title":"ヒャッカソン in SENDAI ","url":"https://atnd.org/events/62419","shortener_url":null,"started_at":"2015-02-14T01:00:00.000+09:00","ended_at":"2015-02-14T09:00:00.000+09:00","limit_number":20,"address":"宮城県仙台市青葉区一番町四丁目6番1号 第一生命タワービル 8階","place":"株式会社メンバーズ ウェブガーデン仙台","lat":38.2642,"lon":140.872,"state":"closed","id":null},{"event_id":"61749","title":"Firefox OS WoTハッカソン","url":"https://atnd.org/events/61749","shortener_url":null,"started_at":"2015-02-14T01:00:00.000+09:00","ended_at":"2015-02-15T09:00:00.000+09:00","limit_number":70,"address":"東京都千代田区飯田橋3-8-5","place":"住友不動産飯田橋駅前ビル KDDI会議室（受付2階）","lat":35.7019,"lon":139.747,"state":"closed","id":null},{"event_id":"61087","title":"ISAC 2015（宇宙ハッカソン）アイデアソン in 福井","url":"https://atnd.org/events/61087","shortener_url":null,"started_at":"2015-02-11T00:00:00.000+09:00","ended_at":"2015-02-11T03:00:00.000+09:00","limit_number":20,"address":"福井県坂井市丸岡町熊堂第3号7番地1-16","place":"福井県産業情報センター7F　コワーキングスペース","lat":36.1099,"lon":136.274,"state":"closed","id":null},{"event_id":"61925","title":"百戦錬磨のサーバー技術者が語る モバイルクラウド開発最前線","url":"https://atnd.org/events/61925","shortener_url":null,"started_at":"2015-02-09T10:00:00.000+09:00","ended_at":"2015-02-09T12:30:00.000+09:00","limit_number":40,"address":"35.685426, 139.740552","place":"株式会社クリーク・アンド・リバー社　２F","lat":35.6854,"lon":139.741,"state":"closed","id":null},{"event_id":"62229","title":"第179回オフライン開発ミーティング","url":"https://atnd.org/events/62229","shortener_url":null,"started_at":"2015-02-08T01:00:00.000+09:00","ended_at":"2015-02-08T03:00:00.000+09:00","limit_number":null,"address":"東京都品川区大崎1-11-1","place":"ゲートシティ大崎B1アトリウムフリー座席","lat":35.6194,"lon":139.731,"state":"closed","id":null},{"event_id":"60575","title":"【開催決定！】第１２回NARAセッション","url":"https://atnd.org/events/60575","shortener_url":null,"started_at":"2015-02-01T05:00:00.000+09:00","ended_at":"2015-02-01T08:00:00.000+09:00","limit_number":20,"address":"渋谷区元代々木町6-2 ドルチェ元代々木1F","place":"スタジオ セオリ B スタジオ","lat":35.6701,"lon":139.686,"state":"closed","id":null},{"event_id":"61995","title":"第178回オフライン開発ミーティング","url":"https://atnd.org/events/61995","shortener_url":null,"started_at":"2015-02-01T01:00:00.000+09:00","ended_at":"2015-02-01T03:00:00.000+09:00","limit_number":null,"address":"東京都品川区大崎1-11-1","place":"ゲートシティ大崎B1アトリウムフリー座席","lat":35.6194,"lon":139.731,"state":"closed","id":null},{"event_id":"60726","title":"MakerStarter #8 ～農家ソン 2日目:ハッカソン～","url":"https://atnd.org/events/60726","shortener_url":null,"started_at":"2015-02-01T01:00:00.000+09:00","ended_at":"2015-02-01T09:00:00.000+09:00","limit_number":null,"address":"石川県金沢市 間明町2−267","place":"マルツ金沢西インター店","lat":36.5663,"lon":136.62,"state":"closed","id":null},{"event_id":"11350","title":"ベストアプリ勉強会＠Sansan","url":"https://connpass.com/event/11350/","shortener_url":null,"started_at":"2015-02-19T10:30:00.000+09:00","ended_at":"2015-02-19T13:00:00.000+09:00","limit_number":40,"address":"東京都渋谷区神宮前5-52-2 青山オーバルビル13F","place":"Sansan株式会社","lat":35.6628,"lon":139.709,"state":"active","id":null},{"event_id":"60934","title":"2015年02月07日『ヴァリス』合宿読書会","url":"https://atnd.org/events/60934","shortener_url":null,"started_at":"2015-02-07T06:00:00.000+09:00","ended_at":"2015-02-07T23:30:00.000+09:00","limit_number":15,"address":"京都府南丹市園部町新町51-1","place":"かいちや旅館","lat":35.1071,"lon":135.479,"state":"closed","id":null},{"event_id":"14914674192","title":"An Introduction to Agile Virtual Workshop via Zoom","url":"https://www.eventbrite.co.nz/e/an-introduction-to-agile-virtual-workshop-via-zoom-tickets-14914674192","shortener_url":null,"started_at":"2015-02-20T01:00:00.000+09:00","ended_at":"2022-01-28T03:00:00.000+09:00","limit_number":null,"address":null,"place":"online","lat":null,"lon":null,"state":"active","id":null}]