[{"event_id":"13699","title":"AppleWatchアプリ開発ハッカソン","url":"https://ios-app-developers.connpass.com/event/13699/","shortener_url":null,"started_at":"2015-04-29T18:00:00.000+09:00","ended_at":"2015-04-30T03:00:00.000+09:00","limit_number":15,"address":"東京都渋谷区神南1-13-4","place":"FOR STEP 神南","lat":35.6631,"lon":139.7,"state":"active","id":null},{"event_id":"13675","title":"本音で語る！！キャリアチェンジの仕方と難しさを教えます。","url":"https://acrovision.connpass.com/event/13675/","shortener_url":null,"started_at":"2015-04-28T19:30:00.000+09:00","ended_at":"2015-04-28T22:00:00.000+09:00","limit_number":50,"address":"東京都豊島区東池袋1-35-3","place":"池袋センタービル 8階","lat":35.7329,"lon":139.715,"state":"active","id":null},{"event_id":"13502","title":"Ludum Dare 金沢サテライト","url":"https://connpass.com/event/13502/","shortener_url":null,"started_at":"2015-04-18T10:00:00.000+09:00","ended_at":"2015-04-19T19:00:00.000+09:00","limit_number":15,"address":"金沢市武蔵町14番31号","place":"ITビジネスプラザ武蔵","lat":36.5713,"lon":136.655,"state":"active","id":null},{"event_id":"14204","title":"第3回Effective Akka読書会@西新宿","url":"https://readeffectiveakka.connpass.com/event/14204/","shortener_url":null,"started_at":"2015-04-24T04:00:00.000+09:00","ended_at":"2015-04-24T07:00:00.000+09:00","limit_number":8,"address":"東京都新宿区西新宿8-17-1(住友不動産新宿グランドタワー)","place":"TIS株式会社","lat":35.696,"lon":139.691,"state":"active","id":null},{"event_id":"14121","title":"第2回Effective Akka読書会@西新宿","url":"https://readeffectiveakka.connpass.com/event/14121/","shortener_url":null,"started_at":"2015-04-16T04:00:00.000+09:00","ended_at":"2015-04-16T07:00:00.000+09:00","limit_number":8,"address":"東京都新宿区西新宿8-17-1(住友不動産新宿グランドタワー)","place":"TIS株式会社","lat":35.696,"lon":139.691,"state":"active","id":null},{"event_id":"13885","title":"第1回Effective Akka読書会@西新宿","url":"https://readeffectiveakka.connpass.com/event/13885/","shortener_url":null,"started_at":"2015-04-11T04:00:00.000+09:00","ended_at":"2015-04-11T07:00:00.000+09:00","limit_number":8,"address":"東京都新宿区西新宿8-17-1(住友不動産新宿グランドタワー)","place":"TIS株式会社","lat":35.696,"lon":139.691,"state":"active","id":null},{"event_id":"12813","title":"Compath Hackason #1 Pepper Hackason","url":"https://compathnight.connpass.com/event/12813/","shortener_url":null,"started_at":"2015-04-12T19:00:00.000+09:00","ended_at":"2015-04-13T04:00:00.000+09:00","limit_number":10,"address":"東京都渋谷区代々木2-26-1 (第1桑野ビル4-A)","place":"Compath Me オフィス","lat":35.6854,"lon":139.699,"state":"active","id":null},{"event_id":"13570","title":"「第6回エフェクターミニハッカソン」と「スパコ勉強会」同時開催","url":"https://effectorhack.connpass.com/event/13570/","shortener_url":null,"started_at":"2015-04-12T22:00:00.000+09:00","ended_at":"2015-04-13T03:00:00.000+09:00","limit_number":15,"address":"東京都渋谷区渋谷1-7-7(住友不動産青山通ビル13階)","place":"CRI・ミドルウェアC会議室","lat":35.6605,"lon":139.706,"state":"active","id":null},{"event_id":"13869","title":"Weekdayランサーズ勉強会第1回 - 開発体制/プロセスについて","url":"https://connpass.com/event/13869/","shortener_url":null,"started_at":"2015-04-24T04:30:00.000+09:00","ended_at":"2015-04-24T06:45:00.000+09:00","limit_number":30,"address":"東京都渋谷区渋谷3丁目10-13 TOKYU REIT渋谷Rビル9F（旧ビル名称：渋谷Rサンケイビル）","place":"ランサーズ株式会社","lat":35.6568,"lon":139.705,"state":"active","id":null},{"event_id":"13345","title":"Google Code Jam 2015に挑戦する会 4月11日(土) [会場:渋谷 Beez]","url":"https://connpass.com/event/13345/","shortener_url":null,"started_at":"2015-04-11T13:00:00.000+09:00","ended_at":"2015-04-11T16:00:00.000+09:00","limit_number":18,"address":"東京都渋谷区渋谷2-22-14渋谷二丁目ビル7F","place":"beez (渋谷店)","lat":35.6604,"lon":139.708,"state":"active","id":null},{"event_id":"64909","title":"本音で語る！！キャリアチェンジの仕方と難しさを教えます。","url":"https://atnd.org/events/64909","shortener_url":null,"started_at":"2015-04-28T19:30:00.000+09:00","ended_at":"2015-04-28T21:30:00.000+09:00","limit_number":30,"address":"東京都豊島区東池袋1丁目35−3","place":"池袋センタービル 8階","lat":35.7329,"lon":139.715,"state":"closed","id":null},{"event_id":"65354","title":"第190回オフライン開発ミーティング","url":"https://atnd.org/events/65354","shortener_url":null,"started_at":"2015-04-26T10:00:00.000+09:00","ended_at":"2015-04-26T12:00:00.000+09:00","limit_number":null,"address":"東京都品川区大崎1-11-1","place":"ゲートシティ大崎B1アトリウムフリー座席","lat":35.6194,"lon":139.731,"state":"closed","id":null},{"event_id":"65231","title":"Memories Of the Future vol.4","url":"https://atnd.org/events/65231","shortener_url":null,"started_at":"2015-04-25T12:00:00.000+09:00","ended_at":"2015-04-25T20:00:00.000+09:00","limit_number":null,"address":"大阪府大阪市住之江区南港東9","place":"南港三角公園（港大橋臨港緑地）","lat":34.6409,"lon":135.435,"state":"closed","id":null},{"event_id":"63814","title":"3時間でネット公開！Ruby on Railsキャッチアップ勉強会","url":"https://atnd.org/events/63814","shortener_url":null,"started_at":"2015-04-25T10:00:00.000+09:00","ended_at":"2015-04-25T13:00:00.000+09:00","limit_number":20,"address":"東京都中央区新川1−3−4 PAビル4F","place":"コワーキングスペース茅場町 Co-Edoセミナールーム","lat":35.6786,"lon":139.782,"state":"closed","id":null},{"event_id":"65068","title":"こんな話が聞きたかった！キャリアにまつわる○○トーク ～制作現場のエンジニア、クリエイターがあの時の本音を語る～","url":"https://atnd.org/events/65068","shortener_url":null,"started_at":"2015-04-23T19:30:00.000+09:00","ended_at":"2015-04-23T21:30:00.000+09:00","limit_number":20,"address":"〒150-0022東京都渋谷区恵比寿南3-5-7 代官山DGビル(デジタルゲートビル)2F)","place":"OpenNetworkLab　","lat":35.6462,"lon":139.704,"state":"closed","id":null},{"event_id":"64387","title":"Weekdayランサーズ勉強会第1回 - 開発体制/プロセスについて","url":"https://atnd.org/events/64387","shortener_url":null,"started_at":"2015-04-23T19:30:00.000+09:00","ended_at":"2015-04-23T21:45:00.000+09:00","limit_number":10,"address":"東京都渋谷区渋谷3丁目10-13 TOKYU REIT渋谷Rビル9F","place":"ランサーズ株式会社","lat":35.6568,"lon":139.705,"state":"closed","id":null},{"event_id":"65089","title":"第189回オフライン開発ミーティング","url":"https://atnd.org/events/65089","shortener_url":null,"started_at":"2015-04-19T10:00:00.000+09:00","ended_at":"2015-04-19T12:00:00.000+09:00","limit_number":null,"address":"東京都品川区大崎1-11-1","place":"ゲートシティ大崎B1アトリウムフリー座席","lat":35.6194,"lon":139.731,"state":"closed","id":null},{"event_id":"64771","title":"女性入場無料４月１８日２３時～新たな出会いを新宿のBARで　新規イベントSHINONOME　Vol.1","url":"https://atnd.org/events/64771","shortener_url":null,"started_at":"2015-04-18T23:00:00.000+09:00","ended_at":"2015-04-19T05:00:00.000+09:00","limit_number":80,"address":"新宿区歌舞伎町1-2-13新光ビル2F","place":"DJ BAR BUMP","lat":35.6948,"lon":139.704,"state":"closed","id":null},{"event_id":"62194","title":"【祝！ 開催決定！！】第１３回NARAセッション","url":"https://atnd.org/events/62194","shortener_url":null,"started_at":"2015-04-18T15:00:00.000+09:00","ended_at":"2015-04-18T18:00:00.000+09:00","limit_number":null,"address":"渋谷区元代々木町6-2 ドルチェ元代々木1F","place":"スタジオ セオリ C スタジオ","lat":35.6701,"lon":139.686,"state":"closed","id":null},{"event_id":"63692","title":"【第1回】名古屋iPhone開発者勉強会ビギナーズ（Swift＆Objective-C）","url":"https://atnd.org/events/63692","shortener_url":null,"started_at":"2015-04-18T13:00:00.000+09:00","ended_at":"2015-04-18T18:00:00.000+09:00","limit_number":30,"address":"愛知県名古屋市中村区名駅3丁目18−5 モンマートビル5F","place":"ベースキャンプ名古屋","lat":35.1728,"lon":136.887,"state":"closed","id":null},{"event_id":"65023","title":"Firefox OS大喜利ハッカソン #2","url":"https://atnd.org/events/65023","shortener_url":null,"started_at":"2015-04-18T10:00:00.000+09:00","ended_at":"2015-04-18T16:30:00.000+09:00","limit_number":15,"address":"東京都港区六本木 7-5-6","place":"Mozilla Japan","lat":35.6652,"lon":139.728,"state":"closed","id":null},{"event_id":"63813","title":"3時間でネット公開！Ruby on Railsキャッチアップ勉強会","url":"https://atnd.org/events/63813","shortener_url":null,"started_at":"2015-04-18T10:00:00.000+09:00","ended_at":"2015-04-18T13:00:00.000+09:00","limit_number":20,"address":"東京都中央区新川1−3−4 PAビル4F","place":"コワーキングスペース茅場町 Co-Edoセミナールーム","lat":35.6786,"lon":139.782,"state":"closed","id":null},{"event_id":"63810","title":"3時間でネット公開！Ruby on Railsキャッチアップ勉強会","url":"https://atnd.org/events/63810","shortener_url":null,"started_at":"2015-04-15T19:00:00.000+09:00","ended_at":"2015-04-15T22:00:00.000+09:00","limit_number":20,"address":"東京都港区東麻布1丁目7−3 第二渡邊ビル7F","place":"01Booster小会議（4階入って左手）","lat":35.6577,"lon":139.744,"state":"closed","id":null},{"event_id":"64921","title":"第188回オフライン開発ミーティング","url":"https://atnd.org/events/64921","shortener_url":null,"started_at":"2015-04-12T10:00:00.000+09:00","ended_at":"2015-04-12T12:00:00.000+09:00","limit_number":null,"address":"東京都品川区大崎1-11-1","place":"ゲートシティ大崎B1アトリウムフリー座席","lat":35.6194,"lon":139.731,"state":"closed","id":null},{"event_id":"64019","title":"ISAC (宇宙ハッカソン) 2015 福井会場","url":"https://atnd.org/events/64019","shortener_url":null,"started_at":"2015-04-11T10:00:00.000+09:00","ended_at":"2015-04-12T17:00:00.000+09:00","limit_number":30,"address":"福井県坂井市丸岡町熊堂第3号7番地1-16","place":"福井県産業情報センター","lat":36.1099,"lon":136.274,"state":"closed","id":null},{"event_id":"63812","title":"3時間でネット公開！Ruby on Railsキャッチアップ勉強会","url":"https://atnd.org/events/63812","shortener_url":null,"started_at":"2015-04-11T10:00:00.000+09:00","ended_at":"2015-04-11T13:00:00.000+09:00","limit_number":20,"address":"東京都中央区新川1−3−4 PAビル4F","place":"コワーキングスペース茅場町 Co-Edoセミナールーム","lat":35.6786,"lon":139.782,"state":"closed","id":null},{"event_id":"64732","title":"第187回オフライン開発ミーティング","url":"https://atnd.org/events/64732","shortener_url":null,"started_at":"2015-04-05T10:00:00.000+09:00","ended_at":"2015-04-05T12:00:00.000+09:00","limit_number":null,"address":"東京都品川区大崎1-11-1","place":"ゲートシティ大崎B1アトリウムフリー座席","lat":35.6194,"lon":139.731,"state":"closed","id":null},{"event_id":"64540","title":"日本Androidの会秋葉原支部ロボット部　第35回勉強会 + オープンハードカンファレンス 2015 Tokyo/Spring 打ち上げ + 無限おもちパーティ","url":"https://atnd.org/events/64540","shortener_url":null,"started_at":"2015-04-04T12:00:00.000+09:00","ended_at":"2015-04-04T17:00:00.000+09:00","limit_number":10,"address":"千代田区神田紺屋町37番地 今井ビル2F","place":"ギークハウス神田秋葉原","lat":35.693,"lon":139.774,"state":"closed","id":null},{"event_id":"63811","title":"3時間でネット公開！Ruby on Railsキャッチアップ勉強会","url":"https://atnd.org/events/63811","shortener_url":null,"started_at":"2015-04-04T10:00:00.000+09:00","ended_at":"2015-04-04T13:00:00.000+09:00","limit_number":20,"address":"東京都中央区新川1−3−4 PAビル4F","place":"コワーキングスペース茅場町 Co-Edoセミナールーム","lat":35.6786,"lon":139.782,"state":"closed","id":null},{"event_id":"63894","title":"株式会社ジンジャーアップ主催　xAPI勉強会を開催致します。","url":"https://atnd.org/events/63894","shortener_url":null,"started_at":"2015-04-03T18:00:00.000+09:00","ended_at":"2015-04-06T08:59:59.000+09:00","limit_number":10,"address":"東京都墨田区両国3-25-5","place":"株式会社ジンジャーアップオフィス　ＪＥＩ両国ビル　４Ｆ","lat":35.6954,"lon":139.794,"state":"closed","id":null},{"event_id":"63808","title":"3時間でネット公開！Ruby on Railsキャッチアップ勉強会","url":"https://atnd.org/events/63808","shortener_url":null,"started_at":"2015-04-01T19:00:00.000+09:00","ended_at":"2015-04-01T22:00:00.000+09:00","limit_number":20,"address":"東京都港区東麻布1丁目7−3 第二渡邊ビル7F","place":"01Booster小会議（4階入って左手）","lat":35.6577,"lon":139.744,"state":"closed","id":null},{"event_id":"64770","title":"肉ソン#5","url":"https://atnd.org/events/64770","shortener_url":null,"started_at":"2015-04-29T13:00:00.000+09:00","ended_at":"2015-04-29T21:00:00.000+09:00","limit_number":24,"address":"東京都文京区本郷4-8-3","place":"文京区男女平等センター実習室","lat":35.7086,"lon":139.757,"state":"closed","id":null}]