[{"event_id":"12332","title":"リアルタイム通信が楽しくなるmilkcocoaハッカソン！","url":"https://mlkcca.connpass.com/event/12332/","shortener_url":null,"started_at":"2015-03-28T10:00:00.000+09:00","ended_at":"2015-03-28T17:00:00.000+09:00","limit_number":35,"address":"東京都千代田区神田駿河台4-6 御茶ノ水ソラシティ アカデミア 4F","place":"デジタルハリウッド御茶ノ水校","lat":35.6986,"lon":139.766,"state":"active","id":null},{"event_id":"12857","title":"学生エンジニアチーム対抗、ハッカソンバトル「CTO HEAT UP」","url":"https://connpass.com/event/12857/","shortener_url":null,"started_at":"2015-03-28T13:00:00.000+09:00","ended_at":"2015-03-28T18:00:00.000+09:00","limit_number":null,"address":"東京都渋谷区恵比寿4丁目20-3","place":"株式会社コロプラ","lat":35.6423,"lon":139.713,"state":"active","id":null},{"event_id":"13258","title":"メディア芸術データベース アイディアソン","url":"https://connpass.com/event/13258/","shortener_url":null,"started_at":"2015-03-29T04:00:00.000+09:00","ended_at":"2015-03-29T11:00:00.000+09:00","limit_number":15,"address":"目黒区大橋1丁目6-2","place":"株式会社つみき","lat":35.651,"lon":139.689,"state":"active","id":null},{"event_id":"12241","title":"BaaS","url":"https://connpass.com/event/12241/","shortener_url":null,"started_at":"2015-03-29T10:00:00.000+09:00","ended_at":"2015-03-29T18:00:00.000+09:00","limit_number":30,"address":"札幌市中央区北1条東4丁目1番地1 サッポロファクトリー1条館　3階","place":"株式会社インフィニットループ 会議室","lat":43.0656,"lon":141.374,"state":"active","id":null},{"event_id":"12295","title":"All-Night GEEK GARAGE Hackathon","url":"https://geekgarage.connpass.com/event/12295/","shortener_url":null,"started_at":"2015-03-20T10:30:00.000+09:00","ended_at":"2015-03-20T23:00:00.000+09:00","limit_number":20,"address":"東京都台東区元浅草1-15-9(SAKURAビル2F)","place":"GEEK GARAGE","lat":35.7091,"lon":139.784,"state":"active","id":null},{"event_id":"12219","title":"CTO MEET \u0026 HEAT UP","url":"https://connpass.com/event/12219/","shortener_url":null,"started_at":"2015-03-07T02:30:00.000+09:00","ended_at":"2015-03-07T05:30:00.000+09:00","limit_number":100,"address":"東京都渋谷区恵比寿4丁目20-3","place":"株式会社コロプラ","lat":35.6423,"lon":139.713,"state":"active","id":null},{"event_id":"11860","title":"PyData.Tokyo Tutorial \u0026 Hackathon #1","url":"https://pydatatokyo.connpass.com/event/11860/","shortener_url":null,"started_at":"2015-03-07T02:00:00.000+09:00","ended_at":"2015-03-07T11:00:00.000+09:00","limit_number":45,"address":"東京都渋谷区渋谷2-15−1 (渋谷クロスタワー 28F)","place":"デンソーアイティーラボラトリ","lat":35.6588,"lon":139.705,"state":"active","id":null},{"event_id":"11678","title":"Mishima.syk #5","url":"https://connpass.com/event/11678/","shortener_url":null,"started_at":"2015-03-07T13:00:00.000+09:00","ended_at":"2015-03-07T17:00:00.000+09:00","limit_number":20,"address":"沼津市大手町一丁目1番4号","place":"プラサヴェルデ","lat":35.104,"lon":138.862,"state":"active","id":null},{"event_id":"12442","title":"【選挙ハッカソン】統一選のマニフェストをオープンデータにしよう！","url":"https://connpass.com/event/12442/","shortener_url":null,"started_at":"2015-03-01T04:00:00.000+09:00","ended_at":"2015-03-01T09:00:00.000+09:00","limit_number":null,"address":"","place":"","lat":null,"lon":null,"state":"active","id":null},{"event_id":"11218","title":"関東LibreOffice（に限らず） HackFest(#3)","url":"https://kantolibo.connpass.com/event/11218/","shortener_url":null,"started_at":"2015-03-01T11:00:00.000+09:00","ended_at":"2015-03-01T18:00:00.000+09:00","limit_number":10,"address":"東京都中央区新川１丁目３−４ (PAビル5F)","place":"コワーキングスペース茅場町Co-Edo","lat":35.6786,"lon":139.782,"state":"active","id":null},{"event_id":"12239","title":"カーネル／VMキャンプ #1","url":"https://connpass.com/event/12239/","shortener_url":null,"started_at":"2015-03-27T09:00:00.000+09:00","ended_at":"2015-03-29T20:00:00.000+09:00","limit_number":25,"address":"東京都西多摩郡檜原村人里1839","place":"へんぼり堂","lat":35.7131,"lon":139.088,"state":"active","id":null},{"event_id":"12143","title":"渋谷 関数型ハッカソン","url":"https://fancs.connpass.com/event/12143/","shortener_url":null,"started_at":"2015-03-07T11:00:00.000+09:00","ended_at":"2015-03-07T19:00:00.000+09:00","limit_number":15,"address":"東京都渋谷区渋谷1-1-8　青山ダイヤモンドビル 2階","place":"F@N Communications","lat":35.6611,"lon":139.707,"state":"active","id":null},{"event_id":"11612","title":"瀬戸内国際芸術祭2016×オープンデータ ハッカソン","url":"https://gdgshikoku.connpass.com/event/11612/","shortener_url":null,"started_at":"2015-03-15T01:30:00.000+09:00","ended_at":"2015-03-15T08:30:00.000+09:00","limit_number":30,"address":"香川県高松市サンポート2-1","place":"e-とぴあ・かがわ","lat":34.3527,"lon":134.047,"state":"active","id":null},{"event_id":"63807","title":"3時間でネット公開！Ruby on Railsキャッチアップ勉強会","url":"https://atnd.org/events/63807","shortener_url":null,"started_at":"2015-03-29T04:00:00.000+09:00","ended_at":"2015-03-29T07:00:00.000+09:00","limit_number":20,"address":"東京都港区東麻布1丁目7−3 第二渡邊ビル7F","place":"01Booster小会議（4階入って左手）","lat":35.6577,"lon":139.744,"state":"closed","id":null},{"event_id":"64399","title":"第186回オフライン開発ミーティング","url":"https://atnd.org/events/64399","shortener_url":null,"started_at":"2015-03-29T01:00:00.000+09:00","ended_at":"2015-03-29T03:00:00.000+09:00","limit_number":null,"address":"東京都品川区大崎1-11-1","place":"ゲートシティ大崎B1アトリウムフリー座席","lat":35.6194,"lon":139.731,"state":"closed","id":null},{"event_id":"63320","title":"ゲーム関連企業合同就職説明会｜JobJamKyoto2015.3.29 ※Atnd枠20名","url":"https://atnd.org/events/63320","shortener_url":null,"started_at":"2015-03-29T01:00:00.000+09:00","ended_at":"2015-03-29T03:30:00.000+09:00","limit_number":20,"address":"京都市下京区中堂寺粟田町90","place":"京都リサーチパーク4号館2階 ルーム1、3〜6","lat":34.9944,"lon":135.737,"state":"closed","id":null},{"event_id":"64099","title":"第185回オフライン開発ミーティング","url":"https://atnd.org/events/64099","shortener_url":null,"started_at":"2015-03-22T01:00:00.000+09:00","ended_at":"2015-03-22T03:00:00.000+09:00","limit_number":null,"address":"東京都品川区大崎1-11-1","place":"ゲートシティ大崎B1アトリウムフリー座席","lat":35.6194,"lon":139.731,"state":"closed","id":null},{"event_id":"63338","title":"3時間でネット公開！Ruby on Railsキャッチアップ勉強会","url":"https://atnd.org/events/63338","shortener_url":null,"started_at":"2015-03-21T06:00:00.000+09:00","ended_at":"2015-03-21T09:00:00.000+09:00","limit_number":20,"address":"","place":"","lat":null,"lon":null,"state":"closed","id":null},{"event_id":"63752","title":"第184回オフライン開発ミーティング","url":"https://atnd.org/events/63752","shortener_url":null,"started_at":"2015-03-15T01:00:00.000+09:00","ended_at":"2015-03-15T03:00:00.000+09:00","limit_number":null,"address":"東京都品川区大崎1-11-1","place":"ゲートシティ大崎B1アトリウムフリー座席","lat":35.6194,"lon":139.731,"state":"closed","id":null},{"event_id":"62444","title":"【ご当地賞品あり】池袋・横須賀市オープンデータハッカソン","url":"https://atnd.org/events/62444","shortener_url":null,"started_at":"2015-03-14T04:00:00.000+09:00","ended_at":"2015-03-14T07:30:00.000+09:00","limit_number":null,"address":"東京都文京区本郷7-3-1 東京大学ダイワユビキタス学術研究館","place":"東京大学ダイワユビキタス学術研究館","lat":35.7121,"lon":139.763,"state":"closed","id":null},{"event_id":"61889","title":"瀬戸内国際芸術祭×オープンデータ・アイデアソン","url":"https://atnd.org/events/61889","shortener_url":null,"started_at":"2015-03-14T01:30:00.000+09:00","ended_at":"2015-03-14T07:30:00.000+09:00","limit_number":50,"address":"香川県高松市サンポート2番1号","place":"e-とぴあ・かがわ BBスクエア","lat":34.3527,"lon":134.047,"state":"closed","id":null},{"event_id":"63211","title":"au Firefox OS WoTハッカソン on ホワイトデー","url":"https://atnd.org/events/63211","shortener_url":null,"started_at":"2015-03-14T01:00:00.000+09:00","ended_at":"2015-03-15T11:00:00.000+09:00","limit_number":56,"address":"東京都千代田区飯田橋3-8-5","place":"     住友不動産飯田橋駅前ビル KDDI会議室（受付2階）","lat":35.7019,"lon":139.747,"state":"closed","id":null},{"event_id":"62297","title":"\u003c初心者大歓迎！\u003e学生ゲームハッカソンGe;hack","url":"https://atnd.org/events/62297","shortener_url":null,"started_at":"2015-03-13T01:00:00.000+09:00","ended_at":"2015-03-15T11:00:00.000+09:00","limit_number":30,"address":"","place":"都内企業オフィスにて（決定後随時連絡します）","lat":null,"lon":null,"state":"closed","id":null},{"event_id":"63337","title":"3時間でネット公開！Ruby on Railsキャッチアップ勉強会","url":"https://atnd.org/events/63337","shortener_url":null,"started_at":"2015-03-09T10:00:00.000+09:00","ended_at":"2015-03-09T13:00:00.000+09:00","limit_number":10,"address":"","place":"","lat":null,"lon":null,"state":"closed","id":null},{"event_id":"63426","title":"第183回オフライン開発ミーティング","url":"https://atnd.org/events/63426","shortener_url":null,"started_at":"2015-03-08T01:00:00.000+09:00","ended_at":"2015-03-08T03:00:00.000+09:00","limit_number":null,"address":"東京都品川区大崎1-11-1","place":"ゲートシティ大崎B1アトリウムフリー座席","lat":35.6194,"lon":139.731,"state":"closed","id":null},{"event_id":"63070","title":"【CAMPHOR- リクルート】1 day Hackathon ","url":"https://atnd.org/events/63070","shortener_url":null,"started_at":"2015-03-08T01:00:00.000+09:00","ended_at":"2015-03-08T11:00:00.000+09:00","limit_number":25,"address":"京都府京都市左京区吉田牛ノ宮町16番地","place":"CAMPOHR- HOUSE","lat":35.0249,"lon":135.777,"state":"closed","id":null},{"event_id":"63476","title":"CTO MEET \u0026 HEAT UP","url":"https://atnd.org/events/63476","shortener_url":null,"started_at":"2015-03-07T02:30:00.000+09:00","ended_at":"2015-03-07T05:30:00.000+09:00","limit_number":100,"address":"東京都渋谷区恵比寿4丁目20番","place":"恵比寿ガーデンプレイスタワー11F","lat":35.6432,"lon":139.713,"state":"closed","id":null},{"event_id":"61984","title":"医療セキュリティハッカソン神戸２０１５","url":"https://atnd.org/events/61984","shortener_url":null,"started_at":"2015-03-07T01:00:00.000+09:00","ended_at":"2015-03-08T10:00:00.000+09:00","limit_number":20,"address":"〒650-0034 神戸市中央区京町72番地 新クレセントビル 10F","place":"神戸デジタル・ラボ　１０階　セミナールーム","lat":34.6899,"lon":135.193,"state":"closed","id":null},{"event_id":"62440","title":"池袋オープンデータアイデアソン","url":"https://atnd.org/events/62440","shortener_url":null,"started_at":"2015-03-05T09:30:00.000+09:00","ended_at":"2015-03-05T11:00:00.000+09:00","limit_number":null,"address":"東京都豊島区東池袋1-20-10","place":"豊島区民センター 第2会議室","lat":35.7315,"lon":139.716,"state":"closed","id":null},{"event_id":"61737","title":"【本日開催】【ヒカ☆ラボ】【満員御礼！250名】JavaScript技術を高めたい方必見！最新アドテク×JavaScript実践活用術","url":"https://atnd.org/events/61737","shortener_url":null,"started_at":"2015-03-03T10:30:00.000+09:00","ended_at":"2015-03-03T12:30:00.000+09:00","limit_number":250,"address":"東京都渋谷区渋谷2-21-1","place":"レバレジーズ本社（ 渋谷ヒカリエ 17F ）","lat":35.659,"lon":139.703,"state":"closed","id":null},{"event_id":"63286","title":"【選挙ハッカソン】統一選のマニフェストをオープンデータにしよう！★早稲田大学マニフェスト研究所","url":"https://atnd.org/events/63286","shortener_url":null,"started_at":"2015-03-01T04:00:00.000+09:00","ended_at":"2015-03-01T09:00:00.000+09:00","limit_number":null,"address":"","place":"日本青年会議所会館","lat":null,"lon":null,"state":"closed","id":null},{"event_id":"63178","title":"日本Androidの会秋葉原支部ロボット部　第34回勉強会","url":"https://atnd.org/events/63178","shortener_url":null,"started_at":"2015-03-01T03:30:00.000+09:00","ended_at":"2015-03-01T09:00:00.000+09:00","limit_number":10,"address":"東京都足立区千住旭町5","place":"東京電機大学東京千住キャンパス　東京電機大学 航空技術研究部　（創業支援施設「かけはし」内　2階の最奥左側225室）","lat":35.7481,"lon":139.806,"state":"closed","id":null},{"event_id":"63167","title":"第182回オフライン開発ミーティング","url":"https://atnd.org/events/63167","shortener_url":null,"started_at":"2015-03-01T01:00:00.000+09:00","ended_at":"2015-03-01T03:00:00.000+09:00","limit_number":null,"address":"東京都品川区大崎1-11-1","place":"ゲートシティ大崎B1アトリウムフリー座席","lat":35.6194,"lon":139.731,"state":"closed","id":null},{"event_id":"62742","title":"立命館大学競技プログラミング合宿2015","url":"https://atnd.org/events/62742","shortener_url":null,"started_at":"2015-03-14T04:00:00.000+09:00","ended_at":"2015-03-16T06:00:00.000+09:00","limit_number":60,"address":"滋賀県草津市野路東1丁目1-1","place":"立命館大学 びわこ・くさつキャンパス","lat":34.9822,"lon":135.965,"state":"closed","id":null}]