[{"event_id":"18118","title":"第7回 LOCAL学生部総大会","url":"https://connpass.com/event/18118/","shortener_url":null,"started_at":"2015-08-29T13:00:00.000+09:00","ended_at":"2015-08-30T17:00:00.000+09:00","limit_number":20,"address":"札幌市中央区北1条東4丁目1番地1 サッポロファクトリー1条館　3階","place":"株式会社インフィニットループ 会議室","lat":43.0656,"lon":141.374,"state":"active","id":null},{"event_id":"18058","title":"UX JAM 1","url":"https://uxmilk.connpass.com/event/18058/","shortener_url":null,"started_at":"2015-08-05T10:30:00.000+09:00","ended_at":"2015-08-05T12:30:00.000+09:00","limit_number":150,"address":"東京都中央区晴海1-8-10晴海アイランド トリトンスクエアオフィスタワーX 37階","place":"株式会社メンバーズ　ラウンジスペース","lat":35.6597,"lon":139.785,"state":"active","id":null},{"event_id":"18570","title":"E2D3を使ってExcelでデータビジュアライゼーションをしよう！","url":"https://e2d3.connpass.com/event/18570/","shortener_url":null,"started_at":"2015-08-20T19:20:00.000+09:00","ended_at":"2015-08-20T21:45:00.000+09:00","limit_number":55,"address":"東京都渋谷区宇田川町20-17 NOF渋谷公園通りビル 8F","place":"dots.","lat":35.661,"lon":139.7,"state":"active","id":null},{"event_id":"19472","title":"ICON24時間耐久ハッカソン","url":"https://connpass.com/event/19472/","shortener_url":null,"started_at":"2015-08-30T15:00:00.000+09:00","ended_at":"2015-08-31T15:00:00.000+09:00","limit_number":20,"address":"静岡大学浜松キャンパス","place":"静岡大学浜松キャンパス情報学部棟2号館2FMM教室","lat":34.7248,"lon":137.718,"state":"active","id":null},{"event_id":"19161","title":"FuraIT #10 - 一次産業アイディアソン","url":"https://furait.connpass.com/event/19161/","shortener_url":null,"started_at":"2015-08-29T04:20:00.000+09:00","ended_at":"2015-08-29T07:40:00.000+09:00","limit_number":null,"address":"北海道富良野市朝日町２−１","place":"ふらっと 1F 会議室","lat":43.3475,"lon":142.389,"state":"active","id":null},{"event_id":"19266","title":"第3回Reactive Design Patterns読書会@西新宿","url":"https://readeffectiveakka.connpass.com/event/19266/","shortener_url":null,"started_at":"2015-08-27T19:00:00.000+09:00","ended_at":"2015-08-27T22:00:00.000+09:00","limit_number":6,"address":"東京都新宿区西新宿8-17-1(住友不動産新宿グランドタワー)","place":"TIS株式会社","lat":35.696,"lon":139.691,"state":"active","id":null},{"event_id":"18166","title":"Jubatus ハッカソン with 読売新聞","url":"https://jubatus.connpass.com/event/18166/","shortener_url":null,"started_at":"2015-08-22T13:00:00.000+09:00","ended_at":"2015-08-23T12:00:00.000+09:00","limit_number":50,"address":"東京都中央区銀座 4-12-15","place":"歌舞伎座タワー 14F セミナールーム","lat":35.6697,"lon":139.768,"state":"active","id":null},{"event_id":"17280","title":"プリキュアハッカソン 3","url":"https://cure-hack.connpass.com/event/17280/","shortener_url":null,"started_at":"2015-08-22T13:00:00.000+09:00","ended_at":"2015-08-22T21:00:00.000+09:00","limit_number":18,"address":"東京都目黒区下目黒1丁目8-1","place":"株式会社ドリコム カフェスペース（アルコタワー17F）","lat":35.6314,"lon":139.714,"state":"active","id":null},{"event_id":"18806","title":"音楽の新サービスを考える！　TECH×MUSEアイデアソン！　技術体験も就活も！","url":"https://connpass.com/event/18806/","shortener_url":null,"started_at":"2015-08-22T02:00:00.000+09:00","ended_at":"2015-08-22T08:00:00.000+09:00","limit_number":20,"address":"東京都文京区関口1-29-6,1F","place":"ボノ株式会社　Bono.Inc　我楽田工房","lat":35.7107,"lon":139.725,"state":"active","id":null},{"event_id":"18909","title":"第2回Reactive Design Patterns読書会@西新宿","url":"https://readeffectiveakka.connpass.com/event/18909/","shortener_url":null,"started_at":"2015-08-20T19:00:00.000+09:00","ended_at":"2015-08-20T22:00:00.000+09:00","limit_number":6,"address":"東京都新宿区西新宿8-17-1(住友不動産新宿グランドタワー)","place":"TIS株式会社","lat":35.696,"lon":139.691,"state":"active","id":null},{"event_id":"18466","title":"A3 IoT 2015 RE/Design 「名古屋DevSession」","url":"https://a32015.connpass.com/event/18466/","shortener_url":null,"started_at":"2015-08-22T01:00:00.000+09:00","ended_at":"2015-08-22T09:00:00.000+09:00","limit_number":30,"address":"名古屋市中区新栄2-2-24","place":"あいちベンチャーハウス","lat":35.1693,"lon":136.922,"state":"active","id":null},{"event_id":"18728","title":"IHANet Hackathon@新宿 \u0026 peering day #5","url":"https://ihanet.connpass.com/event/18728/","shortener_url":null,"started_at":"2015-08-15T04:00:00.000+09:00","ended_at":"2015-08-15T10:00:00.000+09:00","limit_number":70,"address":"東京都新宿区西新宿3-20-2 東京オペラシティータワー45F","place":"Juniper様会議室","lat":35.683,"lon":139.687,"state":"active","id":null},{"event_id":"16424","title":"【増席】NSStudy番外編 「中・上級者向けのAzureMachineLearningハンズオン」","url":"https://nsstudy.connpass.com/event/16424/","shortener_url":null,"started_at":"2015-08-08T15:00:00.000+09:00","ended_at":"2015-08-08T19:00:00.000+09:00","limit_number":70,"address":"東京都港区港南 2-16-3 品川グランドセントラルタワー","place":"日本マイクロソフト 品川本社","lat":35.6267,"lon":139.74,"state":"active","id":null},{"event_id":"18631","title":"第1回Reactive Design Patterns読書会@西新宿","url":"https://readeffectiveakka.connpass.com/event/18631/","shortener_url":null,"started_at":"2015-08-13T19:00:00.000+09:00","ended_at":"2015-08-13T22:00:00.000+09:00","limit_number":6,"address":"東京都新宿区西新宿8-17-1(住友不動産新宿グランドタワー)","place":"TIS株式会社","lat":35.696,"lon":139.691,"state":"active","id":null},{"event_id":"17890","title":"【D3.js 初心者講習付】 オープンデータでみる埼玉県知事選ハッカソン！","url":"https://e2d3.connpass.com/event/17890/","shortener_url":null,"started_at":"2015-08-02T10:00:00.000+09:00","ended_at":"2015-08-02T21:00:00.000+09:00","limit_number":25,"address":"東京都新宿区西早稲田1-6-1","place":"早稲田大学 早稲田キャンパス 11号館 912教室","lat":35.7092,"lon":139.719,"state":"active","id":null},{"event_id":"17033","title":"GameJam #004 @tokaiGJC","url":"https://connpass.com/event/17033/","shortener_url":null,"started_at":"2015-08-03T02:00:00.000+09:00","ended_at":"2015-08-05T12:00:00.000+09:00","limit_number":16,"address":"神奈川県平塚市北金目４−１−１","place":"東海大学湘南校舎 C館2階 情報科学第1実験室","lat":35.3608,"lon":139.273,"state":"active","id":null},{"event_id":"18254","title":"8/28開催！『駅とアニメ』を使ってサービスに化学反応を起こすアイデアソン","url":"https://connpass.com/event/18254/","shortener_url":null,"started_at":"2015-08-28T10:00:00.000+09:00","ended_at":"2015-08-28T12:30:00.000+09:00","limit_number":null,"address":"東京都港区六本木1-6-1 泉ガーデンタワー32F","place":"ディップ株式会社会議室","lat":35.6647,"lon":139.739,"state":"active","id":null},{"event_id":"18065","title":"第６回　しずおかアプリ部","url":"https://connpass.com/event/18065/","shortener_url":null,"started_at":"2015-08-22T16:00:00.000+09:00","ended_at":"2015-08-22T18:00:00.000+09:00","limit_number":null,"address":"〒422-8061　静岡市駿河区森下町4-25","place":"学校法人 中村学園 静岡電子情報カレッジ 森下町キャンパス 7階","lat":34.9723,"lon":138.393,"state":"active","id":null},{"event_id":"18064","title":"第５回　しずおかアプリ部","url":"https://connpass.com/event/18064/","shortener_url":null,"started_at":"2015-08-08T16:00:00.000+09:00","ended_at":"2015-08-08T18:00:00.000+09:00","limit_number":null,"address":"〒422-8061　静岡市駿河区森下町4-25","place":"学校法人 中村学園 静岡電子情報カレッジ 森下町キャンパス 7階","lat":34.9723,"lon":138.393,"state":"active","id":null},{"event_id":"17928","title":"[再]第13回Effective Akka読書会@西新宿","url":"https://readeffectiveakka.connpass.com/event/17928/","shortener_url":null,"started_at":"2015-08-06T19:00:00.000+09:00","ended_at":"2015-08-06T22:00:00.000+09:00","limit_number":8,"address":"東京都新宿区西新宿8-17-1(住友不動産新宿グランドタワー)","place":"TIS株式会社","lat":35.696,"lon":139.691,"state":"active","id":null},{"event_id":"17231","title":"金沢Unity勉強会 第6回","url":"https://kzunity.connpass.com/event/17231/","shortener_url":null,"started_at":"2015-08-09T04:00:00.000+09:00","ended_at":"2015-08-09T08:00:00.000+09:00","limit_number":49,"address":"石川県金沢市武蔵町14番31号","place":"ITビジネスプラザ武蔵 5F 研修室1","lat":36.5713,"lon":136.655,"state":"active","id":null},{"event_id":"69587","title":"第204回オフライン開発ミーティング","url":"https://atnd.org/events/69587","shortener_url":null,"started_at":"2015-08-30T01:00:00.000+09:00","ended_at":"2015-08-30T03:00:00.000+09:00","limit_number":null,"address":"東京都品川区大崎1-11-1","place":"ゲートシティ大崎B1アトリウムフリー座席","lat":35.6194,"lon":139.731,"state":"closed","id":null},{"event_id":"68830","title":"ヘルスケアアプリハッカソン ～未来のヘルスケアはサプリよりアプリ～","url":"https://atnd.org/events/68830","shortener_url":null,"started_at":"2015-08-29T01:00:00.000+09:00","ended_at":"2015-08-30T12:00:00.000+09:00","limit_number":50,"address":"東京都港区南青山2丁目24番15号 青山タワービル別館","place":" repica lounge","lat":35.6702,"lon":139.718,"state":"closed","id":null},{"event_id":"68479","title":"ノベじゃむ～高校生と一緒にノベルゲームを作ろう～","url":"https://atnd.org/events/68479","shortener_url":null,"started_at":"2015-08-29T00:00:00.000+09:00","ended_at":"2015-08-30T10:00:00.000+09:00","limit_number":20,"address":"東京都千代田区外神田6-13-11","place":"クラーク記念国際高等学校 秋葉原クラークスタジオ","lat":35.7031,"lon":139.771,"state":"closed","id":null},{"event_id":"68756","title":"8/28開催！『駅とアニメ』を使ってサービスに化学反応を起こすアイデアソン","url":"https://atnd.org/events/68756","shortener_url":null,"started_at":"2015-08-28T10:00:00.000+09:00","ended_at":"2015-08-28T12:00:00.000+09:00","limit_number":10,"address":"東京都港区六本木1-6-1 泉ガーデンタワー32F","place":"ディップ株式会社","lat":35.6647,"lon":139.739,"state":"closed","id":null},{"event_id":"69153","title":"トークセッション「インターネットの世界を変える個人の力」","url":"https://atnd.org/events/69153","shortener_url":null,"started_at":"2015-08-26T09:30:00.000+09:00","ended_at":"2015-08-26T11:30:00.000+09:00","limit_number":30,"address":"東京都千代田区隼町2-13 US半蔵門ビル5階","place":"アクセア会議室　半蔵門","lat":35.6829,"lon":139.742,"state":"closed","id":null},{"event_id":"68353","title":"第２回　阿原研究室アイディアソン","url":"https://atnd.org/events/68353","shortener_url":null,"started_at":"2015-08-24T01:30:00.000+09:00","ended_at":"2015-08-26T09:00:00.000+09:00","limit_number":15,"address":"中野区中野4-21-1明治大学中野キャンパス","place":"中野キャンパス1109室","lat":35.7068,"lon":139.66,"state":"closed","id":null},{"event_id":"69353","title":"第203回オフライン開発ミーティング","url":"https://atnd.org/events/69353","shortener_url":null,"started_at":"2015-08-23T01:00:00.000+09:00","ended_at":"2015-08-23T03:00:00.000+09:00","limit_number":null,"address":"東京都品川区大崎1-11-1","place":"ゲートシティ大崎B1アトリウムフリー座席","lat":35.6194,"lon":139.731,"state":"closed","id":null},{"event_id":"67383","title":"エンジニアだらけのBBQ 2015","url":"https://atnd.org/events/67383","shortener_url":null,"started_at":"2015-08-23T01:00:00.000+09:00","ended_at":"2015-08-23T06:00:00.000+09:00","limit_number":30,"address":"福井市真栗町47-47","place":"ふくい健康の森","lat":36.0135,"lon":136.139,"state":"closed","id":null},{"event_id":"69087","title":"【第3回】名古屋iPhone開発者勉強会ビギナーズ（Swift＆Objective-C）","url":"https://atnd.org/events/69087","shortener_url":null,"started_at":"2015-08-22T04:00:00.000+09:00","ended_at":"2015-08-22T09:00:00.000+09:00","limit_number":30,"address":"〒450-0002 愛知県名古屋市中村区名駅3丁目18−5 モンマートビル5F","place":"ベースキャンプ名古屋","lat":35.1728,"lon":136.887,"state":"closed","id":null},{"event_id":"69055","title":"音楽の新サービスを考える！　TECH×MUSEアイデアソン！　技術体験も就活も！","url":"https://atnd.org/events/69055","shortener_url":null,"started_at":"2015-08-22T02:00:00.000+09:00","ended_at":"2015-08-22T08:00:00.000+09:00","limit_number":20,"address":"東京都文京区関口1-29-6,1F","place":"ボノ株式会社　Bono.Inc　我楽田工房","lat":35.7107,"lon":139.725,"state":"closed","id":null},{"event_id":"67381","title":"ウォークゲームハッカソン in SABAE","url":"https://atnd.org/events/67381","shortener_url":null,"started_at":"2015-08-22T01:00:00.000+09:00","ended_at":"2015-08-22T12:00:00.000+09:00","limit_number":50,"address":"福井県鯖江市新横江2丁目3−4","place":"めがね会館7階","lat":35.9428,"lon":136.199,"state":"closed","id":null},{"event_id":"68962","title":"【大阪80名企画】8月21日（金）◆Luxury男性ビジネスマン/女性20代30代恋活交流Party◆フリードリンク＆ブッフェ料理～心斎橋イタリアンRestaurant～","url":"https://atnd.org/events/68962","shortener_url":null,"started_at":"2015-08-21T11:30:00.000+09:00","ended_at":"2015-08-21T13:30:00.000+09:00","limit_number":80,"address":"大阪府大阪市中央区心斎橋筋2-6-8 シャンペンジャムビル4F","place":"心斎橋LOGIC　5階","lat":34.6701,"lon":135.501,"state":"closed","id":null},{"event_id":"68315","title":"TUT-LT","url":"https://atnd.org/events/68315","shortener_url":null,"started_at":"2015-08-07T09:30:00.000+09:00","ended_at":"2015-08-07T15:00:00.000+09:00","limit_number":null,"address":"","place":"豊橋技術科学大学","lat":null,"lon":null,"state":"closed","id":null},{"event_id":"68526","title":"ソースコードを見せ合って、スキルを向上しよう！　～コンビーズハッカソン～","url":"https://atnd.org/events/68526","shortener_url":null,"started_at":"2015-08-06T10:00:00.000+09:00","ended_at":"2015-08-06T13:00:00.000+09:00","limit_number":null,"address":"大阪市北区堂島浜1丁目4-19 マニュライフプレイス堂島5F (オンライン参加も可能です)","place":"株式会社コンビーズ セミナールーム","lat":34.6956,"lon":135.496,"state":"closed","id":null},{"event_id":"68716","title":"第202回オフライン開発ミーティング","url":"https://atnd.org/events/68716","shortener_url":null,"started_at":"2015-08-02T01:00:00.000+09:00","ended_at":"2015-08-02T03:00:00.000+09:00","limit_number":null,"address":"東京都品川区大崎1-11-1","place":"ゲートシティ大崎B1アトリウムフリー座席","lat":35.6194,"lon":139.731,"state":"closed","id":null},{"event_id":"67493","title":"ゲーム作りの宴 ~Unity x UTAGEを使ってGameJam~","url":"https://atnd.org/events/67493","shortener_url":null,"started_at":"2015-08-01T00:00:00.000+09:00","ended_at":"2015-08-02T10:00:00.000+09:00","limit_number":48,"address":"東京都大田区西蒲田5-23-22","place":"日本工学院専門学校","lat":35.5646,"lon":139.715,"state":"closed","id":null},{"event_id":"17557","title":"(第56回)Python mini Hack-a-thon","url":"https://pyhack.connpass.com/event/17557/","shortener_url":null,"started_at":"2015-08-01T02:00:00.000+09:00","ended_at":"2015-08-01T10:00:00.000+09:00","limit_number":20,"address":"渋谷区千駄ヶ谷5-32-7 野村不動産南新宿ビル4F","place":"ビープラウド会議室","lat":35.6864,"lon":139.704,"state":"active","id":null},{"event_id":"16588","title":"【参加者募集】IoTデバイス開発で過疎地域を盛り上げろ！合宿型インターン","url":"https://connpass.com/event/16588/","shortener_url":null,"started_at":"2015-08-05T01:00:00.000+09:00","ended_at":"2015-08-13T01:00:00.000+09:00","limit_number":10,"address":"","place":"","lat":null,"lon":null,"state":"active","id":null},{"event_id":"66252","title":"第４２回オープンＣＡＥ勉強会","url":"https://atnd.org/events/66252","shortener_url":null,"started_at":"2015-08-29T01:00:00.000+09:00","ended_at":"2015-08-30T06:00:00.000+09:00","limit_number":40,"address":"岐阜県大垣市加賀野4丁目1番地の7","place":"ソフトピアジャパン　ドリームコア２階　岐阜イノベーションセンター研修室","lat":35.3676,"lon":136.639,"state":"closed","id":null},{"event_id":"68885","title":"8/22 無料　WEBマーケティングを活用した集客勉強会【新宿西口／大久保駅徒歩5分】","url":"https://atnd.org/events/68885","shortener_url":null,"started_at":"2015-08-22T04:00:00.000+09:00","ended_at":"2015-08-22T08:00:00.000+09:00","limit_number":20,"address":"東京都新宿区西新宿7-7-27","place":"第一守徳ビル3F　（１Fにバーガーキングがあります）","lat":35.6973,"lon":139.698,"state":"closed","id":null},{"event_id":"69318","title":"第15回 Drupal さっぽろ Meetup（Drupal 勉強会＠さっぽろ）","url":"https://atnd.org/events/69318","shortener_url":null,"started_at":"2015-08-21T10:00:00.000+09:00","ended_at":"2015-08-21T12:00:00.000+09:00","limit_number":20,"address":"札幌市白石区東札幌5条1丁目1-1","place":"札幌市産業振興センター　セミナールームD","lat":43.0562,"lon":141.386,"state":"closed","id":null},{"event_id":"68840","title":"マイルドはてな村食事会(第6回)","url":"https://atnd.org/events/68840","shortener_url":null,"started_at":"2015-08-07T20:00:00.000+09:00","ended_at":"2015-08-16T14:00:00.000+09:00","limit_number":49,"address":"","place":"ザハ案","lat":null,"lon":null,"state":"closed","id":null},{"event_id":"14999621271","title":"Menlo Factory Tour (Virtual)","url":"https://www.eventbrite.com/e/menlo-factory-tour-virtual-registration-14999621271","shortener_url":null,"started_at":"2015-08-10T20:00:00.000+09:00","ended_at":"2022-09-21T19:30:00.000+09:00","limit_number":null,"address":null,"place":"online","lat":null,"lon":null,"state":"active","id":null}]