[{"event_id":"10881","title":"「Live2D× After Effects 動くイラスト編」　ClubPEC Jam 1.12","url":"https://cr-games.connpass.com/event/10881/","shortener_url":null,"started_at":"2015-01-12T04:00:00.000+09:00","ended_at":"2015-01-12T06:30:00.000+09:00","limit_number":80,"address":"東京都千代田区一番町8","place":"株式会社クリーク･アンド･リバー社　本社　2F","lat":35.6872,"lon":139.74,"state":"active","id":null},{"event_id":"11348","title":"日本OpenStackユーザ会 第21回勉強会(ハッカソン)","url":"https://openstack-jp.connpass.com/event/11348/","shortener_url":null,"started_at":"2015-01-24T13:00:00.000+09:00","ended_at":"2015-01-24T18:00:00.000+09:00","limit_number":10,"address":"東京都千代田区神田佐久間町3-6 (M's WORKS BLDG 2F)","place":"クリエーションライン","lat":35.6973,"lon":139.778,"state":"active","id":null},{"event_id":"10856","title":".hackやSAO好きは必見! OculusとLeapMotionで画面の中にダイブしてみよう!","url":"https://connpass.com/event/10856/","shortener_url":null,"started_at":"2015-01-24T14:00:00.000+09:00","ended_at":"2015-01-24T17:00:00.000+09:00","limit_number":20,"address":"東京都港区虎ノ門2-3-22","place":"株式会社ディーネット","lat":35.6688,"lon":139.747,"state":"active","id":null},{"event_id":"10941","title":"Osaka_GlobalGameJam(大規模ゲームハッカソン_大阪会場)","url":"https://connpass.com/event/10941/","shortener_url":null,"started_at":"2015-01-23T11:00:00.000+09:00","ended_at":"2015-01-25T11:00:00.000+09:00","limit_number":40,"address":"大阪市北区大深町3-1","place":"グランフロント大阪 北館 7F ナレッジサロン","lat":34.7053,"lon":135.495,"state":"active","id":null},{"event_id":"11063","title":"【クリエイター大新年会】第6回 HTML5minutes！ 〜triton-js〜","url":"https://html5m.connpass.com/event/11063/","shortener_url":null,"started_at":"2015-01-14T10:30:00.000+09:00","ended_at":"2015-01-14T12:30:00.000+09:00","limit_number":null,"address":"東京都中央区晴海1-8-10","place":"株式会社メンバーズ　ラウンジスペース（晴海トリトンスクエア　タワーX37階）","lat":35.6564,"lon":139.782,"state":"active","id":null},{"event_id":"10612","title":"女子力ハッカソン","url":"https://connpass.com/event/10612/","shortener_url":null,"started_at":"2015-01-30T20:00:00.000+09:00","ended_at":"2015-01-31T20:00:00.000+09:00","limit_number":20,"address":"東京都品川区西五反田8-2-12フラッツ増沢5B","place":"株式会社Genestream","lat":35.6229,"lon":139.721,"state":"active","id":null},{"event_id":"10610","title":"http2 interop ハッカソン #4","url":"https://http2study.connpass.com/event/10610/","shortener_url":null,"started_at":"2015-01-24T04:00:00.000+09:00","ended_at":"2015-01-24T10:00:00.000+09:00","limit_number":30,"address":"東京都千代田区富士見2-10-2　飯田橋グラン・ブルーム","place":"株式会社インターネットイニシアティブ 本社 中会議室","lat":35.6977,"lon":139.743,"state":"active","id":null},{"event_id":"10835","title":"Bar android Extended #3　オープンアイデアハッカソン","url":"https://bar-android-extended.connpass.com/event/10835/","shortener_url":null,"started_at":"2015-01-18T10:00:00.000+09:00","ended_at":"2015-01-18T19:00:00.000+09:00","limit_number":null,"address":"世田谷区北沢2-19-10","place":"下北沢 blue monday","lat":35.6611,"lon":139.667,"state":"active","id":null},{"event_id":"61438","title":"OculusRift＋UnityでVR開発一日体験","url":"https://atnd.org/events/61438","shortener_url":null,"started_at":"2015-01-31T02:00:00.000+09:00","ended_at":"2015-01-31T11:00:00.000+09:00","limit_number":15,"address":"〒169-8333 東京都新宿区北新宿2-21-1 新宿フロントタワー","place":"ニフティ株式会社 セミナールーム","lat":35.6961,"lon":139.689,"state":"closed","id":null},{"event_id":"61016","title":"ちょっぴり新春 Firefox OSハッカソン 2015","url":"https://atnd.org/events/61016","shortener_url":null,"started_at":"2015-01-31T01:00:00.000+09:00","ended_at":"2015-01-31T09:00:00.000+09:00","limit_number":15,"address":"東京都港区六本木 7-5-6","place":"Mozilla Japanオフィス","lat":35.6652,"lon":139.728,"state":"closed","id":null},{"event_id":"59915","title":"【ヒカ☆ラボ】【自作サンプルコードの特典付き】【iOSアプリ開発未経験者必見】あなたも出来る！iOSアプリ開発未経験だった登壇者が、2週間でSwiftアプリを開発できたわけとは。","url":"https://atnd.org/events/59915","shortener_url":null,"started_at":"2015-01-27T11:00:00.000+09:00","ended_at":"2015-01-27T13:00:00.000+09:00","limit_number":80,"address":"東京都渋谷区渋谷2-21-1","place":"レバレジーズ本社 ( 渋谷ヒカリエ17F)","lat":35.659,"lon":139.703,"state":"closed","id":null},{"event_id":"61698","title":"第177回オフライン開発ミーティング","url":"https://atnd.org/events/61698","shortener_url":null,"started_at":"2015-01-25T01:00:00.000+09:00","ended_at":"2015-01-25T03:00:00.000+09:00","limit_number":null,"address":"東京都品川区大崎1-11-1","place":"ゲートシティ大崎B1アトリウムフリー座席","lat":35.6194,"lon":139.731,"state":"closed","id":null},{"event_id":"60725","title":"MakerStarter #8 ～農家ソン 1日目:アイディアソン～","url":"https://atnd.org/events/60725","shortener_url":null,"started_at":"2015-01-25T01:00:00.000+09:00","ended_at":"2015-01-25T08:00:00.000+09:00","limit_number":null,"address":"石川県金沢市八田町東1312","place":"金沢大地","lat":36.6332,"lon":136.685,"state":"closed","id":null},{"event_id":"60700","title":".hackやSAO好きは必見! OculusとLeapMotionで画面の中にダイブしてみよう!","url":"https://atnd.org/events/60700","shortener_url":null,"started_at":"2015-01-24T05:00:00.000+09:00","ended_at":"2015-01-24T08:00:00.000+09:00","limit_number":10,"address":"東京都港区虎ノ門2-3-22","place":"株式会社ディーネット","lat":35.6688,"lon":139.747,"state":"closed","id":null},{"event_id":"61540","title":"日本Androidの会秋葉原支部ロボット部　第33回勉強会","url":"https://atnd.org/events/61540","shortener_url":null,"started_at":"2015-01-24T03:00:00.000+09:00","ended_at":"2015-01-24T08:30:00.000+09:00","limit_number":10,"address":"千代田区神田紺屋町37番地 今井ビル2F","place":"ギークハウス神田秋葉原","lat":35.693,"lon":139.774,"state":"closed","id":null},{"event_id":"60624","title":"【#TechBuzz】第28回代々木Unity勉強会 今月のテーマ【Unityビルド自動化のまとめ+α】","url":"https://atnd.org/events/60624","shortener_url":null,"started_at":"2015-01-23T10:30:00.000+09:00","ended_at":"2015-01-23T12:30:00.000+09:00","limit_number":40,"address":"東京都渋谷区代々木1-27-16 JECビル 5F","place":"代々木TechBuzzSpace（JECビル 5F）","lat":35.6824,"lon":139.701,"state":"closed","id":null},{"event_id":"60890","title":"ハツカソン(2015年1月20日) - 毎月20日は #ハツカソン","url":"https://atnd.org/events/60890","shortener_url":null,"started_at":"2015-01-19T15:00:00.000+09:00","ended_at":"2015-01-20T14:59:00.000+09:00","limit_number":null,"address":"","place":"各自で","lat":null,"lon":null,"state":"closed","id":null},{"event_id":"61359","title":"第176回オフライン開発ミーティング","url":"https://atnd.org/events/61359","shortener_url":null,"started_at":"2015-01-18T01:00:00.000+09:00","ended_at":"2015-01-18T03:00:00.000+09:00","limit_number":null,"address":"東京都品川区大崎1-11-1","place":"ゲートシティ大崎B1アトリウムフリー座席","lat":35.6194,"lon":139.731,"state":"closed","id":null},{"event_id":"60724","title":"【GGJ直前特別開催】新春 Photon勉強会 - 東京・渋谷 -","url":"https://atnd.org/events/60724","shortener_url":null,"started_at":"2015-01-15T10:30:00.000+09:00","ended_at":"2015-01-15T12:00:00.000+09:00","limit_number":30,"address":"東京都東京都渋谷区桜丘町26-1 セルリアンタワー11階","place":"GMO Yours","lat":35.6565,"lon":139.699,"state":"closed","id":null},{"event_id":"61106","title":"【クリエイター大新年会】第6回 HTML5minutes！ 〜triton-js〜","url":"https://atnd.org/events/61106","shortener_url":null,"started_at":"2015-01-14T10:30:00.000+09:00","ended_at":"2015-01-14T13:00:00.000+09:00","limit_number":31,"address":"東京都中央区晴海1-8-10","place":"株式会社メンバーズ　ラウンジスペース（晴海トリトンスクエア　タワーX37階）","lat":35.6564,"lon":139.782,"state":"closed","id":null},{"event_id":"60993","title":"第175回オフライン開発ミーティング","url":"https://atnd.org/events/60993","shortener_url":null,"started_at":"2015-01-11T01:00:00.000+09:00","ended_at":"2015-01-11T03:00:00.000+09:00","limit_number":null,"address":"東京都品川区大崎1-11-1","place":"ゲートシティ大崎B1アトリウムフリー座席","lat":35.6194,"lon":139.731,"state":"closed","id":null},{"event_id":"60439","title":"日本Androidの会香川支部 新年会","url":"https://atnd.org/events/60439","shortener_url":null,"started_at":"2015-01-10T04:00:00.000+09:00","ended_at":"2015-01-10T07:30:00.000+09:00","limit_number":8,"address":"","place":"ザムウ宇多津事務所","lat":null,"lon":null,"state":"closed","id":null},{"event_id":"59834","title":"2015 - 横浜でAndroidっぽい新年会 4ier","url":"https://atnd.org/events/59834","shortener_url":null,"started_at":"2015-01-09T10:00:00.000+09:00","ended_at":"2015-01-09T13:00:00.000+09:00","limit_number":20,"address":"神奈川県横浜市西区みなとみらい3-6-1 みなとみらいセンタービル11F","place":"株式会社アットウェア横浜本社","lat":35.4576,"lon":139.633,"state":"closed","id":null},{"event_id":"60868","title":"Hackathon boot camp 1st","url":"https://atnd.org/events/60868","shortener_url":null,"started_at":"2015-01-08T10:00:00.000+09:00","ended_at":"2015-01-29T12:00:00.000+09:00","limit_number":10,"address":"大阪府大阪市北区梅田3-4-5 毎日インテシオ5F","place":"株式会社ラクス 大阪本店 会議室","lat":34.6985,"lon":135.49,"state":"closed","id":null},{"event_id":"9425","title":"Python mini hack-a-thon 雪山合宿 2015","url":"https://pyhack.connpass.com/event/9425/","shortener_url":null,"started_at":"2015-01-30T04:00:00.000+09:00","ended_at":"2015-02-01T07:00:00.000+09:00","limit_number":25,"address":"長野県須坂市大字仁礼峰の原高原3153-720","place":"ペンション マウンテンパパ","lat":36.5531,"lon":138.35,"state":"active","id":null},{"event_id":"61060","title":"情報科学若手の会冬の陣2015 #wakate2015w","url":"https://atnd.org/events/61060","shortener_url":null,"started_at":"2015-01-24T05:00:00.000+09:00","ended_at":"2015-01-24T09:00:00.000+09:00","limit_number":50,"address":"東京都中野区中野4-21-1","place":"明治大学中野キャンパス　高層棟6階　クロスフィールドラウンジ　プレゼンスペース","lat":35.7066,"lon":139.659,"state":"closed","id":null}]