[{"event_id":"21240","title":"【増枠】達人たちから学ぶ。VRにおけるUI/UX","url":"https://amana.connpass.com/event/21240/","shortener_url":null,"started_at":"2015-10-29T04:30:00.000+09:00","ended_at":"2015-10-29T07:00:00.000+09:00","limit_number":80,"address":"東京都品川区東品川2‐2‐43","place":"株式会社アマナ　天王洲オフィス　大会議室","lat":35.623,"lon":139.748,"state":"active","id":null},{"event_id":"21067","title":"Design Academy 第七回「アイコンデザインの極みへ」","url":"https://design-academy.connpass.com/event/21067/","shortener_url":null,"started_at":"2015-10-30T04:30:00.000+09:00","ended_at":"2015-10-30T07:30:00.000+09:00","limit_number":30,"address":"東京都渋谷区代々木2丁目2-1 小田急サザンタワー8階","place":"株式会社Donuts","lat":35.6864,"lon":139.7,"state":"active","id":null},{"event_id":"19483","title":"[女性向け♡]Sweet Swiftからアプリ開発を始めよう★","url":"https://morei.connpass.com/event/19483/","shortener_url":null,"started_at":"2015-10-01T20:00:00.000+09:00","ended_at":"2015-10-01T22:30:00.000+09:00","limit_number":7,"address":"東京都品川区上大崎2丁目13番17号 目黒東急ビル 5階","place":"株式会社Viibar","lat":35.6351,"lon":139.719,"state":"active","id":null},{"event_id":"19562","title":"【増席決定♡】【初心者歓迎】女性向けのSweet Swiftでアプリの作り方を学ぼう★","url":"https://morei.connpass.com/event/19562/","shortener_url":null,"started_at":"2015-10-17T14:00:00.000+09:00","ended_at":"2015-10-17T16:30:00.000+09:00","limit_number":5,"address":"〒150-0041 東京都渋谷区神南1-12-16 アジアビル1階","place":"Lib, Inc","lat":35.6627,"lon":139.701,"state":"active","id":null},{"event_id":"20440","title":"試しに、ゆる〜くMeteorハッカソンやってみませんか？in Tokyo","url":"https://meteor-tokyo.connpass.com/event/20440/","shortener_url":null,"started_at":"2015-10-10T09:30:00.000+09:00","ended_at":"2015-10-10T21:00:00.000+09:00","limit_number":30,"address":"東京都港区赤坂1丁目11番44号(赤坂インターシティ11F)","place":"エムスリー株式会社 セミナールーム","lat":35.669,"lon":139.742,"state":"active","id":null},{"event_id":"22128","title":"【直前募集・豪華賞品】５G（次世代移動通信規格）× ローソン アイデアソン！！","url":"https://connpass.com/event/22128/","shortener_url":null,"started_at":"2015-10-31T13:00:00.000+09:00","ended_at":"2015-10-31T19:30:00.000+09:00","limit_number":25,"address":"東京都港区赤坂1-12-32アーク森ビル31階","place":"NTTドコモ・ベンチャーズ　ラウンジ","lat":35.6671,"lon":139.74,"state":"active","id":null},{"event_id":"21390","title":"【ハッピーハロウィン】スイーツを食べながらスマホアプリを作ってみよう♡","url":"https://morei.connpass.com/event/21390/","shortener_url":null,"started_at":"2015-10-28T20:00:00.000+09:00","ended_at":"2015-10-28T22:30:00.000+09:00","limit_number":10,"address":"〒108-0014 東京都港区芝5-33-1 森永プラザビル本館 17F","place":"株式会社マネーフォワード","lat":35.6466,"lon":139.748,"state":"active","id":null},{"event_id":"21894","title":"第10回Reactive Design Patterns読書会@西新宿","url":"https://readeffectiveakka.connpass.com/event/21894/","shortener_url":null,"started_at":"2015-10-30T04:00:00.000+09:00","ended_at":"2015-10-30T07:00:00.000+09:00","limit_number":6,"address":"東京都新宿区西新宿8-17-1(住友不動産新宿グランドタワー)","place":"TIS株式会社","lat":35.696,"lon":139.691,"state":"active","id":null},{"event_id":"20579","title":"【追加枠】DevOps Hackathon(Dockerミニセッションあり)","url":"https://devopsjp.connpass.com/event/20579/","shortener_url":null,"started_at":"2015-10-24T09:00:00.000+09:00","ended_at":"2015-10-25T17:00:00.000+09:00","limit_number":15,"address":"〒108-0075  東京都港区港南 2-16-3 品川グランドセントラルタワー","place":"日本マイクロソフト株式会社品川本社31F セミナールームD","lat":35.6267,"lon":139.74,"state":"active","id":null},{"event_id":"21523","title":"第9回Reactive Design Patterns読書会@西新宿","url":"https://readeffectiveakka.connpass.com/event/21523/","shortener_url":null,"started_at":"2015-10-23T04:00:00.000+09:00","ended_at":"2015-10-23T07:00:00.000+09:00","limit_number":6,"address":"東京都新宿区西新宿8-17-1(住友不動産新宿グランドタワー)","place":"TIS株式会社","lat":35.696,"lon":139.691,"state":"active","id":null},{"event_id":"21786","title":"曙橋ハッカソン","url":"https://connpass.com/event/21786/","shortener_url":null,"started_at":"2015-10-25T23:00:00.000+09:00","ended_at":"2015-10-26T04:00:00.000+09:00","limit_number":null,"address":"東京都新宿区四谷坂町12-22 (IPBビル)","place":"タイムインターメディア 会議室(3F)","lat":35.6912,"lon":139.727,"state":"active","id":null},{"event_id":"21649","title":"【初級】Arduinoを使ったオリジナル電子工作作品を作れるようになろう","url":"https://arduino-kaikai.connpass.com/event/21649/","shortener_url":null,"started_at":"2015-10-31T19:10:00.000+09:00","ended_at":"2015-10-31T21:10:00.000+09:00","limit_number":10,"address":"東京都渋谷区渋谷2-22-14渋谷二丁目","place":"beez渋谷店","lat":35.6589,"lon":139.703,"state":"active","id":null},{"event_id":"20418","title":"【初級】Arduinoを使ったオリジナル電子工作作品を作れるようになろう","url":"https://arduino-kaikai.connpass.com/event/20418/","shortener_url":null,"started_at":"2015-10-17T19:00:00.000+09:00","ended_at":"2015-10-17T21:10:00.000+09:00","limit_number":10,"address":"東京都渋谷区渋谷2-22-14渋谷二丁目","place":"beez渋谷店","lat":35.6589,"lon":139.703,"state":"active","id":null},{"event_id":"21553","title":"NodeSchool Translathon@下北沢OSSカフェ","url":"https://connpass.com/event/21553/","shortener_url":null,"started_at":"2015-10-18T19:00:00.000+09:00","ended_at":"2015-10-19T03:00:00.000+09:00","limit_number":10005,"address":"東京都世田谷区代田6-11-14-G1","place":"下北沢","lat":35.6655,"lon":139.663,"state":"active","id":null},{"event_id":"21518","title":"【大学生限定】Unity女子が教えるゲームエンジン入門","url":"https://gfe.connpass.com/event/21518/","shortener_url":null,"started_at":"2015-10-17T04:00:00.000+09:00","ended_at":"2015-10-17T06:00:00.000+09:00","limit_number":30,"address":"東京都港区南青山2-11-17　第一法規本社ビル 2･3F","place":"Goodfindセミナールーム","lat":35.6715,"lon":139.722,"state":"active","id":null},{"event_id":"21095","title":"意外とガチで開発している3社が集結!!　今日であなたの企業イメージが180度変わる!?","url":"https://hitomedia-night.connpass.com/event/21095/","shortener_url":null,"started_at":"2015-10-29T04:30:00.000+09:00","ended_at":"2015-10-29T07:00:00.000+09:00","limit_number":50,"address":"港区元麻布3-1-35(c-MA3 A棟 B2)","place":"hitomedia\"the p@rk\"","lat":35.658,"lon":139.728,"state":"active","id":null},{"event_id":"21096","title":"LIG Pepper Hackathon","url":"https://lig.connpass.com/event/21096/","shortener_url":null,"started_at":"2015-10-17T11:00:00.000+09:00","ended_at":"2015-10-17T19:00:00.000+09:00","limit_number":30,"address":"東京都台東区東上野2-18-7 (共同ビル10階)","place":"株式会社LIG","lat":35.7103,"lon":139.777,"state":"active","id":null},{"event_id":"20758","title":"UX JAM 3","url":"https://uxmilk.connpass.com/event/20758/","shortener_url":null,"started_at":"2015-10-14T19:30:00.000+09:00","ended_at":"2015-10-14T22:00:00.000+09:00","limit_number":105,"address":"東京都中央区晴海1-8-10晴海アイランド トリトンスクエアオフィスタワーX 37階","place":"株式会社メンバーズ　ラウンジスペース","lat":35.6597,"lon":139.785,"state":"active","id":null},{"event_id":"19594","title":"littleBitsでアイディアをカタチにしてみよう！初めてでもカンタン電子工作！","url":"https://connpass.com/event/19594/","shortener_url":null,"started_at":"2015-10-18T10:00:00.000+09:00","ended_at":"2015-10-18T18:00:00.000+09:00","limit_number":40,"address":"宮城県仙台市青葉区一番町４丁目６−１(仙台第一生命タワービル８F)","place":"(株)メンバーズ＠ウェブガーデン仙台","lat":38.264,"lon":140.872,"state":"active","id":null},{"event_id":"21173","title":"ITエンジニア個人作品展 Autumn Gadget Fest. 2015","url":"https://connpass.com/event/21173/","shortener_url":null,"started_at":"2015-10-31T11:00:00.000+09:00","ended_at":"2015-11-01T17:00:00.000+09:00","limit_number":null,"address":"千葉県柏市東上町2-28 (第一水戸屋ビル3F)","place":"Noblesse Oblige","lat":35.8588,"lon":139.976,"state":"active","id":null},{"event_id":"20406","title":"信州マッシュアップハッカソン（MA11)","url":"https://gdg-shinshu.connpass.com/event/20406/","shortener_url":null,"started_at":"2015-10-03T19:00:00.000+09:00","ended_at":"2015-10-05T04:00:00.000+09:00","limit_number":30,"address":"長野県塩尻市大門八番町１−２","place":"塩尻インキュベーションプラザ 1F 多目的ホール","lat":36.1113,"lon":137.95,"state":"active","id":null},{"event_id":"21100","title":"第8回Reactive Design Patterns読書会@西新宿","url":"https://readeffectiveakka.connpass.com/event/21100/","shortener_url":null,"started_at":"2015-10-16T04:00:00.000+09:00","ended_at":"2015-10-16T07:00:00.000+09:00","limit_number":6,"address":"東京都新宿区西新宿8-17-1(住友不動産新宿グランドタワー)","place":"TIS株式会社","lat":35.696,"lon":139.691,"state":"active","id":null},{"event_id":"20608","title":"第7回Reactive Design Patterns読書会@西新宿","url":"https://readeffectiveakka.connpass.com/event/20608/","shortener_url":null,"started_at":"2015-10-09T04:00:00.000+09:00","ended_at":"2015-10-09T07:00:00.000+09:00","limit_number":6,"address":"東京都新宿区西新宿8-17-1(住友不動産新宿グランドタワー)","place":"TIS株式会社","lat":35.696,"lon":139.691,"state":"active","id":null},{"event_id":"21022","title":"全国ギークハウスもくもく会@ギークハウス自由が丘","url":"https://studyprogramming.connpass.com/event/21022/","shortener_url":null,"started_at":"2015-10-25T19:00:00.000+09:00","ended_at":"2015-10-26T03:00:00.000+09:00","limit_number":8,"address":"東京都世田谷区尾山台 3-33-15 光レジデンス 301","place":"ギークハウス自由が丘","lat":35.6065,"lon":139.655,"state":"active","id":null},{"event_id":"19976","title":"cheeroネクストプロダクトアイデアソン","url":"https://connpass.com/event/19976/","shortener_url":null,"started_at":"2015-10-12T11:00:00.000+09:00","ended_at":"2015-10-12T20:00:00.000+09:00","limit_number":30,"address":"大阪市北区大深町3番1号　(グランフロント大阪 ナレッジキャピタルタワーC 7階)","place":"大阪イノベーションハブ","lat":34.7053,"lon":135.495,"state":"active","id":null},{"event_id":"19731","title":"Python入門者向けハンズオン #2 2015-10-02","url":"https://python-sapporo.connpass.com/event/19731/","shortener_url":null,"started_at":"2015-10-03T03:00:00.000+09:00","ended_at":"2015-10-03T06:30:00.000+09:00","limit_number":37,"address":"札幌市中央区北3条西4丁目1-1 (日本生命札幌ビル 11F クリプトン・フューチャー・メディア株式会社 会議室)","place":"クリプトン・フューチャー・メディア株式会社 会議室","lat":43.065,"lon":141.35,"state":"active","id":null},{"event_id":"19933","title":"GAS Station #2","url":"https://gas-station.connpass.com/event/19933/","shortener_url":null,"started_at":"2015-10-10T04:00:00.000+09:00","ended_at":"2015-10-10T07:00:00.000+09:00","limit_number":40,"address":"東京都港区六本木 6-10-1 六本木ヒルズ森タワー ","place":"Google 東京オフィス","lat":35.6606,"lon":139.729,"state":"active","id":null},{"event_id":"20162","title":"第１０回　しずおかアプリ部","url":"https://connpass.com/event/20162/","shortener_url":null,"started_at":"2015-10-25T01:00:00.000+09:00","ended_at":"2015-10-25T03:00:00.000+09:00","limit_number":null,"address":"〒422-8061　静岡市駿河区森下町4-25","place":"学校法人 中村学園 静岡電子情報カレッジ 森下町キャンパス 7階","lat":34.9723,"lon":138.393,"state":"active","id":null},{"event_id":"20161","title":"第９回　しずおかアプリ部","url":"https://connpass.com/event/20161/","shortener_url":null,"started_at":"2015-10-11T01:00:00.000+09:00","ended_at":"2015-10-11T03:00:00.000+09:00","limit_number":null,"address":"〒422-8061　静岡市駿河区森下町4-25","place":"学校法人 中村学園 静岡電子情報カレッジ 森下町キャンパス 7階","lat":34.9723,"lon":138.393,"state":"active","id":null},{"event_id":"19816","title":"第6回Reactive Design Patterns読書会@西新宿","url":"https://readeffectiveakka.connpass.com/event/19816/","shortener_url":null,"started_at":"2015-10-02T04:00:00.000+09:00","ended_at":"2015-10-02T07:00:00.000+09:00","limit_number":6,"address":"東京都新宿区西新宿8-17-1(住友不動産新宿グランドタワー)","place":"TIS株式会社","lat":35.696,"lon":139.691,"state":"active","id":null},{"event_id":"70253","title":"NetOpsCoding#1","url":"https://atnd.org/events/70253","shortener_url":null,"started_at":"2015-10-30T19:00:00.000+09:00","ended_at":"2015-10-30T21:00:00.000+09:00","limit_number":80,"address":"東京都品川区東品川4-12-4 品川シーサイドパークタワー 3F","place":"ビッグローブ株式会社","lat":35.6103,"lon":139.748,"state":"closed","id":null},{"event_id":"71658","title":"第211回オフライン開発ミーティング","url":"https://atnd.org/events/71658","shortener_url":null,"started_at":"2015-10-25T10:00:00.000+09:00","ended_at":"2015-10-25T12:00:00.000+09:00","limit_number":null,"address":"東京都品川区大崎1-11-1","place":"ゲートシティ大崎B1アトリウムフリー座席","lat":35.6194,"lon":139.731,"state":"closed","id":null},{"event_id":"71344","title":"もくもく勉強会\u0026マッシュアップAPI勉強会","url":"https://atnd.org/events/71344","shortener_url":null,"started_at":"2015-10-24T10:00:00.000+09:00","ended_at":"2015-10-24T17:00:00.000+09:00","limit_number":12,"address":"岐阜県大垣市今宿6-52-16 ドリームコア会議室(Dreamcore5Fミーティングルームに決定しました!!)","place":"ドリームコア会議室(何階かは未定)","lat":35.3679,"lon":136.637,"state":"closed","id":null},{"event_id":"69764","title":"【本日開催】【総応募数40名突破！※他媒体でも告知しております】【ヒカ☆ラボ】【SIer→Web業界希望者必見】SIer出身エンジニアが本音で語る！Webエンジニアになる術を余すことなくお伝えします！","url":"https://atnd.org/events/69764","shortener_url":null,"started_at":"2015-10-20T20:00:00.000+09:00","ended_at":"2015-10-20T22:00:00.000+09:00","limit_number":30,"address":"東京都渋谷区渋谷2-21-1","place":"レバレジーズ本社（ 渋谷ヒカリエ 17F ）","lat":35.659,"lon":139.703,"state":"closed","id":null},{"event_id":"71312","title":"第210回オフライン開発ミーティング","url":"https://atnd.org/events/71312","shortener_url":null,"started_at":"2015-10-18T10:00:00.000+09:00","ended_at":"2015-10-18T12:00:00.000+09:00","limit_number":null,"address":"東京都品川区大崎1-11-1","place":"ゲートシティ大崎B1アトリウムフリー座席","lat":35.6194,"lon":139.731,"state":"closed","id":null},{"event_id":"70010","title":"UNREAL FEST 2015 YOKOHAMA","url":"https://atnd.org/events/70010","shortener_url":null,"started_at":"2015-10-18T18:30:00.000+09:00","ended_at":"2015-10-19T04:00:00.000+09:00","limit_number":1200,"address":"神奈川県横浜市西区みなとみらい1丁目1−1","place":"パシフィコ横浜 会議センター 3F","lat":35.4587,"lon":139.636,"state":"closed","id":null},{"event_id":"71170","title":"第209回オフライン開発ミーティング","url":"https://atnd.org/events/71170","shortener_url":null,"started_at":"2015-10-11T10:00:00.000+09:00","ended_at":"2015-10-11T12:00:00.000+09:00","limit_number":null,"address":"東京都品川区大崎1-11-1","place":"ゲートシティ大崎B1アトリウムフリー座席","lat":35.6194,"lon":139.731,"state":"closed","id":null},{"event_id":"70157","title":"【関西】 UE4 GameJam","url":"https://atnd.org/events/70157","shortener_url":null,"started_at":"2015-10-11T09:00:00.000+09:00","ended_at":"2015-10-12T20:00:00.000+09:00","limit_number":25,"address":"大阪府大阪市中央区西心斎橋2-8-5","place":"バンタンゲームアカデミー　大阪校","lat":34.6698,"lon":135.499,"state":"closed","id":null},{"event_id":"70007","title":"【本日開催】【ヒカ☆ラボ】 最新アドテクを支えるサーバサイドの技術~Nginx,Hadoop,画像圧縮~を赤裸々解説！ハイパフォーマンスを追求するテクノロジー実践活用術","url":"https://atnd.org/events/70007","shortener_url":null,"started_at":"2015-10-08T19:30:00.000+09:00","ended_at":"2015-10-08T21:30:00.000+09:00","limit_number":40,"address":"東京都渋谷区渋谷2-21-1","place":"レバレジーズ本社（ 渋谷ヒカリエ 17F ）","lat":35.659,"lon":139.703,"state":"closed","id":null},{"event_id":"70690","title":"第208回オフライン開発ミーティング","url":"https://atnd.org/events/70690","shortener_url":null,"started_at":"2015-10-04T10:00:00.000+09:00","ended_at":"2015-10-04T12:00:00.000+09:00","limit_number":null,"address":"東京都品川区大崎1-11-1","place":"ゲートシティ大崎B1アトリウムフリー座席","lat":35.6194,"lon":139.731,"state":"closed","id":null},{"event_id":"70323","title":"デジタルヘルスラボ・プロジェクト キックオフイベント","url":"https://atnd.org/events/70323","shortener_url":null,"started_at":"2015-10-03T13:00:00.000+09:00","ended_at":"2015-10-03T19:00:00.000+09:00","limit_number":100,"address":"東京都千代田区神田駿河台4-6","place":"デジタルハリウッド大学大学院 駿河台キャンパス","lat":35.6986,"lon":139.767,"state":"closed","id":null}]