[{"event_id":"22836","title":"女性のためのC++コミュニティ Ladies++ meetup #1","url":"https://ladiespp.connpass.com/event/22836/","shortener_url":null,"started_at":"2015-12-06T23:30:00.000+09:00","ended_at":"2015-12-07T02:30:00.000+09:00","limit_number":18,"address":"東京都港区南青山6-5-55 (青山サンライトビル3F)","place":"はてな(東京オフィス)","lat":35.6619,"lon":139.717,"state":"active","id":null},{"event_id":"24112","title":"第15回Reactive Design Patterns読書会@西新宿","url":"https://readeffectiveakka.connpass.com/event/24112/","shortener_url":null,"started_at":"2015-12-25T04:00:00.000+09:00","ended_at":"2015-12-25T07:00:00.000+09:00","limit_number":6,"address":"東京都新宿区西新宿8-17-1(住友不動産新宿グランドタワー)","place":"TIS株式会社","lat":35.696,"lon":139.691,"state":"active","id":null},{"event_id":"21914","title":"【女性向け】未経験者歓迎♡自分のアプリを自分のiPhoneで動かしてみよう♡","url":"https://morei.connpass.com/event/21914/","shortener_url":null,"started_at":"2015-12-08T20:00:00.000+09:00","ended_at":"2015-12-08T22:30:00.000+09:00","limit_number":20,"address":"〒151-0053 東京都渋谷区代々木2-1-1 新宿マインズタワー9F","place":"株式会社Aiming","lat":35.6866,"lon":139.699,"state":"active","id":null},{"event_id":"24414","title":"第1回 サイタマソン","url":"https://saitamathon.connpass.com/event/24414/","shortener_url":null,"started_at":"2015-12-30T21:00:00.000+09:00","ended_at":"2015-12-31T05:00:00.000+09:00","limit_number":15,"address":"埼玉県さいたま市大宮区錦町６３０","place":"大宮駅西口交番","lat":35.9061,"lon":139.624,"state":"active","id":null},{"event_id":"21933","title":"SPEEDA/NewsPicksを作った社員と一緒に作品を作ろう！ハッカソン型インターンシップ","url":"https://connpass.com/event/21933/","shortener_url":null,"started_at":"2015-12-19T19:00:00.000+09:00","ended_at":"2015-12-21T06:00:00.000+09:00","limit_number":20,"address":"東京都渋谷区恵比寿1-18-14 恵比寿ファーストスクエア10階","place":"株式会社ユーザベース","lat":35.6474,"lon":139.714,"state":"active","id":null},{"event_id":"24108","title":"【WindowsもOK】【女性向け】おしゃれカフェでSwiftについてしっかり学ぼう♡","url":"https://morei.connpass.com/event/24108/","shortener_url":null,"started_at":"2015-12-19T10:30:00.000+09:00","ended_at":"2015-12-19T13:00:00.000+09:00","limit_number":3,"address":"東京都 港区 南青山 5-1-22 青山ライズスクエア 2F","place":"ピアーズ カフェ 南青山店","lat":35.6642,"lon":139.712,"state":"active","id":null},{"event_id":"23241","title":"UX JAM 4 -UX Girls Special!-","url":"https://uxmilk.connpass.com/event/23241/","shortener_url":null,"started_at":"2015-12-09T19:30:00.000+09:00","ended_at":"2015-12-09T22:00:00.000+09:00","limit_number":75,"address":"東京都中央区晴海1-8-10晴海アイランド トリトンスクエアオフィスタワーX 37階","place":"株式会社メンバーズ　ラウンジスペース","lat":35.6597,"lon":139.785,"state":"active","id":null},{"event_id":"21668","title":"【女性向け】スイーツ付き！Sweet Swiftでアプリを作ってみよう♡","url":"https://morei.connpass.com/event/21668/","shortener_url":null,"started_at":"2015-12-03T20:00:00.000+09:00","ended_at":"2015-12-03T22:30:00.000+09:00","limit_number":10,"address":"〒141-0022　東京都品川区東五反田1-24-2 東五反田1丁目ビル7F","place":"ナイル株式会社","lat":35.626,"lon":139.727,"state":"active","id":null},{"event_id":"21974","title":"SMART LIFE HACKATHON #3","url":"https://smartlife-hackathon.connpass.com/event/21974/","shortener_url":null,"started_at":"2015-12-12T13:00:00.000+09:00","ended_at":"2015-12-13T17:30:00.000+09:00","limit_number":50,"address":"東京都文京区弥生2-1-1(東京大学弥生キャンパスI-REF棟)","place":"東京大学 I-REF棟","lat":35.7138,"lon":139.766,"state":"active","id":null},{"event_id":"23826","title":"第14回Reactive Design Patterns読書会@西新宿","url":"https://readeffectiveakka.connpass.com/event/23826/","shortener_url":null,"started_at":"2015-12-11T04:00:00.000+09:00","ended_at":"2015-12-11T07:00:00.000+09:00","limit_number":6,"address":"東京都新宿区西新宿8-17-1(住友不動産新宿グランドタワー)","place":"TIS株式会社","lat":35.696,"lon":139.691,"state":"active","id":null},{"event_id":"23312","title":"【半額】【初心者向け】プログラミング初挑戦♫0からiPhoneのアプリを作ろう！","url":"https://morei.connpass.com/event/23312/","shortener_url":null,"started_at":"2015-12-10T20:00:00.000+09:00","ended_at":"2015-12-10T23:00:00.000+09:00","limit_number":5,"address":"渋谷区神南1-20-7 川原ビル４階","place":"Connecting The Dots: 「渋谷」","lat":35.6618,"lon":139.7,"state":"active","id":null},{"event_id":"23492","title":"第13回Reactive Design Patterns読書会@西新宿","url":"https://readeffectiveakka.connpass.com/event/23492/","shortener_url":null,"started_at":"2015-12-04T04:00:00.000+09:00","ended_at":"2015-12-04T07:00:00.000+09:00","limit_number":6,"address":"東京都新宿区西新宿8-17-1(住友不動産新宿グランドタワー)","place":"TIS株式会社","lat":35.696,"lon":139.691,"state":"active","id":null},{"event_id":"23760","title":"5Gアイデア発表審査会（＋ドコモ5Gデモパートナー募集！！）","url":"https://connpass.com/event/23760/","shortener_url":null,"started_at":"2015-12-11T04:00:00.000+09:00","ended_at":"2015-12-11T06:15:00.000+09:00","limit_number":60,"address":"東京都港区赤坂1-12-32アーク森ビル31階","place":"NTTドコモ・ベンチャーズ　ラウンジ","lat":35.6671,"lon":139.74,"state":"active","id":null},{"event_id":"23748","title":"[東京開催] 第5回 DevOps ハッカソン","url":"https://devopsjp.connpass.com/event/23748/","shortener_url":null,"started_at":"2015-12-09T19:00:00.000+09:00","ended_at":"2015-12-11T02:00:00.000+09:00","limit_number":20,"address":"〒150-0042 東京都渋谷区宇田川町20-17","place":"イベント＆コミュニティスペース　dots.","lat":35.661,"lon":139.7,"state":"active","id":null},{"event_id":"23536","title":"日本Androidの会浜松支部 第56回ミーティング #jaghama","url":"https://jaghama.connpass.com/event/23536/","shortener_url":null,"started_at":"2015-12-12T12:30:00.000+09:00","ended_at":"2015-12-12T18:00:00.000+09:00","limit_number":25,"address":"静岡県浜松市中区鴨江町1番地","place":"鴨江アートセンター","lat":34.705,"lon":137.725,"state":"active","id":null},{"event_id":"72506","title":"大晦日ハッカソン2015 #大晦日ハッカソン","url":"https://atnd.org/events/72506","shortener_url":null,"started_at":"2015-12-31T00:00:00.000+09:00","ended_at":"2015-12-31T23:59:00.000+09:00","limit_number":null,"address":"","place":"各自で","lat":null,"lon":null,"state":"closed","id":null},{"event_id":"73370","title":"【また増枠】第1回 サイタマソン -埼玉県のハッカソン-(大宮集合・食事付き)【みんな飯が目当てだろ】","url":"https://atnd.org/events/73370","shortener_url":null,"started_at":"2015-12-30T12:00:00.000+09:00","ended_at":"2015-12-30T20:00:00.000+09:00","limit_number":20,"address":"埼玉県さいたま市大宮区錦町630","place":"大宮駅西口交番前集合","lat":35.9061,"lon":139.624,"state":"closed","id":null},{"event_id":"73403","title":"第220回オフライン開発ミーティング","url":"https://atnd.org/events/73403","shortener_url":null,"started_at":"2015-12-27T10:00:00.000+09:00","ended_at":"2015-12-27T12:00:00.000+09:00","limit_number":null,"address":"東京都品川区大崎1-11-1","place":"ゲートシティ大崎B1アトリウムフリー座席","lat":35.6194,"lon":139.731,"state":"closed","id":null},{"event_id":"72932","title":"【KidsVenture】 IchigoJamプログラミングスクール","url":"https://atnd.org/events/72932","shortener_url":null,"started_at":"2015-12-26T10:00:00.000+09:00","ended_at":"2015-12-27T17:00:00.000+09:00","limit_number":10,"address":"新宿区西新宿7-20-1 住友不動産西新宿ビル 33F","place":"さくらインターネット株式会社","lat":35.6943,"lon":139.696,"state":"closed","id":null},{"event_id":"71600","title":"AIIT起業塾 #4　ー 観光×IT ー","url":"https://atnd.org/events/71600","shortener_url":null,"started_at":"2015-12-20T13:30:00.000+09:00","ended_at":"2015-12-20T17:30:00.000+09:00","limit_number":40,"address":"千代田区外神田 1-18-13 秋葉原ダイビル 12 階","place":"AIIT秋葉原サテライトキャンパス","lat":35.6992,"lon":139.772,"state":"closed","id":null},{"event_id":"73304","title":"第219回オフライン開発ミーティング","url":"https://atnd.org/events/73304","shortener_url":null,"started_at":"2015-12-20T10:00:00.000+09:00","ended_at":"2015-12-20T12:00:00.000+09:00","limit_number":null,"address":"東京都品川区大崎1-11-1","place":"ゲートシティ大崎B1アトリウムフリー座席","lat":35.6194,"lon":139.731,"state":"closed","id":null},{"event_id":"72508","title":"横浜のあのテレビ局を解析！ ウェブ解析 アイディアソン","url":"https://atnd.org/events/72508","shortener_url":null,"started_at":"2015-12-19T13:00:00.000+09:00","ended_at":"2015-12-19T17:00:00.000+09:00","limit_number":50,"address":"神奈川県横浜市中区太田町2-23","place":"tvk 内会議室（予定）","lat":35.4473,"lon":139.639,"state":"closed","id":null},{"event_id":"72507","title":"横浜のあのテレビ局を解析！ ウェブ解析 アイディアソン","url":"https://atnd.org/events/72507","shortener_url":null,"started_at":"2015-12-19T13:00:00.000+09:00","ended_at":"2015-12-19T17:00:00.000+09:00","limit_number":50,"address":"神奈川県横浜市中区太田町2-23","place":"tvk 内会議室（予定）","lat":35.4473,"lon":139.639,"state":"closed","id":null},{"event_id":"73311","title":"【WindowsもOK】【女性限定】おしゃれカフェでスイーツを食べながら「Swift」をしっかり学ぼう！","url":"https://atnd.org/events/73311","shortener_url":null,"started_at":"2015-12-19T10:30:00.000+09:00","ended_at":"2015-12-19T13:00:00.000+09:00","limit_number":3,"address":"東京都 港区 南青山 5-1-22 青山ライズスクエア 2F","place":"ピアーズ カフェ 南青山店","lat":35.6642,"lon":139.712,"state":"closed","id":null},{"event_id":"72757","title":"『Start Up Next~ビジネス格付け！crazyな視点で毎日をcleverに~』","url":"https://atnd.org/events/72757","shortener_url":null,"started_at":"2015-12-16T19:00:00.000+09:00","ended_at":"2015-12-16T22:00:00.000+09:00","limit_number":50,"address":"大阪市北区大深町3-1    グランフロント大阪 タワーC 7F","place":"グランフロントC棟７階GVH大阪内","lat":34.7053,"lon":135.495,"state":"closed","id":null},{"event_id":"72938","title":"第218回オフライン開発ミーティング","url":"https://atnd.org/events/72938","shortener_url":null,"started_at":"2015-12-13T10:00:00.000+09:00","ended_at":"2015-12-13T12:00:00.000+09:00","limit_number":null,"address":"東京都品川区大崎1-11-1","place":"ゲートシティ大崎B1アトリウムフリー座席","lat":35.6194,"lon":139.731,"state":"closed","id":null},{"event_id":"72530","title":"Ubuntu 15.10リリース勝手に記念オフラインミーティング＠名古屋","url":"https://atnd.org/events/72530","shortener_url":null,"started_at":"2015-12-12T13:00:00.000+09:00","ended_at":"2015-12-12T17:00:00.000+09:00","limit_number":15,"address":"名古屋市中区栄1-31-41 大井ビル6F","place":"dreashaのセミナールーム","lat":35.1639,"lon":136.893,"state":"closed","id":null},{"event_id":"72271","title":"Ubuntu 15.10リリース記念オフラインミーティング15.12","url":"https://atnd.org/events/72271","shortener_url":null,"started_at":"2015-12-12T12:12:00.000+09:00","ended_at":"2015-12-12T17:00:00.000+09:00","limit_number":100,"address":"東京都港区六本木6-10-1 六本木ヒルズ森タワー","place":"グリー株式会社","lat":35.6641,"lon":139.729,"state":"closed","id":null},{"event_id":"72054","title":"【募集終了】複合機とかアイデアソン！～教えて下さい、紙とデータの使い方～","url":"https://atnd.org/events/72054","shortener_url":null,"started_at":"2015-12-12T10:00:00.000+09:00","ended_at":"2015-12-12T19:30:00.000+09:00","limit_number":30,"address":"大阪府大阪市中央区玉造1-2−28","place":"京セラドキュメントソリューションズ本社 R\u0026Dセンター1階 多目的室","lat":34.6766,"lon":135.534,"state":"closed","id":null},{"event_id":"73137","title":"聖なる夜に、神はソースに宿る！クリスマスはハッカソンやろうぜ！！","url":"https://atnd.org/events/73137","shortener_url":null,"started_at":"2015-12-10T17:00:00.000+09:00","ended_at":"2015-12-21T00:00:00.000+09:00","limit_number":50,"address":"東京都渋谷区恵比寿4-20-3","place":"株式会社コロプラ 恵比寿本社","lat":35.6423,"lon":139.713,"state":"closed","id":null},{"event_id":"72803","title":"第217回オフライン開発ミーティング","url":"https://atnd.org/events/72803","shortener_url":null,"started_at":"2015-12-06T10:00:00.000+09:00","ended_at":"2015-12-06T12:00:00.000+09:00","limit_number":null,"address":"東京都品川区大崎1-11-1","place":"ゲートシティ大崎B1アトリウムフリー座席","lat":35.6194,"lon":139.731,"state":"closed","id":null},{"event_id":"72853","title":"上海でVRコミュニティを開いている@benrudickさんをもてなす会","url":"https://atnd.org/events/72853","shortener_url":null,"started_at":"2015-12-05T10:30:00.000+09:00","ended_at":"2015-12-08T08:59:59.000+09:00","limit_number":15,"address":"〒101-0024 東京都千代田区神田和泉町1丁目33、タイワビル4F","place":"オキュラボ、RMバーガー","lat":35.7002,"lon":139.776,"state":"closed","id":null},{"event_id":"23737","title":"where.conf(ドココン) #02 @東海大学高輪キャンパス ※東海大生限定 #whecon","url":"https://where-conf.connpass.com/event/23737/","shortener_url":null,"started_at":"2015-12-18T17:00:00.000+09:00","ended_at":"2015-12-18T18:00:00.000+09:00","limit_number":20,"address":"東京都港区高輪2丁目3−23 (東海大学高輪キャンパス1号館1202教室)","place":"東海大学高輪キャンパス1号館1202教室","lat":35.638,"lon":139.734,"state":"active","id":null},{"event_id":"20768","title":"【年末】サーバー構築ハンズオン忘年会＆いつもの飲み会","url":"https://svrkcho.connpass.com/event/20768/","shortener_url":null,"started_at":"2015-12-26T16:00:00.000+09:00","ended_at":"2015-12-27T00:00:00.000+09:00","limit_number":45,"address":"東京都千代田区神田佐久間町1-14 B1F 村役場","place":"村役場＠秋葉原店","lat":35.6976,"lon":139.776,"state":"active","id":null},{"event_id":"23565","title":"PyLadies Tokyo Meetup #7","url":"https://pyladies-tokyo.connpass.com/event/23565/","shortener_url":null,"started_at":"2015-12-23T14:00:00.000+09:00","ended_at":"2015-12-23T16:30:00.000+09:00","limit_number":26,"address":"東京都渋谷区神泉町8-16　渋谷ファーストプレイス8F","place":"VOYAGE GROUP","lat":35.6553,"lon":139.694,"state":"active","id":null},{"event_id":"22594","title":"(第59回)Python mini Hack-a-thon","url":"https://pyhack.connpass.com/event/22594/","shortener_url":null,"started_at":"2015-12-12T11:00:00.000+09:00","ended_at":"2015-12-12T19:00:00.000+09:00","limit_number":20,"address":"豊島区東池袋1-7-12 日産ビルディング7F","place":"ビープラウド会議室","lat":35.6864,"lon":139.704,"state":"active","id":null},{"event_id":"72512","title":"マイルドはてな村食事会(第7回)","url":"https://atnd.org/events/72512","shortener_url":null,"started_at":"2015-12-31T05:00:00.000+09:00","ended_at":"2016-01-03T23:00:00.000+09:00","limit_number":42,"address":"","place":"ジャガトマ警察 vs. サガきら学園","lat":null,"lon":null,"state":"closed","id":null},{"event_id":"72939","title":"クリスマス開発合宿","url":"https://atnd.org/events/72939","shortener_url":null,"started_at":"2015-12-23T00:00:00.000+09:00","ended_at":"2015-12-26T00:00:00.000+09:00","limit_number":3,"address":"599 Fairchild Dr, Mountain View, CA 94043","place":"HackerDojo","lat":37.4029,"lon":-122.05,"state":"closed","id":null},{"event_id":"72863","title":"a-blog cms DAY in NAGOYA 2015/12","url":"https://atnd.org/events/72863","shortener_url":null,"started_at":"2015-12-18T13:00:00.000+09:00","ended_at":"2015-12-18T18:00:00.000+09:00","limit_number":20,"address":"名古屋市中村区名駅3-18-5","place":"ベースキャンプ名古屋","lat":35.1728,"lon":136.887,"state":"closed","id":null},{"event_id":"72806","title":"UNITAID x OVAL JAPAN ～国際機関で働きたい学生へ～","url":"https://atnd.org/events/72806","shortener_url":null,"started_at":"2015-12-17T18:30:00.000+09:00","ended_at":"2015-12-17T21:30:00.000+09:00","limit_number":50,"address":"東京都渋谷区代々木神園3-1","place":"国立オリンピック記念青少年総合センター　国際交流棟2階第１ミーティングルーム","lat":35.6747,"lon":139.693,"state":"closed","id":null},{"event_id":"71785","title":"もくもく勉強会スペシャル ~もぐらだらけの開発合宿~","url":"https://atnd.org/events/71785","shortener_url":null,"started_at":"2015-12-12T10:00:00.000+09:00","ended_at":"2015-12-13T12:00:00.000+09:00","limit_number":25,"address":"岐阜県大垣市今宿6-52-16 ネクストコア","place":"NextCore","lat":35.3679,"lon":136.637,"state":"closed","id":null},{"event_id":"102918","title":"Poker Online Terbaik di Malaysia dan di Indonesia","url":"https://atnd.org/events/102918","shortener_url":null,"started_at":"2015-12-12T00:30:00.000+09:00","ended_at":"2018-12-12T02:30:00.000+09:00","limit_number":null,"address":"jl. mangga dua","place":"Jampoker","lat":-6.13633,"lon":106.824,"state":"closed","id":null}]