[{"event_id":"12867","title":"DeepLearning もくもくハッカソン 〜家に帰るまでがハッカソンです〜","url":"https://deep-learning-hackathon.connpass.com/event/12867/","shortener_url":null,"started_at":"2015-05-23T11:00:00.000+09:00","ended_at":"2015-05-24T21:00:00.000+09:00","limit_number":24,"address":"東京都中央区銀座4-12-15","place":"株式会社ドワンゴ 歌舞伎座タワー14F セミナールーム","lat":35.6697,"lon":139.768,"state":"active","id":null},{"event_id":"15492","title":"【ヒカ☆ラボ】 E2D3と学ぶ「初めてのGitHub」 powered by サークルアラウンド","url":"https://e2d3.connpass.com/event/15492/","shortener_url":null,"started_at":"2015-05-29T10:00:00.000+09:00","ended_at":"2015-05-29T13:00:00.000+09:00","limit_number":50,"address":"東京都渋谷区渋谷2-21-1（渋谷ヒカリエ 11F受付、17F会場）","place":"レバレジーズ株式会社","lat":35.659,"lon":139.703,"state":"active","id":null},{"event_id":"14805","title":"エンジニアのためのPhotoshop基礎講座","url":"https://connpass.com/event/14805/","shortener_url":null,"started_at":"2015-05-30T14:00:00.000+09:00","ended_at":"2015-05-30T18:00:00.000+09:00","limit_number":20,"address":"東京都港区南麻布3丁目20‐１ 麻布グリーンテラス4Ｆ","place":"株式会社エキサイト","lat":35.6476,"lon":139.731,"state":"active","id":null},{"event_id":"15583","title":"第6回Effective Akka読書会@西新宿","url":"https://readeffectiveakka.connpass.com/event/15583/","shortener_url":null,"started_at":"2015-05-28T19:00:00.000+09:00","ended_at":"2015-05-28T22:00:00.000+09:00","limit_number":8,"address":"東京都新宿区西新宿8-17-1(住友不動産新宿グランドタワー)","place":"TIS株式会社","lat":35.696,"lon":139.691,"state":"active","id":null},{"event_id":"13886","title":"東京 IBM Bluemix x SoftLayer Meetup","url":"https://bmxug.connpass.com/event/13886/","shortener_url":null,"started_at":"2015-05-19T18:00:00.000+09:00","ended_at":"2015-05-19T20:00:00.000+09:00","limit_number":100,"address":"東京都港区高輪3-13-1","place":"グランドプリンスホテル新高輪 国際館パミール","lat":35.6309,"lon":139.735,"state":"active","id":null},{"event_id":"15418","title":"カフェで集まってハッカソン！ 05月28日（木）＠表参道","url":"https://hackathon-in-cafe.connpass.com/event/15418/","shortener_url":null,"started_at":"2015-05-28T19:30:00.000+09:00","ended_at":"2015-05-28T22:30:00.000+09:00","limit_number":10,"address":"東京都 港区 北青山3-6-17 アクセス表参道ビル","place":"スターバックス（アクセス表参道店）","lat":35.6648,"lon":139.712,"state":"active","id":null},{"event_id":"15325","title":" 小学生が楽しいと思うグラフを作るぞモクモク会  by GreenHack \u0026 E2D3","url":"https://connpass.com/event/15325/","shortener_url":null,"started_at":"2015-05-23T13:00:00.000+09:00","ended_at":"2015-05-23T19:00:00.000+09:00","limit_number":20,"address":"東京都新宿区百人町2-27-7　HUNDRED CIRCUS East tower 2F","place":"株式会社リジョブ","lat":35.7023,"lon":139.695,"state":"active","id":null},{"event_id":"14998","title":"第7回エフェクターミニハッカソン","url":"https://effectorhack.connpass.com/event/14998/","shortener_url":null,"started_at":"2015-05-16T13:00:00.000+09:00","ended_at":"2015-05-16T18:00:00.000+09:00","limit_number":15,"address":"東京都渋谷区渋谷1-7-7(住友不動産青山通ビル13階)","place":"CRI・ミドルウェアC会議室","lat":35.6605,"lon":139.706,"state":"active","id":null},{"event_id":"14171","title":"魚ッカソン！サカナを楽しく食べるハック！","url":"https://suisan.connpass.com/event/14171/","shortener_url":null,"started_at":"2015-05-16T00:00:00.000+09:00","ended_at":"2015-05-16T12:00:00.000+09:00","limit_number":40,"address":"東京都中央区京橋1-6-1 (三井住友海上テプコビル8F)","place":"株式会社リクルートマーケティングパートナーズ","lat":35.6778,"lon":139.771,"state":"active","id":null},{"event_id":"15096","title":"第1回　アントレプレナーのためのBLE勉強会","url":"https://geekgarage.connpass.com/event/15096/","shortener_url":null,"started_at":"2015-05-20T19:30:00.000+09:00","ended_at":"2015-05-20T22:00:00.000+09:00","limit_number":10,"address":"東京都台東区元浅草1-15-9(SAKURAビル2F)","place":"GEEK GARAGE","lat":35.7091,"lon":139.784,"state":"active","id":null},{"event_id":"14792","title":"GreenHack × E2D3ハッカソン","url":"https://connpass.com/event/14792/","shortener_url":null,"started_at":"2015-05-10T10:00:00.000+09:00","ended_at":"2015-05-10T19:00:00.000+09:00","limit_number":40,"address":"〒150-0033　東京都渋谷区猿楽町10-1　マンサード代官山","place":"株式会社サイバード　CYBIRD Co., Ltd.","lat":35.6504,"lon":139.703,"state":"active","id":null},{"event_id":"14511","title":"GreenHack × E2D3ハッカソン","url":"https://connpass.com/event/14511/","shortener_url":null,"started_at":"2015-05-10T10:00:00.000+09:00","ended_at":"2015-05-10T21:00:00.000+09:00","limit_number":2,"address":"〒150-0033　東京都渋谷区猿楽町10-1　マンサード代官山","place":"株式会社サイバード　CYBIRD Co., Ltd.","lat":35.6504,"lon":139.703,"state":"active","id":null},{"event_id":"13870","title":"命令セット開発ハッカソン","url":"https://connpass.com/event/13870/","shortener_url":null,"started_at":"2015-05-04T13:00:00.000+09:00","ended_at":"2015-05-06T18:00:00.000+09:00","limit_number":8,"address":"東京都豊島区池袋 2-12-11 (三共池袋ビル 4階 401号室)","place":"池袋バイナリ勉強会","lat":35.7325,"lon":139.707,"state":"active","id":null},{"event_id":"14774","title":"第5回Effective Akka読書会@西新宿","url":"https://readeffectiveakka.connpass.com/event/14774/","shortener_url":null,"started_at":"2015-05-21T19:00:00.000+09:00","ended_at":"2015-05-21T22:00:00.000+09:00","limit_number":8,"address":"東京都新宿区西新宿8-17-1(住友不動産新宿グランドタワー)","place":"TIS株式会社","lat":35.696,"lon":139.691,"state":"active","id":null},{"event_id":"14712","title":"小・中学生対象/親子で体験！IchigoJam(イチゴジャム)作成セミナー","url":"https://connpass.com/event/14712/","shortener_url":null,"started_at":"2015-05-24T00:15:00.000+09:00","ended_at":"2015-05-24T02:45:00.000+09:00","limit_number":10,"address":"","place":"","lat":null,"lon":null,"state":"active","id":null},{"event_id":"14516","title":"Re:VIEWハッカソン","url":"https://connpass.com/event/14516/","shortener_url":null,"started_at":"2015-05-03T10:00:00.000+09:00","ended_at":"2015-05-03T19:00:00.000+09:00","limit_number":8,"address":"東京都文京区本郷3-40-11 (柏屋ビル7F)","place":"TOPGATE, Inc.","lat":35.7067,"lon":139.764,"state":"active","id":null},{"event_id":"14223","title":"第4回Effective Akka読書会@西新宿","url":"https://readeffectiveakka.connpass.com/event/14223/","shortener_url":null,"started_at":"2015-05-14T19:00:00.000+09:00","ended_at":"2015-05-14T22:00:00.000+09:00","limit_number":8,"address":"東京都新宿区西新宿8-17-1(住友不動産新宿グランドタワー)","place":"TIS株式会社","lat":35.696,"lon":139.691,"state":"active","id":null},{"event_id":"66530","title":"第194回オフライン開発ミーティング","url":"https://atnd.org/events/66530","shortener_url":null,"started_at":"2015-05-31T01:00:00.000+09:00","ended_at":"2015-05-31T03:00:00.000+09:00","limit_number":null,"address":"東京都品川区大崎1-11-1","place":"ゲートシティ大崎B1アトリウムフリー座席","lat":35.6194,"lon":139.731,"state":"closed","id":null},{"event_id":"66228","title":"Kinectハッカソン in FNCT 2015","url":"https://atnd.org/events/66228","shortener_url":null,"started_at":"2015-05-30T04:30:00.000+09:00","ended_at":"2015-05-31T09:00:00.000+09:00","limit_number":null,"address":"福井県鯖江市下司町","place":"福井高専 情報棟3F 演習室","lat":35.9395,"lon":136.173,"state":"closed","id":null},{"event_id":"66230","title":"「Code for 青空文庫」アイデアソン #1","url":"https://atnd.org/events/66230","shortener_url":null,"started_at":"2015-05-30T02:00:00.000+09:00","ended_at":"2015-05-30T08:00:00.000+09:00","limit_number":80,"address":"東京都渋谷区桜丘町26番1号 セルリアンタワー11F GMOインターネット オフィス内","place":"シナジーカフェ GMO Yours","lat":35.6565,"lon":139.699,"state":"closed","id":null},{"event_id":"66193","title":"「SPAJAM2015」北陸予選開催！～アプリクリエータの最高峰を目指すハッカソンでシリコンバレーを狙え！","url":"https://atnd.org/events/66193","shortener_url":null,"started_at":"2015-05-30T01:00:00.000+09:00","ended_at":"2015-05-31T09:00:00.000+09:00","limit_number":50,"address":"福井県鯖江市新横江2-3-4","place":"めがねミュージアム 2F　大会議室","lat":35.9407,"lon":136.198,"state":"closed","id":null},{"event_id":"66459","title":"【本日開催】【ヒカ☆ラボ】 E2D3と学ぶ「初めてのGitHub」 powered by サークルアラウンド","url":"https://atnd.org/events/66459","shortener_url":null,"started_at":"2015-05-29T10:00:00.000+09:00","ended_at":"2015-05-29T13:00:00.000+09:00","limit_number":20,"address":"東京都渋谷区渋谷2-21-1","place":"レバレジーズ本社 ( 渋谷ヒカリエ17F)","lat":35.659,"lon":139.703,"state":"closed","id":null},{"event_id":"66354","title":"ソースコードを見せ合うコンビーズハッカソン　～WEB開発編～","url":"https://atnd.org/events/66354","shortener_url":null,"started_at":"2015-05-29T10:00:00.000+09:00","ended_at":"2015-05-29T13:00:00.000+09:00","limit_number":null,"address":"大阪市北区堂島浜1丁目4-19 マニュライフプレイス堂島5F (オンライン参加も可能です)","place":"株式会社コンビーズ セミナールーム","lat":34.6956,"lon":135.496,"state":"closed","id":null},{"event_id":"66335","title":"第193回オフライン開発ミーティング","url":"https://atnd.org/events/66335","shortener_url":null,"started_at":"2015-05-24T01:00:00.000+09:00","ended_at":"2015-05-24T03:00:00.000+09:00","limit_number":null,"address":"東京都品川区大崎1-11-1","place":"ゲートシティ大崎B1アトリウムフリー座席","lat":35.6194,"lon":139.731,"state":"closed","id":null},{"event_id":"65590","title":"小・中学生対象／親子で体験！ こどもパソコン「IchigoJam（イチゴジャム）」作成＆プログラミング体験セミナー（IchigoJamパソコンはお持ち帰りできます）","url":"https://atnd.org/events/65590","shortener_url":null,"started_at":"2015-05-24T00:15:00.000+09:00","ended_at":"2015-05-24T02:45:00.000+09:00","limit_number":null,"address":"東京都港区浜松町1-6-7","place":"神明いきいきプラザ","lat":35.6588,"lon":139.758,"state":"closed","id":null},{"event_id":"66223","title":"第192回オフライン開発ミーティング","url":"https://atnd.org/events/66223","shortener_url":null,"started_at":"2015-05-17T01:00:00.000+09:00","ended_at":"2015-05-17T03:00:00.000+09:00","limit_number":null,"address":"東京都品川区大崎1-11-1","place":"ゲートシティ大崎B1アトリウムフリー座席","lat":35.6194,"lon":139.731,"state":"closed","id":null},{"event_id":"65955","title":"【150名に増員！】HMDも唐揚げもバカ盛り！ VRまつり2015春","url":"https://atnd.org/events/65955","shortener_url":null,"started_at":"2015-05-16T09:00:00.000+09:00","ended_at":"2015-05-16T11:00:00.000+09:00","limit_number":150,"address":"神奈川県横浜市港北区綱島1-8-11","place":"綱島ラジウム温泉 東京園","lat":35.5367,"lon":139.636,"state":"closed","id":null},{"event_id":"64784","title":"STORM Study Session #2 in IMPACT HUB Tokyo","url":"https://atnd.org/events/64784","shortener_url":null,"started_at":"2015-05-13T10:00:00.000+09:00","ended_at":"2015-05-13T12:30:00.000+09:00","limit_number":30,"address":"〒153-0063 東京都目黒区目黒2-11-3","place":"IMPACT HUB Tokyo","lat":35.6339,"lon":139.708,"state":"closed","id":null},{"event_id":"65044","title":"Dentoo.LT #11","url":"https://atnd.org/events/65044","shortener_url":null,"started_at":"2015-05-10T04:30:00.000+09:00","ended_at":"2015-05-10T09:00:00.000+09:00","limit_number":50,"address":"東京都調布市調布ケ丘1丁目5-1","place":"電気通信大学 東地区 A棟 101教室","lat":35.6557,"lon":139.544,"state":"closed","id":null},{"event_id":"66008","title":"日本Androidの会秋葉原支部ロボット部　第36回勉強会 + 無限ピザパーティ","url":"https://atnd.org/events/66008","shortener_url":null,"started_at":"2015-05-10T03:00:00.000+09:00","ended_at":"2015-05-10T08:00:00.000+09:00","limit_number":10,"address":"千代田区神田紺屋町37番地 今井ビル2F","place":"ギークハウス神田秋葉原","lat":35.693,"lon":139.774,"state":"closed","id":null},{"event_id":"66002","title":"第191回オフライン開発ミーティング","url":"https://atnd.org/events/66002","shortener_url":null,"started_at":"2015-05-10T01:00:00.000+09:00","ended_at":"2015-05-10T03:00:00.000+09:00","limit_number":null,"address":"東京都品川区大崎1-11-1","place":"ゲートシティ大崎B1アトリウムフリー座席","lat":35.6194,"lon":139.731,"state":"closed","id":null},{"event_id":"64717","title":"【本日開催】【Swift】【ヒカ☆ラボ】【合計40名突破！】webエンジニアでも出来る!iOSアプリのリファクタリングのノウハウを全てお伝えします。","url":"https://atnd.org/events/64717","shortener_url":null,"started_at":"2015-05-07T11:00:00.000+09:00","ended_at":"2015-05-07T13:00:00.000+09:00","limit_number":30,"address":"東京都渋谷区渋谷2-21-1","place":"レバレジーズ本社（ 渋谷ヒカリエ 17F ）","lat":35.659,"lon":139.703,"state":"closed","id":null},{"event_id":"14329","title":"福井技術者の集い　第一回合宿（セキュリティ編）","url":"https://connpass.com/event/14329/","shortener_url":null,"started_at":"2015-05-02T13:00:00.000+09:00","ended_at":"2015-05-04T16:00:00.000+09:00","limit_number":4,"address":"","place":"","lat":null,"lon":null,"state":"active","id":null},{"event_id":"63560","title":"a-blog cms Training Camp 2015 Spring","url":"https://atnd.org/events/63560","shortener_url":null,"started_at":"2015-05-22T10:00:00.000+09:00","ended_at":"2015-05-23T08:00:00.000+09:00","limit_number":50,"address":"名古屋市中村区名駅3-18-5","place":"ベースキャンプ名古屋","lat":35.1728,"lon":136.887,"state":"closed","id":null},{"event_id":"63558","title":"a-blog cms DAY in NAGOYA 2015/05","url":"https://atnd.org/events/63558","shortener_url":null,"started_at":"2015-05-22T04:30:00.000+09:00","ended_at":"2015-05-22T07:30:00.000+09:00","limit_number":60,"address":"名古屋市中村区那古野一丁目47番1号","place":"名古屋国際センター","lat":35.1728,"lon":136.89,"state":"closed","id":null}]