[{"event_id":"18682","title":"LIGブログの勝手に1日編集長ハッカソン","url":"https://e2d3.connpass.com/event/18682/","shortener_url":null,"started_at":"2015-09-12T18:30:00.000+09:00","ended_at":"2015-09-13T06:00:00.000+09:00","limit_number":75,"address":"110-0015 東京都台東区東上野2-18-7(共同ビル3F)","place":"いいオフィス","lat":35.7103,"lon":139.777,"state":"active","id":null},{"event_id":"18838","title":"UX JAM 2","url":"https://uxmilk.connpass.com/event/18838/","shortener_url":null,"started_at":"2015-09-08T19:00:00.000+09:00","ended_at":"2015-09-08T21:00:00.000+09:00","limit_number":70,"address":"東京都中央区晴海1-8-10晴海アイランド トリトンスクエアオフィスタワーX 37階","place":"株式会社メンバーズ　ラウンジスペース","lat":35.6597,"lon":139.785,"state":"active","id":null},{"event_id":"20216","title":"アイデアソン体験\u0026ハッカソンLT","url":"https://hack-kansai.connpass.com/event/20216/","shortener_url":null,"started_at":"2015-09-24T19:00:00.000+09:00","ended_at":"2015-09-24T21:30:00.000+09:00","limit_number":30,"address":"大阪市北区茶屋町17番1号","place":"MBS本社1F ちゃやまちプラザ","lat":34.7085,"lon":135.5,"state":"active","id":null},{"event_id":"20339","title":"アプリ作りたい女子集まれ♡女性限定iOSアプリプログラミング講座始まる★","url":"https://morei.connpass.com/event/20339/","shortener_url":null,"started_at":"2015-09-24T20:00:00.000+09:00","ended_at":"2015-09-24T22:30:00.000+09:00","limit_number":5,"address":"東京都品川区西五反田1-18-9 五反田NTビル7F","place":"freee 株式会社","lat":35.6235,"lon":139.723,"state":"active","id":null},{"event_id":"19254","title":"【初級】Arduinoを使ったオリジナル電子工作作品を作れるようになろう","url":"https://arduino-kaikai.connpass.com/event/19254/","shortener_url":null,"started_at":"2015-09-05T19:00:00.000+09:00","ended_at":"2015-09-05T21:10:00.000+09:00","limit_number":10,"address":"東京都渋谷区渋谷2-22-14渋谷二丁目","place":"beez渋谷店","lat":35.6589,"lon":139.703,"state":"active","id":null},{"event_id":"19820","title":"【初級 第1回(2/2)】Arduinoを使ったオリジナル電子工作作品を作れるようになろう","url":"https://arduino-kaikai.connpass.com/event/19820/","shortener_url":null,"started_at":"2015-09-19T19:00:00.000+09:00","ended_at":"2015-09-19T21:10:00.000+09:00","limit_number":10,"address":"東京都渋谷区渋谷2-22-14渋谷二丁目","place":"beez渋谷店","lat":35.6589,"lon":139.703,"state":"active","id":null},{"event_id":"20225","title":"PyData.Okinawa Meetup #5 - 復習ミニハッカソン","url":"https://pydataokinawa.connpass.com/event/20225/","shortener_url":null,"started_at":"2015-09-19T18:00:00.000+09:00","ended_at":"2015-09-19T21:00:00.000+09:00","limit_number":10,"address":"沖縄県宜野湾市宇地泊558-18(宜野湾ベイサイド情報センター)","place":"Gwave Space プレゼンテーションルームB","lat":26.274,"lon":127.729,"state":"active","id":null},{"event_id":"19964","title":"A3 IoT 2015 RE/Design 「5G DevSession」","url":"https://a32015.connpass.com/event/19964/","shortener_url":null,"started_at":"2015-09-27T10:00:00.000+09:00","ended_at":"2015-09-27T19:00:00.000+09:00","limit_number":70,"address":"東京都港区赤坂1-12-32　アーク森ビル31階","place":"NTTドコモ・ベンチャーズ","lat":35.6671,"lon":139.74,"state":"active","id":null},{"event_id":"20294","title":"【E2D3】 「LIGブログの勝手に1日編集長ハッカソン」で作った作品の完成度を高めるモクモク会","url":"https://connpass.com/event/20294/","shortener_url":null,"started_at":"2015-09-19T22:00:00.000+09:00","ended_at":"2015-09-20T01:00:00.000+09:00","limit_number":null,"address":"東京都渋谷区猿楽町10-1 (マンサード代官山 2F)","place":"株式会社サイバード","lat":35.6504,"lon":139.703,"state":"active","id":null},{"event_id":"18951","title":"DeepLearning もくもくハッカソン その2 〜読書の秋、食欲の秋、DNNの秋〜","url":"https://deep-learning-hackathon.connpass.com/event/18951/","shortener_url":null,"started_at":"2015-09-26T20:00:00.000+09:00","ended_at":"2015-09-27T22:00:00.000+09:00","limit_number":15,"address":"東京都中央区銀座4-12-15","place":"株式会社ドワンゴ 歌舞伎座タワー14F セミナールーム","lat":35.6697,"lon":139.768,"state":"active","id":null},{"event_id":"19406","title":"JS Board Shibuya #3 IoT家電ハッカソン with Cerevo","url":"https://jsbshibuya.connpass.com/event/19406/","shortener_url":null,"started_at":"2015-09-13T20:00:00.000+09:00","ended_at":"2015-09-14T06:00:00.000+09:00","limit_number":33,"address":"東京都渋谷区渋谷3丁目10-13 TOKYU REIT渋谷RビルB1","place":"Connectly Lab.","lat":35.6568,"lon":139.705,"state":"active","id":null},{"event_id":"16483","title":"わいわいもくもくハッカソン ＃１","url":"https://connpass.com/event/16483/","shortener_url":null,"started_at":"2015-09-20T18:30:00.000+09:00","ended_at":"2015-09-21T04:00:00.000+09:00","limit_number":45,"address":"愛媛県松山市湊4-3-10","place":"プログレッソ パ－ク","lat":33.8356,"lon":132.765,"state":"active","id":null},{"event_id":"19802","title":"A3 IoT 2015 RE/Design 金沢DevSession","url":"https://a32015.connpass.com/event/19802/","shortener_url":null,"started_at":"2015-09-26T10:00:00.000+09:00","ended_at":"2015-09-26T19:00:00.000+09:00","limit_number":50,"address":"〒920-0856　石川県金沢市昭和町12-6","place":"CENDOカンファレンスルーム","lat":36.575,"lon":136.647,"state":"active","id":null},{"event_id":"18684","title":"【BBQ】デザイナー MEAT UP! #1 【これからデザイナーに必要な能力とは】","url":"https://connpass.com/event/18684/","shortener_url":null,"started_at":"2015-09-12T04:00:00.000+09:00","ended_at":"2015-09-12T07:30:00.000+09:00","limit_number":6,"address":"東京都世田谷区北沢2-5-10 第5マツヤビル3F","place":"DUKE Capo","lat":35.6608,"lon":139.669,"state":"active","id":null},{"event_id":"18547","title":"私立・プログラミングキャンプ 2015 東京大会","url":"https://connpass.com/event/18547/","shortener_url":null,"started_at":"2015-09-05T23:00:00.000+09:00","ended_at":"2015-09-06T21:00:00.000+09:00","limit_number":50,"address":"東京都渋谷区千駄ヶ谷4-23-5 JPR千駄ヶ谷ビル2F","place":"ピクシブ株式会社","lat":35.681,"lon":139.707,"state":"active","id":null},{"event_id":"19819","title":"とびだせっ!!GameJam","url":"https://connpass.com/event/19819/","shortener_url":null,"started_at":"2015-09-18T18:30:00.000+09:00","ended_at":"2015-09-18T21:00:00.000+09:00","limit_number":30,"address":"東京都港区東新橋1-5-2 汐留シティセンター","place":"富士通株式会社　本社事務所","lat":35.6654,"lon":139.761,"state":"active","id":null},{"event_id":"18667","title":"「第9回エフェクターミニハッカソン」と「ビンテージシンセとビンテージ電卓の夕べ」同時開催","url":"https://effectorhack.connpass.com/event/18667/","shortener_url":null,"started_at":"2015-09-05T22:00:00.000+09:00","ended_at":"2015-09-06T04:00:00.000+09:00","limit_number":20,"address":"東京都渋谷区渋谷1-7-7(住友不動産青山通ビル13階)","place":"CRI・ミドルウェアC会議室","lat":35.6605,"lon":139.706,"state":"active","id":null},{"event_id":"19466","title":"第5回Reactive Design Patterns読書会@西新宿","url":"https://readeffectiveakka.connpass.com/event/19466/","shortener_url":null,"started_at":"2015-09-18T04:00:00.000+09:00","ended_at":"2015-09-18T07:00:00.000+09:00","limit_number":6,"address":"東京都新宿区西新宿8-17-1(住友不動産新宿グランドタワー)","place":"TIS株式会社","lat":35.696,"lon":139.691,"state":"active","id":null},{"event_id":"19468","title":"Android Study Jam - GDG Shikoku","url":"https://gdgshikoku.connpass.com/event/19468/","shortener_url":null,"started_at":"2015-09-12T13:00:00.000+09:00","ended_at":"2015-09-12T17:00:00.000+09:00","limit_number":14,"address":"愛媛県松山市文京町3番(愛媛大学総合情報メディアセンター二階ゼミ室1)","place":"愛媛大学総合情報メディアセンター二階ゼミ室1","lat":33.8507,"lon":132.772,"state":"active","id":null},{"event_id":"19382","title":"http2 ハッカソン #5","url":"https://http2study.connpass.com/event/19382/","shortener_url":null,"started_at":"2015-09-13T13:00:00.000+09:00","ended_at":"2015-09-13T20:00:00.000+09:00","limit_number":30,"address":"東京都千代田区富士見2-10-2　飯田橋グラン・ブルーム","place":"株式会社インターネットイニシアティブ 本社 中会議室","lat":35.6977,"lon":139.743,"state":"active","id":null},{"event_id":"19358","title":"第4回Reactive Design Patterns読書会@西新宿","url":"https://readeffectiveakka.connpass.com/event/19358/","shortener_url":null,"started_at":"2015-09-04T04:00:00.000+09:00","ended_at":"2015-09-04T07:00:00.000+09:00","limit_number":6,"address":"東京都新宿区西新宿8-17-1(住友不動産新宿グランドタワー)","place":"TIS株式会社","lat":35.696,"lon":139.691,"state":"active","id":null},{"event_id":"19228","title":"『インターンネット』－テレビ朝日WEBビジネスインターンシップ－（9/14～9/15）","url":"https://connpass.com/event/19228/","shortener_url":null,"started_at":"2015-09-14T10:00:00.000+09:00","ended_at":"2015-09-15T18:00:00.000+09:00","limit_number":25,"address":"東京都港区六本木6-9-1","place":"テレビ朝日本社","lat":35.6596,"lon":139.731,"state":"active","id":null},{"event_id":"18727","title":"第８回　しずおかアプリ部","url":"https://connpass.com/event/18727/","shortener_url":null,"started_at":"2015-09-27T01:00:00.000+09:00","ended_at":"2015-09-27T03:00:00.000+09:00","limit_number":null,"address":"〒422-8061　静岡市駿河区森下町4-25","place":"学校法人 中村学園 静岡電子情報カレッジ 森下町キャンパス 7階","lat":34.9723,"lon":138.393,"state":"active","id":null},{"event_id":"18725","title":"第７回　しずおかアプリ部","url":"https://connpass.com/event/18725/","shortener_url":null,"started_at":"2015-09-13T01:00:00.000+09:00","ended_at":"2015-09-13T03:00:00.000+09:00","limit_number":null,"address":"〒422-8061　静岡市駿河区森下町4-25","place":"学校法人 中村学園 静岡電子情報カレッジ 森下町キャンパス 7階","lat":34.9723,"lon":138.393,"state":"active","id":null},{"event_id":"18564","title":"私立・プログラミングキャンプ 2015 関西大会","url":"https://connpass.com/event/18564/","shortener_url":null,"started_at":"2015-09-05T23:00:00.000+09:00","ended_at":"2015-09-06T21:00:00.000+09:00","limit_number":20,"address":"京都市上京区御所八幡町110−16 (かわもとビル5階)","place":"NOTA Inc","lat":35.0306,"lon":135.759,"state":"active","id":null},{"event_id":"70562","title":"【9/30(水)開催】green drinks SHINAGAWA vol.1「ものづくりによるインクルーシブな未来」","url":"https://atnd.org/events/70562","shortener_url":null,"started_at":"2015-09-30T19:00:00.000+09:00","ended_at":"2015-09-30T21:30:00.000+09:00","limit_number":50,"address":"東京都港区港南一丁目2番70号","place":"品川シーズンテラス ホール","lat":35.6331,"lon":139.744,"state":"closed","id":null},{"event_id":"69864","title":"「技術系ベンチャーの挑戦」　～IT人材が知るべき事業の成長とマネジメント～","url":"https://atnd.org/events/69864","shortener_url":null,"started_at":"2015-09-29T18:30:00.000+09:00","ended_at":"2015-09-29T20:30:00.000+09:00","limit_number":15,"address":"東京都千代田区紀尾井町3-33 プリンス通りビル 3階","place":"麹町　ハロー会議室","lat":35.6812,"lon":139.738,"state":"closed","id":null},{"event_id":"70499","title":"第207回オフライン開発ミーティング","url":"https://atnd.org/events/70499","shortener_url":null,"started_at":"2015-09-27T10:00:00.000+09:00","ended_at":"2015-09-27T12:00:00.000+09:00","limit_number":null,"address":"東京都品川区大崎1-11-1","place":"ゲートシティ大崎B1アトリウムフリー座席","lat":35.6194,"lon":139.731,"state":"closed","id":null},{"event_id":"69379","title":"POF 「NIGHT FLIGHT」","url":"https://atnd.org/events/69379","shortener_url":null,"started_at":"2015-09-26T23:00:00.000+09:00","ended_at":"2015-09-27T05:00:00.000+09:00","limit_number":null,"address":"東京都大東区秋葉原3-11","place":"秋葉原ＭＯＧＲＡ","lat":35.7021,"lon":139.775,"state":"closed","id":null},{"event_id":"69648","title":"「いま学ぶべきビッグデータ解析の裏側」～RapidMinerを用いたデータマイニングと機械学習～","url":"https://atnd.org/events/69648","shortener_url":null,"started_at":"2015-09-25T18:30:00.000+09:00","ended_at":"2015-09-25T20:30:00.000+09:00","limit_number":30,"address":"東京都千代田区隼町2-13 US半蔵門ビル5階","place":"アクセア会議室　半蔵門","lat":35.6829,"lon":139.742,"state":"closed","id":null},{"event_id":"69815","title":"MONSTER FOREST","url":"https://atnd.org/events/69815","shortener_url":null,"started_at":"2015-09-21T11:00:00.000+09:00","ended_at":"2015-09-21T20:00:00.000+09:00","limit_number":null,"address":"奈良県吉野郡下市町下市2227","place":"下市中央公園　野外特設会場","lat":34.3658,"lon":135.787,"state":"closed","id":null},{"event_id":"68974","title":"mrubyで電子工作とIoTをハッカソンのノリでやってみる","url":"https://atnd.org/events/68974","shortener_url":null,"started_at":"2015-09-20T11:30:00.000+09:00","ended_at":"2015-09-20T18:30:00.000+09:00","limit_number":15,"address":"熊本県熊本市中央区新市街4-15","place":"SCB放送局新市街スタジオ2F","lat":32.7994,"lon":130.706,"state":"closed","id":null},{"event_id":"69901","title":"とびだせっ!!GameJam","url":"https://atnd.org/events/69901","shortener_url":null,"started_at":"2015-09-18T18:30:00.000+09:00","ended_at":"2015-09-18T21:00:00.000+09:00","limit_number":30,"address":"東京都港区東新橋1-5-2 汐留シティセンター","place":"富士通株式会社　本社事務所","lat":35.6654,"lon":139.761,"state":"closed","id":null},{"event_id":"70005","title":"第206回オフライン開発ミーティング","url":"https://atnd.org/events/70005","shortener_url":null,"started_at":"2015-09-13T10:00:00.000+09:00","ended_at":"2015-09-13T12:00:00.000+09:00","limit_number":null,"address":"東京都品川区大崎1-11-1","place":"ゲートシティ大崎B1アトリウムフリー座席","lat":35.6194,"lon":139.731,"state":"closed","id":null},{"event_id":"69577","title":"Memories of the Future Vol.5","url":"https://atnd.org/events/69577","shortener_url":null,"started_at":"2015-09-12T12:00:00.000+09:00","ended_at":"2015-09-12T20:00:00.000+09:00","limit_number":null,"address":"大阪市住之江区南港東9","place":"南港三角公園（港大橋臨港緑地）","lat":34.6409,"lon":135.435,"state":"closed","id":null},{"event_id":"69986","title":"【学生無料、jQuery初心者超歓迎！】Web3D/VRをサクッと学んでLIGブログへの掲載を目指す勉強会","url":"https://atnd.org/events/69986","shortener_url":null,"started_at":"2015-09-12T09:30:00.000+09:00","ended_at":"2015-09-12T21:00:00.000+09:00","limit_number":15,"address":"東京都台東区東上野2-18-7(共同ビル3F)","place":"いいオフィス","lat":35.7103,"lon":139.777,"state":"closed","id":null},{"event_id":"69049","title":"満員御礼！【BBQ】若手デザイナー MEAT UP! #1 【これからデザイナーに求められる能力とは】","url":"https://atnd.org/events/69049","shortener_url":null,"started_at":"2015-09-11T19:00:00.000+09:00","ended_at":"2015-09-11T22:30:00.000+09:00","limit_number":19,"address":"東京都世田谷区北沢2-5-10 第5マツヤビル3F","place":"DUKE CAPO","lat":35.6608,"lon":139.669,"state":"closed","id":null},{"event_id":"69774","title":"「たこやきを食べまくろう！」日本Androidの会秋葉原支部ロボット部　第39回勉強会　","url":"https://atnd.org/events/69774","shortener_url":null,"started_at":"2015-09-06T12:00:00.000+09:00","ended_at":"2015-09-06T17:00:00.000+09:00","limit_number":10,"address":"千代田区神田紺屋町37番地 今井ビル2F","place":"ギークハウス神田秋葉原","lat":35.693,"lon":139.774,"state":"closed","id":null},{"event_id":"69771","title":"第205回オフライン開発ミーティング","url":"https://atnd.org/events/69771","shortener_url":null,"started_at":"2015-09-06T10:00:00.000+09:00","ended_at":"2015-09-06T12:00:00.000+09:00","limit_number":null,"address":"東京都品川区大崎1-11-1","place":"ゲートシティ大崎B1アトリウムフリー座席","lat":35.6194,"lon":139.731,"state":"closed","id":null},{"event_id":"15008","title":"Python mini hack-a-thon 夏山合宿 2015","url":"https://pyhack.connpass.com/event/15008/","shortener_url":null,"started_at":"2015-09-04T13:00:00.000+09:00","ended_at":"2015-09-06T14:00:00.000+09:00","limit_number":25,"address":"長野県須坂市大字仁礼峰の原高原3153-720","place":"ペンション マウンテンパパ","lat":36.5531,"lon":138.35,"state":"active","id":null},{"event_id":"69709","title":"会津大学競技プログラミング合宿2015","url":"https://atnd.org/events/69709","shortener_url":null,"started_at":"2015-09-21T13:00:00.000+09:00","ended_at":"2015-09-23T15:00:00.000+09:00","limit_number":60,"address":"福島県会津若松市一箕町鶴賀字上居合90","place":"会津大学","lat":37.5238,"lon":139.939,"state":"closed","id":null},{"event_id":"68784","title":"pwn合宿2015　〜夏の陣〜","url":"https://atnd.org/events/68784","shortener_url":null,"started_at":"2015-09-05T17:00:00.000+09:00","ended_at":"2015-09-07T12:00:00.000+09:00","limit_number":13,"address":"(非公開)","place":"登戸某所","lat":34.9928,"lon":135.745,"state":"closed","id":null}]