[{"event_id":"44335","title":"ジーズアカデミーTOKYO × はじめてのハッカソンvol.20","url":"https://hackathon.connpass.com/event/44335/","shortener_url":null,"started_at":"2016-12-04T02:00:00.000+09:00","ended_at":"2016-12-04T10:00:00.000+09:00","limit_number":30,"address":"東京都新宿区新宿6-27-30 新宿イーストサイドスクエア13階","place":"NHN テコラス株式会社","lat":35.6967,"lon":139.709,"state":"active","id":null},{"event_id":"46692","title":"GeoDev Meetup #1 - RESAS API ハッカソン予習・復習会","url":"https://geodev.connpass.com/event/46692/","shortener_url":null,"started_at":"2016-12-16T19:00:00.000+09:00","ended_at":"2016-12-16T21:00:00.000+09:00","limit_number":20,"address":"東京都千代田区平河町2-7-1（塩崎ビル）","place":"ESRIジャパン（株）5Fセミナールーム","lat":35.6792,"lon":139.741,"state":"active","id":null},{"event_id":"47727","title":"埼玉ハッカソン（ロボット・IoT・その他なんでも）","url":"https://connpass.com/event/47727/","shortener_url":null,"started_at":"2016-12-30T13:00:00.000+09:00","ended_at":"2016-12-30T18:15:00.000+09:00","limit_number":40,"address":"埼玉県さいたま市中央区上落合2-3-2　新都心ビジネス交流プラザ5階","place":"新都心ビジネス交流プラザ5階","lat":35.8906,"lon":139.628,"state":"active","id":null},{"event_id":"45112","title":"第8回LOCAL学生部総大会","url":"https://connpass.com/event/45112/","shortener_url":null,"started_at":"2016-12-29T10:00:00.000+09:00","ended_at":"2016-12-30T17:00:00.000+09:00","limit_number":20,"address":"札幌市中央区北1条東4丁目1番地1 サッポロファクトリー1条館　3階","place":"株式会社インフィニットループ 会議室","lat":43.0656,"lon":141.374,"state":"active","id":null},{"event_id":"47743","title":"XML進捗ハッカソン","url":"https://connpass.com/event/47743/","shortener_url":null,"started_at":"2016-12-26T11:00:00.000+09:00","ended_at":"2016-12-26T19:00:00.000+09:00","limit_number":10,"address":" 東京都足立区千住旭町５","place":"東京電機大学 5203教室","lat":35.7481,"lon":139.806,"state":"active","id":null},{"event_id":"46020","title":"【第1回】人工知能ハッカソン inメディア工房「今回のテーマ：Chainer」【定期】","url":"https://aichatbot.connpass.com/event/46020/","shortener_url":null,"started_at":"2016-12-17T13:00:00.000+09:00","ended_at":"2016-12-17T17:00:00.000+09:00","limit_number":32,"address":"東京都港区赤坂4-2-6","place":"株式会社 メディア工房","lat":35.6755,"lon":139.735,"state":"active","id":null},{"event_id":"45147","title":"KIT-LT #1","url":"https://kitlt.connpass.com/event/45147/","shortener_url":null,"started_at":"2016-12-23T13:00:00.000+09:00","ended_at":"2016-12-23T18:00:00.000+09:00","limit_number":48,"address":"石川県野々市市扇が丘7-1","place":"金沢工業大学 23号館1階 パフォーミングスタジオ","lat":36.531,"lon":136.628,"state":"active","id":null},{"event_id":"47702","title":"なにわPerl（なにわPerl#11）","url":"https://naniwaperl.connpass.com/event/47702/","shortener_url":null,"started_at":"2016-12-27T14:30:00.000+09:00","ended_at":"2016-12-27T21:00:00.000+09:00","limit_number":8,"address":"大阪府大阪市北区大深町3−1 グランフロント大阪 北館7F ","place":"グランフロント大阪ナレッジサロン","lat":34.7053,"lon":135.495,"state":"active","id":null},{"event_id":"46421","title":"「第15回Pure Dataパッチングサークル東京」「第15回エフェクターミニハッカソン」","url":"https://effectorhack.connpass.com/event/46421/","shortener_url":null,"started_at":"2016-12-18T13:00:00.000+09:00","ended_at":"2016-12-18T18:00:00.000+09:00","limit_number":45,"address":"東京都渋谷区渋谷1-7-7(住友不動産青山通ビル13階)","place":"CRI・ミドルウェアC会議室","lat":35.6605,"lon":139.706,"state":"active","id":null},{"event_id":"45380","title":"【来たる！GGJ】オトナのUnity入門@未来会議室","url":"https://otona.connpass.com/event/45380/","shortener_url":null,"started_at":"2016-12-21T10:00:00.000+09:00","ended_at":"2016-12-21T12:00:00.000+09:00","limit_number":23,"address":"熊本県熊本市 中央区下通１丁目１２−２７","place":"未来会議室","lat":32.7998,"lon":130.708,"state":"active","id":null},{"event_id":"46509","title":"VR Funhouse MODthon 勉強会","url":"https://vrtokyo.connpass.com/event/46509/","shortener_url":null,"started_at":"2016-12-20T10:30:00.000+09:00","ended_at":"2016-12-20T12:30:00.000+09:00","limit_number":null,"address":"東京都目黒区下目黒1丁目8-1 アルコタワー17F","place":"株式会社ドリコム カフェスペース（アルコタワー17F）","lat":35.6315,"lon":139.714,"state":"active","id":null},{"event_id":"47455","title":"RESASハッカソン","url":"https://connpass.com/event/47455/","shortener_url":null,"started_at":"2016-12-26T10:00:00.000+09:00","ended_at":"2016-12-27T16:00:00.000+09:00","limit_number":20,"address":"宮城県石巻市中央2-10-21 サトミビル1F","place":"イトナブ石巻","lat":38.4316,"lon":141.309,"state":"active","id":null},{"event_id":"47178","title":"毎週土曜日「IoTもくもく会」（山口県周南市）","url":"https://column.connpass.com/event/47178/","shortener_url":null,"started_at":"2016-12-17T18:00:00.000+09:00","ended_at":"2016-12-17T20:00:00.000+09:00","limit_number":8,"address":"山口県周南市若宮町１丁目２１","place":"コワーキングスペース「カラム」","lat":34.0527,"lon":131.808,"state":"active","id":null},{"event_id":"47424","title":"毎週土曜日「IoTもくもく会」（山口県周南市）","url":"https://column.connpass.com/event/47424/","shortener_url":null,"started_at":"2016-12-24T18:00:00.000+09:00","ended_at":"2016-12-31T20:00:00.000+09:00","limit_number":8,"address":"山口県周南市若宮町１丁目２１","place":"コワーキングスペース「カラム」","lat":34.0527,"lon":131.808,"state":"active","id":null},{"event_id":"46857","title":"【LINE社協賛】LINE BOT AWARDSで1000万円を目指そう!!ハッカソン","url":"https://sonicmoov.connpass.com/event/46857/","shortener_url":null,"started_at":"2016-12-18T10:00:00.000+09:00","ended_at":"2016-12-18T20:00:00.000+09:00","limit_number":70,"address":"東京都渋谷区渋谷2-21-1 渋谷ヒカリエ 27階","place":"LINE株式会社","lat":35.659,"lon":139.703,"state":"active","id":null},{"event_id":"46219","title":"RESAS x アーバンデータチャレンジ2016 in 石川 Vol.4 ハッカソン","url":"https://cfk.connpass.com/event/46219/","shortener_url":null,"started_at":"2016-12-18T01:00:00.000+09:00","ended_at":"2016-12-18T08:00:00.000+09:00","limit_number":null,"address":"石川県金沢市武蔵町14番31号","place":"ITビジネスプラザ武蔵","lat":36.5713,"lon":136.655,"state":"active","id":null},{"event_id":"40290","title":"アイマスハッカソン2016","url":"https://imas.connpass.com/event/40290/","shortener_url":null,"started_at":"2016-12-17T01:00:00.000+09:00","ended_at":"2016-12-17T11:00:00.000+09:00","limit_number":35,"address":"東京都渋谷区恵比寿 4-20-3 (恵比寿ガーデンプレイスタワー6階)","place":"クラウドワークス","lat":35.6424,"lon":139.713,"state":"active","id":null},{"event_id":"47062","title":"[秋葉原] ゆるふわIoT電子工作入門","url":"https://weeyble-iot.connpass.com/event/47062/","shortener_url":null,"started_at":"2016-12-18T13:00:00.000+09:00","ended_at":"2016-12-18T18:00:00.000+09:00","limit_number":14,"address":"東京都千代田区神田須田町２丁目１９−２３ (野村第３ビル ４階)","place":"コワーキングスペース秋葉原Weeyble","lat":35.6966,"lon":139.772,"state":"active","id":null},{"event_id":"42681","title":"Microsoft学生限定ハッカソン in 横浜","url":"https://mspjp.connpass.com/event/42681/","shortener_url":null,"started_at":"2016-12-18T13:00:00.000+09:00","ended_at":"2016-12-18T18:00:00.000+09:00","limit_number":50,"address":"横浜市神奈川区鶴屋町2-17相鉄岩崎学園ビル","place":"学校法人岩崎学園 2号館 5階 509教室","lat":35.4689,"lon":139.623,"state":"active","id":null},{"event_id":"6490","title":"シン・ショッカソン（トライアル）","url":"https://sin-tai-sei.connpass.com/event/6490/","shortener_url":null,"started_at":"2016-12-18T04:00:00.000+09:00","ended_at":"2016-12-18T10:00:00.000+09:00","limit_number":8,"address":"東京都品川区平塚１-６-18","place":"蜃気楼カフェ ヱリクサー（ＡＲＩザサードビル4F）","lat":35.6157,"lon":139.716,"state":"active","id":null},{"event_id":"47100","title":"尾道しまおこしハッカソン","url":"https://connpass.com/event/47100/","shortener_url":null,"started_at":"2016-12-17T10:00:00.000+09:00","ended_at":"2016-12-18T16:00:00.000+09:00","limit_number":30,"address":"広島県尾道市土堂2丁目10番24号","place":"ONOMICHI SHARE","lat":34.4085,"lon":133.203,"state":"active","id":null},{"event_id":"43279","title":"[出展者申込]エンジニア作品展示会 Gadget Fest. 2016 X'mas @柏の葉会場","url":"https://jam-digital.connpass.com/event/43279/","shortener_url":null,"started_at":"2016-12-23T01:00:00.000+09:00","ended_at":"2016-12-24T08:00:00.000+09:00","limit_number":12,"address":"千葉県柏市 若柴178番地4 柏の葉キャンパス148 街区2 ショップ＆オフィス棟6階","place":"柏の葉オープンイノベーションラボ(KOIL)","lat":35.894,"lon":139.953,"state":"active","id":null},{"event_id":"43286","title":"[出展者申込]エンジニア作品展示会 Gadget Fest. 2016 X'mas @柏会場","url":"https://jam-digital.connpass.com/event/43286/","shortener_url":null,"started_at":"2016-12-17T01:00:00.000+09:00","ended_at":"2016-12-18T08:00:00.000+09:00","limit_number":8,"address":"千葉県柏市東上町2-28 第一水戸屋ビル 飲食棟 3f","place":"共同研究室 R2","lat":35.8588,"lon":139.976,"state":"active","id":null},{"event_id":"46709","title":"Smalltalk忘年会（ハッカソン）| 第95回Smalltalk勉強会","url":"https://smalltalk.connpass.com/event/46709/","shortener_url":null,"started_at":"2016-12-17T10:00:00.000+09:00","ended_at":"2016-12-17T21:00:00.000+09:00","limit_number":20,"address":"東京都中央区日本橋茅場町1丁目9番2号 第一稲村ビル8階","place":"SORABITO株式会社","lat":35.68,"lon":139.779,"state":"active","id":null},{"event_id":"46368","title":"TOKYO CS JAM #8 〜どのようにしてプロダクトは健全に保たれるのか！？〜","url":"https://csjam.connpass.com/event/46368/","shortener_url":null,"started_at":"2016-12-14T10:15:00.000+09:00","ended_at":"2016-12-14T12:45:00.000+09:00","limit_number":45,"address":"東京都港区六本木6-10-1（六本木ヒルズ森タワー18F）","place":"株式会社メルカリ","lat":35.6604,"lon":139.729,"state":"active","id":null},{"event_id":"46571","title":"UX MILK Workstyle 04","url":"https://uxmilk.connpass.com/event/46571/","shortener_url":null,"started_at":"2016-12-14T10:30:00.000+09:00","ended_at":"2016-12-14T13:00:00.000+09:00","limit_number":110,"address":"〒150-0043 東京都渋谷区道玄坂2丁目10−7","place":"Book Lab Tokyo","lat":35.6582,"lon":139.697,"state":"active","id":null},{"event_id":"45716","title":"littleBitsで家電ハックの会","url":"https://ouch-hack.connpass.com/event/45716/","shortener_url":null,"started_at":"2016-12-11T11:00:00.000+09:00","ended_at":"2016-12-11T18:00:00.000+09:00","limit_number":30,"address":"〒243-0292　神奈川県厚木市下荻野1030","place":"神奈川工科大学 ","lat":35.4755,"lon":139.343,"state":"active","id":null},{"event_id":"44902","title":"BIG Raspberry JAM Tokyo 2016","url":"https://raspberrypi.connpass.com/event/44902/","shortener_url":null,"started_at":"2016-12-11T03:00:00.000+09:00","ended_at":"2016-12-11T10:00:00.000+09:00","limit_number":180,"address":"東京都千代田区富士見2-10-2　飯田橋グラン・ブルーム","place":"株式会社インターネットイニシアティブ 東京本社 13F セミナールーム","lat":35.699,"lon":139.744,"state":"active","id":null},{"event_id":"46498","title":"kintone Café 沖縄 Vol.5","url":"https://kintonecafe-okinawa.connpass.com/event/46498/","shortener_url":null,"started_at":"2016-12-17T14:00:00.000+09:00","ended_at":"2016-12-17T17:00:00.000+09:00","limit_number":40,"address":"沖縄県那覇市字小禄1831番地1","place":"産業支援センター　308号室","lat":26.2029,"lon":127.662,"state":"active","id":null},{"event_id":"46238","title":"【無料】【WindowsもMacもOK】初心者歓迎!スイーツを食べてプログラミングを学ぼう!","url":"https://morei.connpass.com/event/46238/","shortener_url":null,"started_at":"2016-12-13T10:00:00.000+09:00","ended_at":"2016-12-13T12:15:00.000+09:00","limit_number":10,"address":"〒169-8333　東京都新宿区北新宿2-21-1　新宿フロントタワー  18F","place":"富士通クラウドテクノロジーズ","lat":35.696,"lon":139.689,"state":"active","id":null},{"event_id":"43070","title":"サイクリングアイデアソン\u0026ハック in えひめ","url":"https://connpass.com/event/43070/","shortener_url":null,"started_at":"2016-12-10T00:30:00.000+09:00","ended_at":"2016-12-10T08:00:00.000+09:00","limit_number":30,"address":"愛媛県松山市文京町３","place":"愛媛大学城北キャンパス","lat":33.8507,"lon":132.772,"state":"active","id":null},{"event_id":"45635","title":"PORT!#5/2017年はこれが来る！デジタルクリエイティブ業界で活躍する9人が予測する未来とは","url":"https://port.connpass.com/event/45635/","shortener_url":null,"started_at":"2016-12-07T19:20:00.000+09:00","ended_at":"2016-12-07T22:30:00.000+09:00","limit_number":250,"address":"東京都渋谷区恵比寿西1-34-17 （Za HOUSEビルB1F）","place":"UNICE","lat":35.6471,"lon":139.702,"state":"active","id":null},{"event_id":"43172","title":"【地方×テクノロジー】エンジニアが地方で革新を起こす方法＜地方発IT INNOVATION＞","url":"https://sibire.connpass.com/event/43172/","shortener_url":null,"started_at":"2016-12-08T19:30:00.000+09:00","ended_at":"2016-12-08T22:00:00.000+09:00","limit_number":80,"address":"東京都渋谷区神宮前5-52-2 青山オーバルビル13F","place":"Sansanイベントスペース GARDEN","lat":35.6627,"lon":139.709,"state":"active","id":null},{"event_id":"46099","title":"UX MILK Workstyle 03","url":"https://uxmilk.connpass.com/event/46099/","shortener_url":null,"started_at":"2016-12-08T10:30:00.000+09:00","ended_at":"2016-12-08T13:00:00.000+09:00","limit_number":100,"address":"〒160-0022 東京都新宿区新宿6-27-30","place":"NHN テコラス株式会社","lat":35.6968,"lon":139.709,"state":"active","id":null},{"event_id":"45993","title":"Sendai CS JAM#8 〜メルカリ仙台感謝祭〜","url":"https://csjam.connpass.com/event/45993/","shortener_url":null,"started_at":"2016-12-07T10:00:00.000+09:00","ended_at":"2016-12-07T12:30:00.000+09:00","limit_number":5,"address":"宮城県仙台市青葉区本町1-12-12 (GMビルディング 7F)","place":"株式会社メルカリ　仙台オフィス","lat":38.2665,"lon":140.878,"state":"active","id":null},{"event_id":"41269","title":"TdX講演会#06「チームとスタートアップづくり」","url":"https://cbec-titech.connpass.com/event/41269/","shortener_url":null,"started_at":"2016-12-07T09:30:00.000+09:00","ended_at":"2016-12-07T11:00:00.000+09:00","limit_number":80,"address":"東京都目黒区大岡山2-12-1","place":"東京工業大学 大岡山西9号館 W933","lat":35.6059,"lon":139.684,"state":"active","id":null},{"event_id":"46524","title":"Remote.hs #17 アルゴリズムでパズルを解こう[Haskell][勉強会]","url":"https://remotehs.connpass.com/event/46524/","shortener_url":null,"started_at":"2016-12-12T11:00:00.000+09:00","ended_at":"2016-12-12T13:00:00.000+09:00","limit_number":8,"address":"","place":"どこでも","lat":null,"lon":null,"state":"active","id":null},{"event_id":"46515","title":"Sota講習会 【Vstone Magicを始めよう】 Part 3","url":"https://sota.connpass.com/event/46515/","shortener_url":null,"started_at":"2016-12-16T19:00:00.000+09:00","ended_at":"2016-12-16T19:50:00.000+09:00","limit_number":4,"address":"東京都千代田区外神田1-9-9 内田ビル4F","place":"ヴイストン ロボットセンター秋葉原店","lat":35.6987,"lon":139.77,"state":"active","id":null},{"event_id":"46510","title":"RESASを使った地域課題の見える化ワークショップ","url":"https://codeforbeppu.connpass.com/event/46510/","shortener_url":null,"started_at":"2016-12-17T04:00:00.000+09:00","ended_at":"2016-12-17T07:00:00.000+09:00","limit_number":20,"address":"大分県別府市京町１１−８","place":"SPARKLE（おおいた留学生ビジネスセンター）","lat":33.2864,"lon":131.506,"state":"active","id":null},{"event_id":"44896","title":"【好評につき増席】Cloud Business Night!","url":"https://selfree.connpass.com/event/44896/","shortener_url":null,"started_at":"2016-12-05T10:00:00.000+09:00","ended_at":"2016-12-05T12:00:00.000+09:00","limit_number":39,"address":"東京都千代田区神田小川町3-28-9　三東ビル1F","place":"TAM COWORKING TOKYO","lat":35.6955,"lon":139.763,"state":"active","id":null},{"event_id":"44249","title":"農業AIアイディアソン","url":"https://connpass.com/event/44249/","shortener_url":null,"started_at":"2016-12-05T10:00:00.000+09:00","ended_at":"2016-12-05T13:00:00.000+09:00","limit_number":30,"address":"東京都新宿区西新宿7-5-25 西新宿(木村屋ビル)","place":"株式会社セラク","lat":35.6974,"lon":139.699,"state":"active","id":null},{"event_id":"44596","title":"車椅子×情報アイディアソン","url":"https://code4nara.connpass.com/event/44596/","shortener_url":null,"started_at":"2016-12-04T04:00:00.000+09:00","ended_at":"2016-12-04T08:00:00.000+09:00","limit_number":26,"address":"奈良市学園南三丁目1番5号","place":"奈良西部公民館","lat":34.6968,"lon":135.75,"state":"active","id":null},{"event_id":"45528","title":"Gentoo勉強会 2016-12-03","url":"https://gentoo.connpass.com/event/45528/","shortener_url":null,"started_at":"2016-12-03T15:00:00.000+09:00","ended_at":"2016-12-03T19:00:00.000+09:00","limit_number":16,"address":"〒106-0032 東京都港区六本木 1 丁目 9 番 10 号 アークヒルズ仙石山森タワー 35 階","place":"サイバートラスト株式会社","lat":35.6967,"lon":139.709,"state":"active","id":null},{"event_id":"45391","title":"【招待制】Mashup Battle 2ndSTAGE（MA2016）","url":"https://mashupawards.connpass.com/event/45391/","shortener_url":null,"started_at":"2016-12-03T12:00:00.000+09:00","ended_at":"2016-12-03T22:00:00.000+09:00","limit_number":140,"address":"渋谷区渋谷1-23-16(渋谷cocotiビル4階)","place":"TOKYO CULTURE CULTURE　byNIFTY（渋谷）","lat":35.662,"lon":139.703,"state":"active","id":null},{"event_id":"43970","title":"Code for OSAKA リサイクルハッカソン","url":"https://code4osaka.connpass.com/event/43970/","shortener_url":null,"started_at":"2016-12-03T01:00:00.000+09:00","ended_at":"2016-12-04T10:00:00.000+09:00","limit_number":60,"address":"大阪市此花区北港白津１丁目２−４８","place":"大阪市・八尾市・松原市環境施設組合 舞洲工場","lat":34.6656,"lon":135.407,"state":"active","id":null},{"event_id":"46218","title":"【優勝賞金1000万】LINE BOT AWARDS説明会\u0026アイデアソン@大阪","url":"https://linedev.connpass.com/event/46218/","shortener_url":null,"started_at":"2016-12-08T10:00:00.000+09:00","ended_at":"2016-12-08T12:45:00.000+09:00","limit_number":30,"address":"大阪市北区大深町3番1号 グランフロント大阪 ナレッジキャピタルタワーC 7階","place":"大阪イノベーションハブ","lat":34.7053,"lon":135.495,"state":"active","id":null},{"event_id":"46221","title":"【優勝賞金1000万】LINE BOT AWARDS説明会\u0026アイデアソン@名古屋","url":"https://linedev.connpass.com/event/46221/","shortener_url":null,"started_at":"2016-12-13T10:00:00.000+09:00","ended_at":"2016-12-13T12:45:00.000+09:00","limit_number":30,"address":"愛知県名古屋市中村区名駅３丁目１８−５ モンマートビル5F","place":"BASECAMP","lat":35.1728,"lon":136.887,"state":"active","id":null},{"event_id":"45738","title":"Yahoo! JAPAN MeetUp #7 （ひみつのハナラボ）※女性限定イベント","url":"https://yj-meetup.connpass.com/event/45738/","shortener_url":null,"started_at":"2016-12-07T19:00:00.000+09:00","ended_at":"2016-12-07T21:45:00.000+09:00","limit_number":50,"address":"東京都千代田区紀尾井町1-2　東京ガーデンテラス紀尾井町　紀尾井タワー","place":"東京ガーデンテラス紀尾井町　ヤフー株式会社","lat":35.6795,"lon":139.737,"state":"active","id":null},{"event_id":"46089","title":"第8回 PeerCast忘年会ハッカソン","url":"https://peca.connpass.com/event/46089/","shortener_url":null,"started_at":"2016-12-09T21:00:00.000+09:00","ended_at":"2016-12-11T23:59:00.000+09:00","limit_number":null,"address":"インターネット","place":"PeerCast","lat":45.3774,"lon":-109.138,"state":"active","id":null},{"event_id":"46057","title":"G空間情報センター presents 観光データ利活用ワークショップ","url":"https://connpass.com/event/46057/","shortener_url":null,"started_at":"2016-12-10T04:00:00.000+09:00","ended_at":"2016-12-10T09:00:00.000+09:00","limit_number":25,"address":"松江市西川津町1060","place":"島根大学法文学部","lat":35.485,"lon":133.068,"state":"active","id":null},{"event_id":"45060","title":"カーネル／VMキャンプ #4","url":"https://connpass.com/event/45060/","shortener_url":null,"started_at":"2016-12-02T09:00:00.000+09:00","ended_at":"2016-12-04T20:00:00.000+09:00","limit_number":18,"address":" \t長野県北安曇郡白馬村神城いいもり２６０９２","place":"カンパーニュ白馬","lat":35.7528,"lon":139.114,"state":"active","id":null},{"event_id":"44644","title":"UX MILK Workstyle 02","url":"https://uxmilk.connpass.com/event/44644/","shortener_url":null,"started_at":"2016-12-02T10:30:00.000+09:00","ended_at":"2016-12-02T13:00:00.000+09:00","limit_number":100,"address":"〒150-0002 東京都渋谷区渋谷2-15-1","place":"株式会社ビズリーチ","lat":35.6588,"lon":139.705,"state":"active","id":null},{"event_id":"44491","title":"I.C.E x D-LOUNGE 1day インターンシップ 2016","url":"https://connpass.com/event/44491/","shortener_url":null,"started_at":"2016-12-01T09:00:00.000+09:00","ended_at":"2016-12-01T12:30:00.000+09:00","limit_number":20,"address":"東京都港区赤坂9-7-1 ミッドタウン・タワー","place":"武蔵野美術大学 デザイン・ラウンジ","lat":35.6662,"lon":139.731,"state":"active","id":null},{"event_id":"45841","title":"南島原ITナイト＠東京 Vol.2 「いなかソン in 南島原」開催報告会","url":"https://connpass.com/event/45841/","shortener_url":null,"started_at":"2016-12-08T10:00:00.000+09:00","ended_at":"2016-12-08T12:30:00.000+09:00","limit_number":40,"address":"東京都千代田区丸の内2-5-1 (丸の内二丁目ビル6F 611区)","place":"TIP*S（ティップス・中小企業基盤整備機構）","lat":35.68,"lon":139.763,"state":"active","id":null},{"event_id":"45601","title":"Sota講習会 【Vstone Magicを始めよう】 Part 3","url":"https://sota.connpass.com/event/45601/","shortener_url":null,"started_at":"2016-12-02T19:00:00.000+09:00","ended_at":"2016-12-02T19:50:00.000+09:00","limit_number":4,"address":"東京都千代田区外神田1-9-9 内田ビル4F","place":"ヴイストン ロボットセンター秋葉原店","lat":35.6987,"lon":139.77,"state":"active","id":null},{"event_id":"45171","title":"築地ッカソン vol.5","url":"https://tsukijickathon.connpass.com/event/45171/","shortener_url":null,"started_at":"2016-12-10T02:00:00.000+09:00","ended_at":"2016-12-10T11:00:00.000+09:00","limit_number":25,"address":"","place":"","lat":null,"lon":null,"state":"active","id":null},{"event_id":"45177","title":"第2回 関西UE4 GameJam","url":"https://connpass.com/event/45177/","shortener_url":null,"started_at":"2016-12-10T09:00:00.000+09:00","ended_at":"2016-12-11T20:00:00.000+09:00","limit_number":40,"address":"大阪府大阪市中央区難波4-4-4 難波御堂筋センタービル3階","place":"バンタンゲームアカデミー 大阪校","lat":34.6699,"lon":135.5,"state":"active","id":null},{"event_id":"45035","title":"【100均モノづくり】ヒャッカソン熊本#001","url":"https://100kuma.connpass.com/event/45035/","shortener_url":null,"started_at":"2016-12-11T04:00:00.000+09:00","ended_at":"2016-12-11T12:00:00.000+09:00","limit_number":20,"address":"熊本市中央区世安町172","place":"びぷれす","lat":32.7895,"lon":130.69,"state":"active","id":null},{"event_id":"84508","title":"正月ハッカソン2017 #正月ハッカソン","url":"https://atnd.org/events/84508","shortener_url":null,"started_at":"2016-12-31T15:00:00.000+09:00","ended_at":"2017-01-01T15:00:00.000+09:00","limit_number":null,"address":"各自","place":"各自","lat":null,"lon":null,"state":"closed","id":null},{"event_id":"83845","title":"大晦日ハッカソン2016 #大晦日ハッカソン","url":"https://atnd.org/events/83845","shortener_url":null,"started_at":"2016-12-30T15:00:00.000+09:00","ended_at":"2016-12-31T14:59:00.000+09:00","limit_number":null,"address":"","place":"各自で","lat":null,"lon":null,"state":"closed","id":null},{"event_id":"84621","title":"埼玉ハッカソン（ロボット・IoT・その他なんでも）2016年12月30日inさいたま（大宮からも一駅）","url":"https://atnd.org/events/84621","shortener_url":null,"started_at":"2016-12-30T04:00:00.000+09:00","ended_at":"2016-12-30T09:00:00.000+09:00","limit_number":20,"address":"埼玉県さいたま市中央区上落合2-3-2","place":"新都心ビジネス交流プラザ","lat":35.8907,"lon":139.628,"state":"closed","id":null},{"event_id":"84162","title":"話題のドローンがもらえちゃう！？【ドローンアイデアソン】第一回テーマ「クリスマス × ドローン = wktkクリスマス♡」","url":"https://atnd.org/events/84162","shortener_url":null,"started_at":"2016-12-24T03:30:00.000+09:00","ended_at":"2016-12-24T07:30:00.000+09:00","limit_number":16,"address":"秋田県秋田市中通一丁目4番1号","place":"秋田市にぎわい交流館AU（あう）","lat":39.7175,"lon":140.122,"state":"closed","id":null},{"event_id":"84401","title":"第264回オフライン開発ミーティング","url":"https://atnd.org/events/84401","shortener_url":null,"started_at":"2016-12-18T01:00:00.000+09:00","ended_at":"2016-12-18T03:00:00.000+09:00","limit_number":null,"address":"東京都品川区大崎1-11-1","place":"ゲートシティ大崎B1アトリウムフリー座席","lat":35.6194,"lon":139.731,"state":"closed","id":null},{"event_id":"83322","title":"Ubuntu 16.10 リリース記念オフラインミーティング16.12","url":"https://atnd.org/events/83322","shortener_url":null,"started_at":"2016-12-17T03:15:00.000+09:00","ended_at":"2016-12-17T08:00:00.000+09:00","limit_number":120,"address":"東京都港区六本木6-10-1 六本木ヒルズ森タワー","place":"グリー株式会社","lat":35.6605,"lon":139.729,"state":"closed","id":null},{"event_id":"83318","title":"【本日開催】【ヒカ☆ラボ】明日からはじめるマイクロサービス～サーバレスインフラ、実機テストからクローラー、レピュテーションリスクチェックまで～WEBサービス3社が実務に導入してみた","url":"https://atnd.org/events/83318","shortener_url":null,"started_at":"2016-12-13T10:30:00.000+09:00","ended_at":"2016-12-13T12:30:00.000+09:00","limit_number":40,"address":"東京都渋谷区渋谷2-21-1","place":"レバレジーズ本社（ 渋谷ヒカリエ 17F ）","lat":35.659,"lon":139.703,"state":"closed","id":null},{"event_id":"83661","title":"ぎふオープンデータアイデアソン＆ハッカソン","url":"https://atnd.org/events/83661","shortener_url":null,"started_at":"2016-12-10T01:00:00.000+09:00","ended_at":"2016-12-11T10:00:00.000+09:00","limit_number":50,"address":"岐阜県大垣市今宿6-52-16","place":"ソフトピアジャパン　ドリーム・コア　2階　メッセ","lat":35.3679,"lon":136.637,"state":"closed","id":null},{"event_id":"83688","title":"\u003c島根県・徳島県・福岡市 Joint Event\u003e地方発 IT INNOVATION","url":"https://atnd.org/events/83688","shortener_url":null,"started_at":"2016-12-08T10:30:00.000+09:00","ended_at":"2016-12-08T13:00:00.000+09:00","limit_number":80,"address":"東京都渋谷区神宮前5-52-2 青山オーバルビル13F","place":"Sansanイベントスペース GARDEN","lat":35.6627,"lon":139.709,"state":"closed","id":null},{"event_id":"83971","title":"第263回オフライン開発ミーティング","url":"https://atnd.org/events/83971","shortener_url":null,"started_at":"2016-12-04T01:00:00.000+09:00","ended_at":"2016-12-04T03:00:00.000+09:00","limit_number":null,"address":"東京都品川区大崎1-11-1","place":"ゲートシティ大崎B1アトリウムフリー座席","lat":35.6194,"lon":139.731,"state":"closed","id":null},{"event_id":"38737","title":"【年末】サーバー構築ハンズオンとかいつもの飲み会の忘年会","url":"https://svrkcho.connpass.com/event/38737/","shortener_url":null,"started_at":"2016-12-24T07:00:00.000+09:00","ended_at":"2016-12-24T15:00:00.000+09:00","limit_number":45,"address":"東京都千代田区神田佐久間町1-14 B1F 村役場","place":"村役場＠秋葉原店","lat":35.6976,"lon":139.776,"state":"active","id":null},{"event_id":"43865","title":"【１周年・合宿】集まれSwift好き！Swift愛好会 vol13","url":"https://love-swift.connpass.com/event/43865/","shortener_url":null,"started_at":"2016-12-03T03:00:00.000+09:00","ended_at":"2016-12-04T06:00:00.000+09:00","limit_number":22,"address":"千葉県香取郡東庄町笹川い６２４","place":"土善旅館","lat":35.845,"lon":140.662,"state":"active","id":null},{"event_id":"43628","title":"Tokyo OpenSolaris 勉強会 2016.12 静岡合宿","url":"https://connpass.com/event/43628/","shortener_url":null,"started_at":"2016-12-10T04:00:00.000+09:00","ended_at":"2016-12-11T02:00:00.000+09:00","limit_number":null,"address":"静岡市葵区御幸町11-8 レイアップ御幸町ビル","place":"レイアップ御幸町ビル 6階 6-B","lat":34.9737,"lon":138.39,"state":"active","id":null},{"event_id":"42877","title":"【関西】もくもく温泉 開発合宿【学生歓迎】","url":"https://mokumoku-onsen.connpass.com/event/42877/","shortener_url":null,"started_at":"2016-12-17T06:00:00.000+09:00","ended_at":"2016-12-18T09:30:00.000+09:00","limit_number":15,"address":"京都府相楽郡笠置町笠置山20","place":"自遊宿　料理旅館 松本亭","lat":34.7537,"lon":135.941,"state":"active","id":null},{"event_id":"83111","title":"Nagoya.R #17","url":"https://atnd.org/events/83111","shortener_url":null,"started_at":"2016-12-10T04:00:00.000+09:00","ended_at":"2016-12-10T08:00:00.000+09:00","limit_number":50,"address":"","place":"名古屋大学東山キャンパス国際開発棟6F 第3講義室","lat":null,"lon":null,"state":"closed","id":null},{"event_id":"83861","title":"【12/8(木)開催！】【合計80名突破！】急成長ベンチャー6社のCEOと直接話せる交流会 Vol.2","url":"https://atnd.org/events/83861","shortener_url":null,"started_at":"2016-12-08T10:00:00.000+09:00","ended_at":"2016-12-08T13:00:00.000+09:00","limit_number":30,"address":"〒150-0044 東京都渋谷区円山町28-3  いちご渋谷道玄坂ビル5F","place":"株式会社Branding Engineer","lat":35.6559,"lon":139.695,"state":"closed","id":null},{"event_id":"81207","title":"Drupal ONSEN vol.2 in 登別","url":"https://atnd.org/events/81207","shortener_url":null,"started_at":"2016-12-03T08:00:00.000+09:00","ended_at":"2016-12-04T01:00:00.000+09:00","limit_number":20,"address":"北海道登別市カルルス町7番地","place":"湯元オロフレ荘","lat":42.5184,"lon":141.108,"state":"closed","id":null}]