[{"event_id":"27166","title":"【エムスリー/クラウドワークス/Gunosy】Ruby活用事例と企業が求めるエンジニアとは？","url":"https://forkwell.connpass.com/event/27166/","shortener_url":null,"started_at":"2016-02-25T04:45:00.000+09:00","ended_at":"2016-02-25T06:50:00.000+09:00","limit_number":45,"address":"東京都渋谷区恵比寿4-20-3","place":"株式会社クラウドワークス　オフィス（6F受付）","lat":35.6424,"lon":139.713,"state":"active","id":null},{"event_id":"26892","title":"【17卒女子大学生用】【無料】代官山のおしゃれオフィスでプログラミングをスタートしよう！","url":"https://morei.connpass.com/event/26892/","shortener_url":null,"started_at":"2016-02-18T20:00:00.000+09:00","ended_at":"2016-03-10T22:30:00.000+09:00","limit_number":5,"address":"東京都目黒区上目黒1-1-5　第二育良ビル4階","place":"株式会社アカツキ","lat":35.6467,"lon":139.702,"state":"active","id":null},{"event_id":"26891","title":"【17卒限定】【無料】代官山のおしゃれオフィスでプログラミングを学ぶ友達を作ろう！","url":"https://morei.connpass.com/event/26891/","shortener_url":null,"started_at":"2016-02-18T20:00:00.000+09:00","ended_at":"2016-03-10T22:30:00.000+09:00","limit_number":10,"address":"東京都目黒区上目黒1-1-5　第二育良ビル4階","place":"株式会社アカツキ","lat":35.6467,"lon":139.702,"state":"active","id":null},{"event_id":"25934","title":"3DCG Meetup #09","url":"https://connpass.com/event/25934/","shortener_url":null,"started_at":"2016-02-27T14:30:00.000+09:00","ended_at":"2016-02-27T19:30:00.000+09:00","limit_number":76,"address":"東京都渋谷区東1-2-20 (住友不動産渋谷ファーストタワー7F)","place":"株式会社mixi","lat":35.658,"lon":139.709,"state":"active","id":null},{"event_id":"27352","title":"第20回Reactive Design Patterns読書会@西新宿","url":"https://readeffectiveakka.connpass.com/event/27352/","shortener_url":null,"started_at":"2016-02-26T04:00:00.000+09:00","ended_at":"2016-02-26T07:00:00.000+09:00","limit_number":6,"address":"東京都新宿区西新宿8-17-1(住友不動産新宿グランドタワー)","place":"TIS株式会社","lat":35.696,"lon":139.691,"state":"active","id":null},{"event_id":"24266","title":"[福岡開催] DevOps ハッカソン","url":"https://devopsjp.connpass.com/event/24266/","shortener_url":null,"started_at":"2016-02-27T18:00:00.000+09:00","ended_at":"2016-02-29T02:00:00.000+09:00","limit_number":25,"address":"福岡県福岡市博多区上川端町 12-20  (ふくぎん博多ビル10 F)","place":"日本マイクロソフト株式会社九州支店","lat":33.5948,"lon":130.407,"state":"active","id":null},{"event_id":"26244","title":"「SIer2社とWeb系企業2社を経験した現役エンジニアが語るそれぞれの開発環境！」@プレイド様","url":"https://morei.connpass.com/event/26244/","shortener_url":null,"started_at":"2016-02-24T19:30:00.000+09:00","ended_at":"2016-02-24T21:00:00.000+09:00","limit_number":30,"address":"140-0031 東京都品川区西五反田1-5-1 五反田サンケイビル4F","place":"株式会社プレイド","lat":35.6256,"lon":139.723,"state":"active","id":null},{"event_id":"26111","title":"【男子大学生枠】渋谷のおしゃれオフィスでプログラミングをスタートしよう！","url":"https://morei.connpass.com/event/26111/","shortener_url":null,"started_at":"2016-02-23T20:00:00.000+09:00","ended_at":"2016-02-23T22:30:00.000+09:00","limit_number":10,"address":"東京都渋谷区渋谷1-2-5 アライブ美竹 9F受付・10F","place":"ユナイテッド株式会社","lat":35.6617,"lon":139.707,"state":"active","id":null},{"event_id":"26088","title":"【女子大学生枠】【初心者歓迎】渋谷のおしゃれオフィスでプログラミングをスタートしよう！","url":"https://morei.connpass.com/event/26088/","shortener_url":null,"started_at":"2016-02-23T20:00:00.000+09:00","ended_at":"2016-02-23T22:30:00.000+09:00","limit_number":5,"address":"東京都渋谷区渋谷1-2-5 アライブ美竹 9F受付・10F","place":"ユナイテッド株式会社","lat":35.6617,"lon":139.707,"state":"active","id":null},{"event_id":"26203","title":"第19回Reactive Design Patterns読書会@西新宿","url":"https://readeffectiveakka.connpass.com/event/26203/","shortener_url":null,"started_at":"2016-02-19T04:00:00.000+09:00","ended_at":"2016-02-19T07:00:00.000+09:00","limit_number":6,"address":"東京都新宿区西新宿8-17-1(住友不動産新宿グランドタワー)","place":"TIS株式会社","lat":35.696,"lon":139.691,"state":"active","id":null},{"event_id":"26788","title":"【iOS】初級者向け映像表現ハッカソン","url":"https://bios.connpass.com/event/26788/","shortener_url":null,"started_at":"2016-02-20T23:00:00.000+09:00","ended_at":"2016-02-21T01:00:00.000+09:00","limit_number":4,"address":"東京都渋谷区渋谷1-9","place":"渋谷 格安会議室","lat":35.6603,"lon":139.705,"state":"active","id":null},{"event_id":"25210","title":"【女性向け】【初心者歓迎】おしゃれオフィスでプログラミングもスイーツも満喫しよう♡","url":"https://morei.connpass.com/event/25210/","shortener_url":null,"started_at":"2016-02-17T20:00:00.000+09:00","ended_at":"2016-02-17T22:30:00.000+09:00","limit_number":20,"address":"東京都港区南青山2-27-25オリックス南青山ビル5F","place":"株式会社 エウレカ","lat":35.6694,"lon":139.717,"state":"active","id":null},{"event_id":"27265","title":"レコチョクハッ歌祭","url":"https://connpass.com/event/27265/","shortener_url":null,"started_at":"2016-02-23T19:00:00.000+09:00","ended_at":"2016-02-28T20:00:00.000+09:00","limit_number":40,"address":"東京都渋谷区渋谷2-16-1","place":"株式会社レコチョク本社","lat":35.6599,"lon":139.705,"state":"active","id":null},{"event_id":"25922","title":"★VRセッション★ HMD一斉スタート！VRに関する情報交換×軽飲食付きのビジネス交流会","url":"https://virtualreality.connpass.com/event/25922/","shortener_url":null,"started_at":"2016-02-19T04:00:00.000+09:00","ended_at":"2016-02-19T07:00:00.000+09:00","limit_number":50,"address":"東京都渋谷区渋谷2-15-1","place":"渋谷クロスタワー32F（最上階）","lat":35.6588,"lon":139.705,"state":"active","id":null},{"event_id":"26193","title":"UX JAM 6 -UX GIRLS Returns-","url":"https://uxmilk.connpass.com/event/26193/","shortener_url":null,"started_at":"2016-02-17T19:30:00.000+09:00","ended_at":"2016-02-17T21:30:00.000+09:00","limit_number":76,"address":"東京都中央区銀座7-2-6 ヒューリック銀座7丁目第2ビル B1F","place":"Media Technology Lab Cafe","lat":35.6708,"lon":139.761,"state":"active","id":null},{"event_id":"26702","title":"【男子学生枠用】【初心者歓迎】おしゃれオフィスでプログラミング仲間を見つけよう！","url":"https://morei.connpass.com/event/26702/","shortener_url":null,"started_at":"2016-02-19T20:00:00.000+09:00","ended_at":"2016-02-19T22:30:00.000+09:00","limit_number":10,"address":"東京都港区赤坂１-11-44　赤坂インターシティ","place":"エムスリー株式会社","lat":35.669,"lon":139.742,"state":"active","id":null},{"event_id":"27119","title":"関東LibreOffice（以外も歓迎！） HackFest(#6)","url":"https://kantolibo.connpass.com/event/27119/","shortener_url":null,"started_at":"2016-02-28T20:00:00.000+09:00","ended_at":"2016-02-29T03:00:00.000+09:00","limit_number":10,"address":"東京都中央区新川１丁目３−４ (PAビル5F)","place":"コワーキングスペース茅場町Co-Edo","lat":35.6786,"lon":139.782,"state":"active","id":null},{"event_id":"26706","title":"Raspberry Jam at OSC Tokyo 2016 Spring","url":"https://raspberrypi.connpass.com/event/26706/","shortener_url":null,"started_at":"2016-02-27T13:00:00.000+09:00","ended_at":"2016-02-27T16:00:00.000+09:00","limit_number":null,"address":"東京都日野市程久保２丁目１−１","place":"明星大学","lat":35.6452,"lon":139.409,"state":"active","id":null},{"event_id":"24631","title":"【17年卒学生限定】PR TIMESが持つ2万件以上にのぼるビックデータを解析してハックしよう！","url":"https://breaktimes.connpass.com/event/24631/","shortener_url":null,"started_at":"2016-02-22T15:00:00.000+09:00","ended_at":"2016-02-24T20:00:00.000+09:00","limit_number":20,"address":"東京都港区南青山2-27-25オリックス南青山ビル3F","place":"株式会社PR TIMES","lat":35.6694,"lon":139.717,"state":"active","id":null},{"event_id":"26704","title":"【女子学生枠用】【初心者歓迎】赤坂のおしゃれオフィスでプログラミングを学ぼう！","url":"https://morei.connpass.com/event/26704/","shortener_url":null,"started_at":"2016-02-19T20:00:00.000+09:00","ended_at":"2016-02-19T22:30:00.000+09:00","limit_number":5,"address":"東京都港区赤坂１-11-44　赤坂インターシティ","place":"エムスリー株式会社","lat":35.669,"lon":139.742,"state":"active","id":null},{"event_id":"26900","title":"Developers.IO 2016 ※好評につき増席決定!","url":"https://classmethod.connpass.com/event/26900/","shortener_url":null,"started_at":"2016-02-20T22:00:00.000+09:00","ended_at":"2016-02-21T04:00:00.000+09:00","limit_number":600,"address":"東京都千代田区麹町 1-6-4 SAPジャパンビル 11F","place":"SAPジャパン株式会社","lat":35.6845,"lon":139.742,"state":"active","id":null},{"event_id":"26104","title":"【女子大学生専用枠】【初心者歓迎】おしゃれオフィスでアプリを作ってプログラミングを始めよう！","url":"https://morei.connpass.com/event/26104/","shortener_url":null,"started_at":"2016-02-09T20:00:00.000+09:00","ended_at":"2016-02-09T22:30:00.000+09:00","limit_number":5,"address":"〒108-0014 東京都港区芝5-33-1 森永プラザビル本館 17F","place":"株式会社マネーフォワード","lat":35.6466,"lon":139.748,"state":"active","id":null},{"event_id":"26839","title":"バレンタインソン","url":"https://connpass.com/event/26839/","shortener_url":null,"started_at":"2016-02-14T22:00:00.000+09:00","ended_at":"2016-02-15T03:00:00.000+09:00","limit_number":8,"address":"","place":"","lat":null,"lon":null,"state":"active","id":null},{"event_id":"25551","title":"【男子大学生専用枠】【初心者歓迎】おしゃれオフィスでサクッとiPhoneアプリを作ってみよう！","url":"https://morei.connpass.com/event/25551/","shortener_url":null,"started_at":"2016-02-09T20:00:00.000+09:00","ended_at":"2016-02-09T22:30:00.000+09:00","limit_number":5,"address":"〒108-0014 東京都港区芝5-33-1 森永プラザビル本館 17F","place":"株式会社マネーフォワード","lat":35.6466,"lon":139.748,"state":"active","id":null},{"event_id":"24397","title":"【増席決定】【初心者歓迎】女性向けプログラミング講座でアプリ開発もスイーツも満喫しちゃおう♡","url":"https://morei.connpass.com/event/24397/","shortener_url":null,"started_at":"2016-02-03T20:00:00.000+09:00","ended_at":"2016-02-03T22:00:00.000+09:00","limit_number":15,"address":"東京都港区六本木 6-10-1 六本木ヒルズ森タワー 34階","place":"UUUM株式会社","lat":35.6641,"lon":139.729,"state":"active","id":null},{"event_id":"25367","title":"IT系だらだら飯ッカソン","url":"https://connpass.com/event/25367/","shortener_url":null,"started_at":"2016-02-06T18:00:00.000+09:00","ended_at":"2016-02-06T22:00:00.000+09:00","limit_number":10,"address":"","place":"","lat":null,"lon":null,"state":"active","id":null},{"event_id":"25561","title":"UX JAM 5 -Worldwide Edition-","url":"https://uxmilk.connpass.com/event/25561/","shortener_url":null,"started_at":"2016-02-02T19:30:00.000+09:00","ended_at":"2016-02-02T22:00:00.000+09:00","limit_number":70,"address":"東京都渋谷区鶯谷町３−３","place":"株式会社グッドパッチ","lat":35.6542,"lon":139.704,"state":"active","id":null},{"event_id":"24222","title":"PostgreSQL newbie hackathon 合宿【2/27-28】","url":"https://connpass.com/event/24222/","shortener_url":null,"started_at":"2016-02-27T12:00:00.000+09:00","ended_at":"2016-02-28T12:00:00.000+09:00","limit_number":10,"address":"静岡県伊東市東松原町４番７号","place":"山喜旅館","lat":34.9725,"lon":139.098,"state":"active","id":null},{"event_id":"74854","title":"花ちゃんと筋肉hshs IoT勉強会 #1","url":"https://atnd.org/events/74854","shortener_url":null,"started_at":"2016-02-28T13:00:00.000+09:00","ended_at":"2016-02-28T17:00:00.000+09:00","limit_number":10,"address":"愛知県名古屋市中区栄2-2-23 アーク白川公園ビルディング7F","place":"MYCAFE伏見本店","lat":35.1674,"lon":136.9,"state":"closed","id":null},{"event_id":"75350","title":"第228回オフライン開発ミーティング","url":"https://atnd.org/events/75350","shortener_url":null,"started_at":"2016-02-28T10:00:00.000+09:00","ended_at":"2016-02-28T12:00:00.000+09:00","limit_number":null,"address":"東京都品川区大崎1-11-1","place":"ゲートシティ大崎B1アトリウムフリー座席","lat":35.6194,"lon":139.731,"state":"closed","id":null},{"event_id":"74802","title":"スクエア free セミナー 第６４回　ここれで A I まるわかり　　　　注目される「AI」の概容を今回のセミナーを通して、一層ご理解していただけると思います","url":"https://atnd.org/events/74802","shortener_url":null,"started_at":"2016-02-25T17:00:00.000+09:00","ended_at":"2016-02-25T19:00:00.000+09:00","limit_number":40,"address":"東京都千代田区神田紺屋町17番地  SIA神田スクエア 2階","place":"株式会社OPENスクエア","lat":35.6921,"lon":139.774,"state":"closed","id":null},{"event_id":"75079","title":"第227回オフライン開発ミーティング","url":"https://atnd.org/events/75079","shortener_url":null,"started_at":"2016-02-21T10:00:00.000+09:00","ended_at":"2016-02-21T12:00:00.000+09:00","limit_number":null,"address":"東京都品川区大崎1-11-1","place":"ゲートシティ大崎B1アトリウムフリー座席","lat":35.6194,"lon":139.731,"state":"closed","id":null},{"event_id":"74675","title":" ◤ゲーム交流会 \u0026 GGJ2016 アフターパーティ in 札幌◢","url":"https://atnd.org/events/74675","shortener_url":null,"started_at":"2016-02-20T15:00:00.000+09:00","ended_at":"2016-02-20T18:00:00.000+09:00","limit_number":30,"address":"〒060-0031 北海道札幌市中央区北1条東4丁目1−1","place":"株式会社インフィニットループ","lat":43.0643,"lon":141.363,"state":"closed","id":null},{"event_id":"73988","title":"Ogaki Developer Day 2016 Winter","url":"https://atnd.org/events/73988","shortener_url":null,"started_at":"2016-02-20T10:00:00.000+09:00","ended_at":"2016-02-21T15:00:00.000+09:00","limit_number":50,"address":"岐阜県大垣市今宿6-52-16","place":"ソフトピアジャパン　ドリーム・コア2F　会議室・メッセ 、1F　ネクストコア","lat":35.3679,"lon":136.637,"state":"closed","id":null},{"event_id":"74626","title":"【採用・育成担当者対象】今必要とされるIT人材像と育成方法／エージェント視点での採用に成功する企業と失敗する企業","url":"https://atnd.org/events/74626","shortener_url":null,"started_at":"2016-02-19T18:30:00.000+09:00","ended_at":"2016-02-19T20:00:00.000+09:00","limit_number":5,"address":"東京都千代田区麹町3-3-4 KDX麹町ビル3F","place":"アクセリア株式会社","lat":35.6838,"lon":139.739,"state":"closed","id":null},{"event_id":"75295","title":"Good Morning Quotes | Happy Good morning Quotes","url":"https://atnd.org/events/75295","shortener_url":null,"started_at":"2016-02-19T02:00:00.000+09:00","ended_at":"2016-02-21T08:59:59.000+09:00","limit_number":null,"address":"","place":"","lat":null,"lon":null,"state":"closed","id":null},{"event_id":"74264","title":"★VRセッション★ HMD一斉スタート！VRに関する情報交換×軽飲食付きのビジネス交流会","url":"https://atnd.org/events/74264","shortener_url":null,"started_at":"2016-02-18T19:00:00.000+09:00","ended_at":"2016-02-18T22:00:00.000+09:00","limit_number":50,"address":"東京都渋谷区渋谷2-15-1","place":"渋谷クロスタワー32F（最上階）","lat":35.6588,"lon":139.705,"state":"closed","id":null},{"event_id":"74827","title":"第226回オフライン開発ミーティング","url":"https://atnd.org/events/74827","shortener_url":null,"started_at":"2016-02-14T10:00:00.000+09:00","ended_at":"2016-02-14T12:00:00.000+09:00","limit_number":null,"address":"東京都品川区大崎1-11-1","place":"ゲートシティ大崎B1アトリウムフリー座席","lat":35.6194,"lon":139.731,"state":"closed","id":null},{"event_id":"74612","title":"Global Game Jam2016 アフターパーティ in 関西","url":"https://atnd.org/events/74612","shortener_url":null,"started_at":"2016-02-13T15:00:00.000+09:00","ended_at":"2016-02-13T18:00:00.000+09:00","limit_number":50,"address":"大阪市北区中之島3-3-3 中之島三井ビルディング10F","place":"株式会社Razest　セミナールーム","lat":34.6932,"lon":135.494,"state":"closed","id":null},{"event_id":"74149","title":"明治大学総合数理学部：春休みに「マイクロソフトデビュー」\u000bしましょう！","url":"https://atnd.org/events/74149","shortener_url":null,"started_at":"2016-02-12T13:00:00.000+09:00","ended_at":"2016-02-12T18:00:00.000+09:00","limit_number":50,"address":"","place":"明治大学中野キャンパス414教室","lat":null,"lon":null,"state":"closed","id":null},{"event_id":"74677","title":"第225回オフライン開発ミーティング","url":"https://atnd.org/events/74677","shortener_url":null,"started_at":"2016-02-07T10:00:00.000+09:00","ended_at":"2016-02-07T12:00:00.000+09:00","limit_number":null,"address":"東京都品川区大崎1-11-1","place":"ゲートシティ大崎B1アトリウムフリー座席","lat":35.6194,"lon":139.731,"state":"closed","id":null},{"event_id":"24296","title":"若手エンジニア　技術を語る会2016","url":"https://connpass.com/event/24296/","shortener_url":null,"started_at":"2016-02-27T12:00:00.000+09:00","ended_at":"2016-02-28T13:00:00.000+09:00","limit_number":null,"address":"神奈川県足柄下郡湯河原町宮上361","place":"湯河原温泉 いきな風情のおもてなしいきな湯河原・いなせなお宿｜温泉旅館　おんやど恵","lat":35.143,"lon":139.081,"state":"active","id":null},{"event_id":"26028","title":"HealthTechMedBeer #01 -医療とITとエンジニア-","url":"https://connpass.com/event/26028/","shortener_url":null,"started_at":"2016-02-12T19:30:00.000+09:00","ended_at":"2016-02-12T22:30:00.000+09:00","limit_number":15,"address":"東京都渋谷区恵比寿4-20-3","place":"恵比寿ガーデンプレイス17F","lat":35.6423,"lon":139.713,"state":"active","id":null},{"event_id":"25991","title":"(第61回)Python mini Hack-a-thon","url":"https://pyhack.connpass.com/event/25991/","shortener_url":null,"started_at":"2016-02-13T11:00:00.000+09:00","ended_at":"2016-02-13T19:00:00.000+09:00","limit_number":20,"address":"渋谷区千駄ヶ谷5-32-7 野村不動産南新宿ビル4F","place":"ビープラウド会議室","lat":35.6864,"lon":139.704,"state":"active","id":null},{"event_id":"24729","title":"【追加募集・残り2枠!】学生限定トップエンジニア育成トレーニングキャンプ","url":"https://connpass.com/event/24729/","shortener_url":null,"started_at":"2016-02-29T10:00:00.000+09:00","ended_at":"2016-03-20T17:00:00.000+09:00","limit_number":null,"address":"〒103-0004 東京都中央区東日本橋３丁目１０−１４ サンライズ橘 6F","place":"Wizcorp本社","lat":35.6924,"lon":139.784,"state":"active","id":null},{"event_id":"21838","title":"【学生限定・残り２枠】トップエンジニア育成トレーニングキャンプ","url":"https://connpass.com/event/21838/","shortener_url":null,"started_at":"2016-02-29T10:00:00.000+09:00","ended_at":"2016-03-20T17:00:00.000+09:00","limit_number":30,"address":"〒103-0004 東京都中央区東日本橋３丁目１０−１４ サンライズ橘 6F","place":"Wizcorp本社","lat":35.6924,"lon":139.784,"state":"active","id":null},{"event_id":"22051","title":"【50回記念】温泉合宿だよ、全員集合!!  #サーバー構築ハンズオン","url":"https://svrkcho.connpass.com/event/22051/","shortener_url":null,"started_at":"2016-02-20T13:00:00.000+09:00","ended_at":"2016-02-21T15:00:00.000+09:00","limit_number":60,"address":"神奈川県足柄下郡箱根町木賀1014","place":"KKR宮ノ下","lat":35.2455,"lon":139.055,"state":"active","id":null},{"event_id":"20761","title":"【50回記念】サーバー構築ハンズオン in 温泉合宿　　開催アンケート","url":"https://svrkcho.connpass.com/event/20761/","shortener_url":null,"started_at":"2016-02-20T13:00:00.000+09:00","ended_at":"2016-02-21T15:00:00.000+09:00","limit_number":60,"address":"神奈川県足柄下郡箱根町木賀1014","place":"KKR宮ノ下","lat":35.2455,"lon":139.055,"state":"active","id":null},{"event_id":"73844","title":"【学生限定】トップエンジニア育成トレーニングキャンプ","url":"https://atnd.org/events/73844","shortener_url":null,"started_at":"2016-02-29T11:00:00.000+09:00","ended_at":"2016-03-21T17:30:00.000+09:00","limit_number":5,"address":"〒103-0004 東京都中央区東日本橋3丁目10−14 サンライズ橘 6F","place":"Wizcorp本社","lat":35.6924,"lon":139.784,"state":"closed","id":null},{"event_id":"74541","title":"HealthTechMedBeer #01 -医療とITとエンジニア-","url":"https://atnd.org/events/74541","shortener_url":null,"started_at":"2016-02-12T19:30:00.000+09:00","ended_at":"2016-02-12T22:00:00.000+09:00","limit_number":10,"address":"東京都渋谷区恵比寿4-20-3","place":"恵比寿ガーデンプレイス17階","lat":35.6423,"lon":139.713,"state":"closed","id":null},{"event_id":"73377","title":"2016年02月06日『クロックワーク・ロケット』合宿読書会","url":"https://atnd.org/events/73377","shortener_url":null,"started_at":"2016-02-06T15:00:00.000+09:00","ended_at":"2016-02-07T09:00:00.000+09:00","limit_number":15,"address":"京都府南丹市園部町新町51-1","place":"京都府南丹市園部町『かいちや』","lat":35.1071,"lon":135.479,"state":"closed","id":null},{"event_id":"24631","title":"【17年卒学生限定】PR TIMESが持つ2万件以上にのぼるビックデータを解析してハックしよう！","url":"https://prtimes.connpass.com/event/24631/","shortener_url":null,"started_at":"2016-02-22T15:00:00.000+09:00","ended_at":"2016-02-24T20:00:00.000+09:00","limit_number":20,"address":"東京都港区南青山2-27-25オリックス南青山ビル3F","place":"株式会社PR TIMES","lat":35.6694,"lon":139.717,"state":"active","id":null}]