[{"event_id":"40757","title":"【自信と実績を身につけ、頼れるエンジニアになる！！】CodePBL","url":"https://ueqareer.connpass.com/event/40757/","shortener_url":null,"started_at":"2016-08-23T00:00:00.000+09:00","ended_at":"2016-10-15T00:00:00.000+09:00","limit_number":null,"address":"182-8585 東京都調布市調布ケ丘1-5-1 電気通信大学","place":"電気通信大学 西2号館 1階 アクティブラーニングスペース","lat":35.6557,"lon":139.544,"state":"active","id":null},{"event_id":"37537","title":"創造性を引き出すアイデアソン\"新しい働き方×ICT\" #2","url":"https://connpass.com/event/37537/","shortener_url":null,"started_at":"2016-08-28T13:30:00.000+09:00","ended_at":"2016-08-28T17:00:00.000+09:00","limit_number":12,"address":"〒531-0075 大阪府大阪市北区大淀南1-1-16-2F","place":"THE COMMON PLACE ギャラリールーム","lat":34.7037,"lon":135.491,"state":"active","id":null},{"event_id":"38154","title":"UX JAM 11","url":"https://uxmilk.connpass.com/event/38154/","shortener_url":null,"started_at":"2016-08-31T19:30:00.000+09:00","ended_at":"2016-08-31T22:00:00.000+09:00","limit_number":240,"address":"〒160-0022 東京都新宿区新宿6-27-30","place":"NHN テコラス株式会社","lat":35.6968,"lon":139.709,"state":"active","id":null},{"event_id":"37468","title":"【学生向け】文系も参加OK!無料のプログラミング講座でオリジナルアプリ製作★","url":"https://connpass.com/event/37468/","shortener_url":null,"started_at":"2016-08-25T20:00:00.000+09:00","ended_at":"2016-09-15T22:30:00.000+09:00","limit_number":20,"address":"東京都港区六本木1-6-1 泉ガーデンタワー　32F","place":"ディップ株式会社","lat":35.6646,"lon":139.739,"state":"active","id":null},{"event_id":"37611","title":"Grand Frontend Osaka 2016 懇親会","url":"https://kfug.connpass.com/event/37611/","shortener_url":null,"started_at":"2016-08-29T04:30:00.000+09:00","ended_at":"2016-08-29T06:30:00.000+09:00","limit_number":60,"address":"大阪府大阪市","place":"大阪市内某所","lat":34.6937,"lon":135.502,"state":"active","id":null},{"event_id":"32106","title":"Mobile VR Jam in Tokyo","url":"https://mobile-vr-jam.connpass.com/event/32106/","shortener_url":null,"started_at":"2016-08-27T10:00:00.000+09:00","ended_at":"2016-08-28T20:00:00.000+09:00","limit_number":30,"address":"東京都中央区築地1-13-1","place":"ドワンゴセミナールーム（銀座松竹スクエア13F）","lat":35.6683,"lon":139.769,"state":"active","id":null},{"event_id":"38052","title":"IBM Cloud Community 勉強会 - クラウドとIoT -","url":"https://bmxug.connpass.com/event/38052/","shortener_url":null,"started_at":"2016-08-31T04:00:00.000+09:00","ended_at":"2016-08-31T06:30:00.000+09:00","limit_number":215,"address":"東京都港区東新橋1-9-1","place":"ソフトバンク本社","lat":35.6632,"lon":139.761,"state":"active","id":null},{"event_id":"37569","title":"【土曜/渋谷】初心者/文系/女性歓迎★Rubyでtwitter連携アプリを作ろう！","url":"https://morei.connpass.com/event/37569/","shortener_url":null,"started_at":"2016-08-27T10:00:00.000+09:00","ended_at":"2016-08-27T11:00:00.000+09:00","limit_number":3,"address":"渋谷区神南1-20-7 川原ビル４階","place":"Connecting The Dots: 「渋谷」","lat":35.6618,"lon":139.7,"state":"active","id":null},{"event_id":"38670","title":"【平日/六本木】文系も参加OK!無料でSwiftを使ったアプリ製作★","url":"https://morei.connpass.com/event/38670/","shortener_url":null,"started_at":"2016-08-25T20:00:00.000+09:00","ended_at":"2016-08-25T22:30:00.000+09:00","limit_number":20,"address":"東京都港区六本木1-6-1 泉ガーデンタワー　32F","place":"ディップ株式会社","lat":35.6646,"lon":139.74,"state":"active","id":null},{"event_id":"35228","title":"[Grand Frontend Osaka2016] DAY2 Frontend Sessions","url":"https://kfug.connpass.com/event/35228/","shortener_url":null,"started_at":"2016-08-28T19:00:00.000+09:00","ended_at":"2016-08-29T03:00:00.000+09:00","limit_number":130,"address":"大阪市北区大深町3番1号 グランフロント大阪 ナレッジキャピタルタワーC ７階","place":"大阪イノベーションハブ","lat":34.7053,"lon":135.495,"state":"active","id":null},{"event_id":"34970","title":"[Grand Frontend Osaka 2016] DAY1 Try Tech Kansai","url":"https://kfug.connpass.com/event/34970/","shortener_url":null,"started_at":"2016-08-27T19:00:00.000+09:00","ended_at":"2016-08-28T03:00:00.000+09:00","limit_number":40,"address":"大阪市北区大深町3番1号 グランフロント大阪 ナレッジキャピタルタワーC ７階","place":"大阪イノベーションハブ","lat":34.7053,"lon":135.495,"state":"active","id":null},{"event_id":"37792","title":"SENDAI CS JAM＃4 - メルカリ仙台オープンドア -","url":"https://csjam.connpass.com/event/37792/","shortener_url":null,"started_at":"2016-08-25T19:00:00.000+09:00","ended_at":"2016-08-25T21:30:00.000+09:00","limit_number":20,"address":"宮城県仙台市青葉区本町1-12-12 (GMビルディング 7F)","place":"株式会社メルカリ　仙台オフィス","lat":38.2665,"lon":140.878,"state":"active","id":null},{"event_id":"34325","title":"KAUMO HAKATHON Vol.2 ~ 学生No.1を決めるハッカソン ~","url":"https://techsalon.connpass.com/event/34325/","shortener_url":null,"started_at":"2016-08-27T10:00:00.000+09:00","ended_at":"2016-08-28T21:00:00.000+09:00","limit_number":55,"address":"〒153-0064  目黒区下目黒2-13-10 RKビル7F","place":"カウモ株式会社本社","lat":35.6285,"lon":139.712,"state":"active","id":null},{"event_id":"38138","title":"【Drink/菓子付き】Ruby初心者歓迎!Rubyでは1hでTwitter連携をこう実装する!","url":"https://morei.connpass.com/event/38138/","shortener_url":null,"started_at":"2016-08-20T17:00:00.000+09:00","ended_at":"2016-08-20T18:00:00.000+09:00","limit_number":3,"address":"渋谷区神南1-20-7 川原ビル４階","place":"Connecting The Dots: 「渋谷」","lat":35.6618,"lon":139.7,"state":"active","id":null},{"event_id":"38130","title":"【土曜/初心者歓迎】【Drink/菓子付き】現役エンジニアから学ぶ★1hでTwitter連携!","url":"https://morei.connpass.com/event/38130/","shortener_url":null,"started_at":"2016-08-20T16:00:00.000+09:00","ended_at":"2016-08-20T17:00:00.000+09:00","limit_number":3,"address":"渋谷区神南1-20-7 川原ビル４階","place":"Connecting The Dots: 「渋谷」","lat":35.6618,"lon":139.7,"state":"active","id":null},{"event_id":"37770","title":"【渋谷/土曜】【Drink/お菓子付き】デザイナー歓迎！Git+GitHubの使い方をマスター！","url":"https://morei.connpass.com/event/37770/","shortener_url":null,"started_at":"2016-08-20T16:00:00.000+09:00","ended_at":"2016-08-20T18:00:00.000+09:00","limit_number":3,"address":"渋谷区神南1-20-7 川原ビル４階","place":"Connecting The Dots","lat":35.6618,"lon":139.7,"state":"active","id":null},{"event_id":"37346","title":"【渋谷/土曜】【Drink/お菓子付き】コスパ最高!?フォロー付きでSNS連携アプリを作ってみよう♫","url":"https://morei.connpass.com/event/37346/","shortener_url":null,"started_at":"2016-08-20T16:00:00.000+09:00","ended_at":"2016-08-20T18:00:00.000+09:00","limit_number":6,"address":"渋谷区神南1-20-7 川原ビル４階","place":"Connecting The Dots","lat":35.6618,"lon":139.7,"state":"active","id":null},{"event_id":"32358","title":"チームラボオフィスでモノづくりをする1DAYインターンシップ(8/27)","url":"https://teamlab.connpass.com/event/32358/","shortener_url":null,"started_at":"2016-08-27T13:00:00.000+09:00","ended_at":"2016-08-27T18:00:00.000+09:00","limit_number":100,"address":"東京都文京区本郷1-11-6東接本郷ビル6F","place":"チームラボ","lat":35.7043,"lon":139.757,"state":"active","id":null},{"event_id":"38384","title":"【渋谷/土曜】【初心者歓迎】【Drink/菓子付き】PHPを使ってまずは1hでおみくじを作ろう！","url":"https://morei.connpass.com/event/38384/","shortener_url":null,"started_at":"2016-08-20T16:00:00.000+09:00","ended_at":"2016-08-20T17:00:00.000+09:00","limit_number":3,"address":"渋谷区神南1-20-7 川原ビル４階","place":"Connecting The Dots: 「渋谷」","lat":35.6618,"lon":139.7,"state":"active","id":null},{"event_id":"37571","title":"【渋谷/日曜】【初心者歓迎】【Drink/菓子付き】PHPを使ってまずは1hでおみくじを作ろう","url":"https://morei.connpass.com/event/37571/","shortener_url":null,"started_at":"2016-08-28T14:00:00.000+09:00","ended_at":"2016-08-28T15:00:00.000+09:00","limit_number":3,"address":"渋谷区神南1-20-7 川原ビル４階","place":"Connecting The Dots: 「渋谷」","lat":35.6618,"lon":139.7,"state":"active","id":null},{"event_id":"36967","title":"TOKYO CS JAM #4","url":"https://csjam.connpass.com/event/36967/","shortener_url":null,"started_at":"2016-08-18T19:15:00.000+09:00","ended_at":"2016-08-18T21:45:00.000+09:00","limit_number":33,"address":"東京都港区六本木6-10-1（六本木ヒルズ森タワー18F）","place":"株式会社メルカリ","lat":35.6604,"lon":139.729,"state":"active","id":null},{"event_id":"37820","title":"南島原ITナイト＠東京  Vol.1「いなかソン in 南島原」事前説明会＆トークセッション","url":"https://connpass.com/event/37820/","shortener_url":null,"started_at":"2016-08-22T19:00:00.000+09:00","ended_at":"2016-08-22T22:00:00.000+09:00","limit_number":40,"address":"東京都千代田区丸の内2-5-1 (丸の内二丁目ビル6F 611区)","place":"TIP*S（ティップス・中小企業基盤整備機構）","lat":35.68,"lon":139.763,"state":"active","id":null},{"event_id":"37690","title":"ふくもく会その19 ～このもくもく会には問題がない！～","url":"https://fukumoku.connpass.com/event/37690/","shortener_url":null,"started_at":"2016-08-20T18:00:00.000+09:00","ended_at":"2016-08-21T02:00:00.000+09:00","limit_number":null,"address":"福井県福井市学園3-6-1","place":"福井工業大学 １号館　６階６０４・６０５教室","lat":36.0697,"lon":136.195,"state":"active","id":null},{"event_id":"33713","title":"【筑波大生対象・初心者大歓迎】SwiftでiPhoneアプリを開発する会(Railsも追加開講!)","url":"https://connpass.com/event/33713/","shortener_url":null,"started_at":"2016-08-13T14:00:00.000+09:00","ended_at":"2016-08-14T18:00:00.000+09:00","limit_number":20,"address":"","place":"筑波大学","lat":null,"lon":null,"state":"active","id":null},{"event_id":"37598","title":"【学生限定】TheRoots 『Beyond The Rail』#4","url":"https://roots.connpass.com/event/37598/","shortener_url":null,"started_at":"2016-08-19T04:30:00.000+09:00","ended_at":"2016-08-19T06:30:00.000+09:00","limit_number":40,"address":"東京都文京区本郷7-3-1　東京大学産学連携プラザ2F","place":"東京大学本郷キャンパス　産学連携プラザ","lat":35.7121,"lon":139.763,"state":"active","id":null},{"event_id":"37031","title":"AITC女子：データ分析勉強会第５回＆交流会","url":"https://aitcjoshi.connpass.com/event/37031/","shortener_url":null,"started_at":"2016-08-27T14:00:00.000+09:00","ended_at":"2016-08-27T18:00:00.000+09:00","limit_number":30,"address":"〒104-6014 東京都中央区晴海 1-8-10 トリトンスクエア タワーX 14F","place":"ウルシステムズ株式会社　会議室","lat":35.6564,"lon":139.782,"state":"active","id":null},{"event_id":"36666","title":"INNOSUM EVENT @OSAKA 2016","url":"https://connpass.com/event/36666/","shortener_url":null,"started_at":"2016-08-21T21:00:00.000+09:00","ended_at":"2016-08-22T01:00:00.000+09:00","limit_number":90,"address":"大阪府 大阪市中央区大手前1丁目3−49","place":"天満橋ドーンセンター","lat":34.69,"lon":135.521,"state":"active","id":null},{"event_id":"35160","title":"【iOS】音狂 プログラミング vol.01","url":"https://bios.connpass.com/event/35160/","shortener_url":null,"started_at":"2016-08-07T23:00:00.000+09:00","ended_at":"2016-08-08T02:00:00.000+09:00","limit_number":3,"address":"渋谷区神南1-20-7 川原ビル","place":"dots 小会議室","lat":35.6618,"lon":139.7,"state":"active","id":null},{"event_id":"36333","title":"【土曜/渋谷】【Drink/菓子付き】初心者歓迎!Rubyを学ぶ★1hでTwitter連携まで♪","url":"https://morei.connpass.com/event/36333/","shortener_url":null,"started_at":"2016-08-06T11:00:00.000+09:00","ended_at":"2016-08-06T12:00:00.000+09:00","limit_number":3,"address":"渋谷区神南1-20-7 川原ビル４階","place":"Connecting The Dots: 「渋谷」","lat":35.6618,"lon":139.7,"state":"active","id":null},{"event_id":"37288","title":"【渋谷/土曜】【初心者歓迎】【Drink/菓子付き】PHPを使ってまずは1hでおみくじを作ろう!","url":"https://morei.connpass.com/event/37288/","shortener_url":null,"started_at":"2016-08-06T11:00:00.000+09:00","ended_at":"2016-08-06T12:00:00.000+09:00","limit_number":3,"address":"渋谷区神南1-20-7 川原ビル４階","place":"Connecting The Dots: 「渋谷」","lat":35.6618,"lon":139.7,"state":"active","id":null},{"event_id":"36034","title":"【Sweets/Drink付き】【女性向け】初心者歓迎!本格iPhoneアプリを作ってスキルアップ！","url":"https://morei.connpass.com/event/36034/","shortener_url":null,"started_at":"2016-08-04T19:00:00.000+09:00","ended_at":"2016-08-04T21:00:00.000+09:00","limit_number":20,"address":"〒169-8333　東京都新宿区北新宿2-21-1　新宿フロントタワー  18F","place":"富士通クラウドテクノロジーズ","lat":35.696,"lon":139.689,"state":"active","id":null},{"event_id":"34125","title":"IoTハッカソン〜各種センサーを駆使して戦うハッカソン〜","url":"https://techsalon.connpass.com/event/34125/","shortener_url":null,"started_at":"2016-08-06T19:00:00.000+09:00","ended_at":"2016-08-08T06:00:00.000+09:00","limit_number":110,"address":"東京都新宿区北新宿2-21-1","place":"株式会社ニフティ ","lat":35.6961,"lon":139.689,"state":"active","id":null},{"event_id":"37021","title":"tokushima.rb 25","url":"https://tokushimarb.connpass.com/event/37021/","shortener_url":null,"started_at":"2016-08-28T19:00:00.000+09:00","ended_at":"2016-08-29T01:00:00.000+09:00","limit_number":null,"address":"","place":"","lat":null,"lon":null,"state":"active","id":null},{"event_id":"36701","title":"Grand Frontend Osaka 参加者向けkintone勉強会","url":"https://cybozu-osaka.connpass.com/event/36701/","shortener_url":null,"started_at":"2016-08-25T04:00:00.000+09:00","ended_at":"2016-08-25T06:00:00.000+09:00","limit_number":8,"address":"大阪府大阪市北区角田町8番1号 梅田阪急ビルオフィスタワー 35階","place":"サイボウズ大阪オフィス","lat":34.7023,"lon":135.499,"state":"active","id":null},{"event_id":"36483","title":"【学生向け】【理系/文系不問】  インターン/就活の悩みを一気に解決！社会人の先輩相談会★","url":"https://connpass.com/event/36483/","shortener_url":null,"started_at":"2016-08-02T19:30:00.000+09:00","ended_at":"2016-08-02T21:00:00.000+09:00","limit_number":20,"address":"東京都港区六本木1-6-1 泉ガーデンタワー　32F","place":"ディップ株式会社","lat":35.6646,"lon":139.739,"state":"active","id":null},{"event_id":"36550","title":"【つくば】【無料】大学生・院生・社会人・主婦向け　初めてのiPhoneアプリ作成","url":"https://connpass.com/event/36550/","shortener_url":null,"started_at":"2016-08-20T22:30:00.000+09:00","ended_at":"2016-08-21T00:30:00.000+09:00","limit_number":null,"address":"茨城県つくば市研究学園5-2-2","place":"シェアスペースヴィアート","lat":36.0836,"lon":140.08,"state":"active","id":null},{"event_id":"34776","title":"OSSコントリビュータになりたいハッカソン #3","url":"https://wannabecontributor.connpass.com/event/34776/","shortener_url":null,"started_at":"2016-08-06T22:00:00.000+09:00","ended_at":"2016-08-07T05:00:00.000+09:00","limit_number":20,"address":"東京都千代田区四番町6番 東急番町ビル","place":"株式会社オプト","lat":35.6892,"lon":139.736,"state":"active","id":null},{"event_id":"35371","title":"kintone beachCamp 2016","url":"https://kintonedevcamp.connpass.com/event/35371/","shortener_url":null,"started_at":"2016-08-19T23:00:00.000+09:00","ended_at":"2016-08-20T05:00:00.000+09:00","limit_number":20,"address":"神奈川県藤沢市片瀬海岸1丁目東浜海水浴場","place":"SkyDream Shonan Beach Lounge","lat":35.3105,"lon":139.487,"state":"active","id":null},{"event_id":"36096","title":"築地ッカソン vol.4","url":"https://tsukijickathon.connpass.com/event/36096/","shortener_url":null,"started_at":"2016-08-20T11:00:00.000+09:00","ended_at":"2016-08-20T20:00:00.000+09:00","limit_number":25,"address":"東京都中央区勝どき1-13-1 イヌイビル・カチドキ 4F","place":"株式会社ニジボックス","lat":35.6607,"lon":139.775,"state":"active","id":null},{"event_id":"35738","title":"【学生限定】コロプラ 1day Hackathon -BACKEND-／エンジニア","url":"https://colopl.connpass.com/event/35738/","shortener_url":null,"started_at":"2016-08-21T10:00:00.000+09:00","ended_at":"2016-08-21T19:00:00.000+09:00","limit_number":null,"address":"東京都渋谷区恵比寿4-20-3 （恵比寿ガーデンプレイスタワー11階）","place":"株式会社コロプラ セミナールーム","lat":35.6423,"lon":139.713,"state":"active","id":null},{"event_id":"35979","title":"Retty Chatbot Hackathon  for Students","url":"https://retty.connpass.com/event/35979/","shortener_url":null,"started_at":"2016-08-20T10:00:00.000+09:00","ended_at":"2016-09-04T18:00:00.000+09:00","limit_number":30,"address":"東京都品川区東五反田3-20-14(住友不動産高輪パークタワー)","place":"Retty本社8F","lat":35.6254,"lon":139.731,"state":"active","id":null},{"event_id":"35076","title":"【Drink/お菓子付き】【筑波大/初心者歓迎】無料でオリジナルアプリ(Swift)を作ってみよう！","url":"https://morei.connpass.com/event/35076/","shortener_url":null,"started_at":"2016-08-13T14:00:00.000+09:00","ended_at":"2016-08-14T12:30:00.000+09:00","limit_number":15,"address":"〒305-8550 茨城県つくば市、春日1-2","place":"筑波大学の春日エリア","lat":36.0885,"lon":140.107,"state":"active","id":null},{"event_id":"80428","title":"第２回　創造性を引き出すアイデアソン　「新しい働き方×ICT」","url":"https://atnd.org/events/80428","shortener_url":null,"started_at":"2016-08-28T13:30:00.000+09:00","ended_at":"2016-08-28T17:00:00.000+09:00","limit_number":12,"address":"〒531-0075 大阪府大阪市北区大淀南1-1-16-2F","place":"THE COMMON PLACE ギャラリールーム","lat":34.7014,"lon":135.481,"state":"closed","id":null},{"event_id":"80866","title":"第249回オフライン開発ミーティング","url":"https://atnd.org/events/80866","shortener_url":null,"started_at":"2016-08-28T10:00:00.000+09:00","ended_at":"2016-08-28T12:00:00.000+09:00","limit_number":null,"address":"東京都品川区大崎1-11-1","place":"ゲートシティ大崎B1アトリウムフリー座席","lat":35.6194,"lon":139.731,"state":"closed","id":null},{"event_id":"80828","title":"Hohen Leistung Signal Störsender","url":"https://atnd.org/events/80828","shortener_url":null,"started_at":"2016-08-23T09:00:00.000+09:00","ended_at":"2016-08-31T22:00:00.000+09:00","limit_number":null,"address":"","place":"","lat":null,"lon":null,"state":"closed","id":null},{"event_id":"80681","title":"第248回オフライン開発ミーティング","url":"https://atnd.org/events/80681","shortener_url":null,"started_at":"2016-08-21T10:00:00.000+09:00","ended_at":"2016-08-21T12:00:00.000+09:00","limit_number":null,"address":"東京都品川区大崎1-11-1","place":"ゲートシティ大崎B1アトリウムフリー座席","lat":35.6194,"lon":139.731,"state":"closed","id":null},{"event_id":"80387","title":"【SE/デザイナー歓迎】【渋谷/土曜】お昼に渋谷でオリジナルiPhoneアプリを作ろう♫","url":"https://atnd.org/events/80387","shortener_url":null,"started_at":"2016-08-20T16:00:00.000+09:00","ended_at":"2016-08-20T18:00:00.000+09:00","limit_number":4,"address":"渋谷区神南1-20-7 川原ビル4階","place":"Connecting The Dots: 「渋谷」","lat":35.6618,"lon":139.7,"state":"closed","id":null},{"event_id":"80541","title":"青空シャッカソン #5 〜青空文庫のハック発表と入力ハッカソン〜","url":"https://atnd.org/events/80541","shortener_url":null,"started_at":"2016-08-16T19:00:00.000+09:00","ended_at":"2016-08-16T21:00:00.000+09:00","limit_number":12,"address":"東京都港区芝浦4-10-16","place":"OKIビジネスセンター5号館一階","lat":35.6407,"lon":139.747,"state":"closed","id":null},{"event_id":"80300","title":"第247回オフライン開発ミーティング","url":"https://atnd.org/events/80300","shortener_url":null,"started_at":"2016-08-07T10:00:00.000+09:00","ended_at":"2016-08-07T12:00:00.000+09:00","limit_number":null,"address":"東京都品川区大崎1-11-1","place":"ゲートシティ大崎B1アトリウムフリー座席","lat":35.6194,"lon":139.731,"state":"closed","id":null},{"event_id":"80200","title":"【渋谷/土曜】【初心者歓迎】【Drink/菓子付き】Rubyを使ってたった1hでTwitter連携♪","url":"https://atnd.org/events/80200","shortener_url":null,"started_at":"2016-08-06T11:00:00.000+09:00","ended_at":"2016-08-06T12:00:00.000+09:00","limit_number":3,"address":"渋谷区神南1-20-7 川原ビル4階","place":"Connecting The Dots: 「渋谷」","lat":35.6618,"lon":139.7,"state":"closed","id":null},{"event_id":"80088","title":"【学生向け】【理系/文系不問】 Meetup ★ インターン/就活の悩みを一気に解決！","url":"https://atnd.org/events/80088","shortener_url":null,"started_at":"2016-08-02T19:30:00.000+09:00","ended_at":"2016-08-02T21:00:00.000+09:00","limit_number":20,"address":"東京都港区六本木1-6-1 泉ガーデンタワー 32F","place":"ディップ株式会社","lat":35.6646,"lon":139.739,"state":"closed","id":null},{"event_id":"38015","title":"CEO/CTOに効くスタートアップ開発の裏技50セミナー","url":"https://connpass.com/event/38015/","shortener_url":null,"started_at":"2016-08-31T19:30:00.000+09:00","ended_at":"2016-08-31T21:00:00.000+09:00","limit_number":50,"address":"〒104-0033 東京都中央区新川１丁目１−３−４ (PAビル５F)","place":"茅場町 Co-Edo","lat":35.6786,"lon":139.782,"state":"active","id":null},{"event_id":"36472","title":"サーバー構築ハンズオン －セキュアなプロトコルも使ってみよう－ in 東京 #058","url":"https://svrkcho.connpass.com/event/36472/","shortener_url":null,"started_at":"2016-08-20T12:30:00.000+09:00","ended_at":"2016-08-20T18:00:00.000+09:00","limit_number":8,"address":"東京都渋谷区恵比寿1-18-5 アルカサル恵比寿201","place":"株式会社ウェブコミュニケーションズ","lat":35.6476,"lon":139.714,"state":"active","id":null},{"event_id":"78359","title":"第４８回オープンＣＡＥ勉強会（夏合宿）","url":"https://atnd.org/events/78359","shortener_url":null,"started_at":"2016-08-20T10:00:00.000+09:00","ended_at":"2016-08-21T15:00:00.000+09:00","limit_number":40,"address":"岐阜県大垣市加賀野4丁目1番地の7","place":"ソフトピアジャパン　ドリームコア２階　岐阜イノベーションセンター研修室","lat":35.3676,"lon":136.639,"state":"closed","id":null},{"event_id":"79017","title":"地域交流集会","url":"https://atnd.org/events/79017","shortener_url":null,"started_at":"2016-08-19T11:00:00.000+09:00","ended_at":"2016-08-22T08:59:59.000+09:00","limit_number":40,"address":"","place":"茨城県立中央青年の家","lat":null,"lon":null,"state":"closed","id":null}]