[{"event_id":"40462","title":"はじめてのハッカソンvol.18","url":"https://hackathon.connpass.com/event/40462/","shortener_url":null,"started_at":"2016-10-16T10:00:00.000+09:00","ended_at":"2016-10-16T19:00:00.000+09:00","limit_number":25,"address":"東京都渋谷区神泉町8-16 渋谷ファーストプレイス8F","place":"株式会社VOYAGE GROUP 渋谷ファーストプレイスオフィス","lat":35.6553,"lon":139.694,"state":"active","id":null},{"event_id":"41689","title":"オオサカプログラミングカフェ#5","url":"https://osakaprgcafe.connpass.com/event/41689/","shortener_url":null,"started_at":"2016-10-10T19:00:00.000+09:00","ended_at":"2016-10-11T01:00:00.000+09:00","limit_number":8,"address":"大阪市西区北堀江1-18-17 モトバヤシビル","place":"シゴトバBASE","lat":34.6747,"lon":135.495,"state":"active","id":null},{"event_id":"42031","title":"TOKYO CS JAM #6　〜最高のカスタマーサポートの未来を語る！〜","url":"https://csjam.connpass.com/event/42031/","shortener_url":null,"started_at":"2016-10-20T19:15:00.000+09:00","ended_at":"2016-10-20T21:45:00.000+09:00","limit_number":50,"address":"東京都港区六本木6-10-1（六本木ヒルズ森タワー18F）","place":"株式会社メルカリ","lat":35.6604,"lon":139.729,"state":"active","id":null},{"event_id":"41743","title":"ふくもく会その21　〜シン・フクモクカイ〜","url":"https://fukumoku.connpass.com/event/41743/","shortener_url":null,"started_at":"2016-10-22T10:00:00.000+09:00","ended_at":"2016-10-22T18:00:00.000+09:00","limit_number":20,"address":"福井県坂井市丸岡町熊堂3-7-1-16(福井県産業情報センター 7F)","place":"福井県産業情報センター7階コワーキングスペース","lat":36.1099,"lon":136.274,"state":"active","id":null},{"event_id":"43081","title":"【大学生・大学院生限定】高水準\u0026動的プログラミング言語 Juliaで機械学習勉強会！","url":"https://techsalon.connpass.com/event/43081/","shortener_url":null,"started_at":"2016-10-27T04:00:00.000+09:00","ended_at":"2016-10-27T07:00:00.000+09:00","limit_number":20,"address":"東京都品川区西五反田2-8-1 五反田ファーストビル 9F","place":"freee株式会社","lat":35.6268,"lon":139.722,"state":"active","id":null},{"event_id":"41668","title":"【ポストVRの未来を切り開く! 】UnlimitedHand開発のためのUnity勉強会","url":"https://unlimitedhand.connpass.com/event/41668/","shortener_url":null,"started_at":"2016-10-30T13:00:00.000+09:00","ended_at":"2016-10-30T18:00:00.000+09:00","limit_number":30,"address":"東京都港区港南1-7-1","place":"ソニー本社1F Creative Lounge","lat":35.6312,"lon":139.744,"state":"active","id":null},{"event_id":"41663","title":"【ポストVRの未来を切り開く! 】 UnlimitedHandアイデアソン","url":"https://unlimitedhand.connpass.com/event/41663/","shortener_url":null,"started_at":"2016-10-26T18:30:00.000+09:00","ended_at":"2016-10-26T21:30:00.000+09:00","limit_number":33,"address":"東京都港区港南1-7-1","place":"ソニー本社1F Creative Lounge","lat":35.6312,"lon":139.744,"state":"active","id":null},{"event_id":"43256","title":"【大学生・大学院生限定】機械学習速習会〜実際に機械学習を体験してみる〜","url":"https://techsalon.connpass.com/event/43256/","shortener_url":null,"started_at":"2016-10-29T04:00:00.000+09:00","ended_at":"2016-10-29T07:00:00.000+09:00","limit_number":40,"address":"東京都渋谷区渋谷2-15-1 渋谷クロスタワー 12F","place":"株式会社ビズリーチ","lat":35.6588,"lon":139.705,"state":"active","id":null},{"event_id":"39820","title":"VR GameJam in Japan 2016 Autumn【広島会場】で作るゲーム案を考えよう！","url":"https://hsc.connpass.com/event/39820/","shortener_url":null,"started_at":"2016-10-30T13:00:00.000+09:00","ended_at":"2016-10-30T18:00:00.000+09:00","limit_number":40,"address":"広島県東広島市鏡山１−４−２","place":"広島大学 東広島キャンパス   情報メディア教育研究センター 2F","lat":34.4017,"lon":132.715,"state":"active","id":null},{"event_id":"42793","title":"【U-29若手エンジニア対象】MORNING_HACKS","url":"https://techsalon.connpass.com/event/42793/","shortener_url":null,"started_at":"2016-10-27T16:00:00.000+09:00","ended_at":"2016-10-27T19:00:00.000+09:00","limit_number":20,"address":"東京都渋谷区道玄坂2-10-7 新大宗ビル1号館 303号室","place":"The Roots","lat":35.6581,"lon":139.697,"state":"active","id":null},{"event_id":"41151","title":"【大学生・大学院生限定】TECH_SALON AI勉強会","url":"https://techsalon.connpass.com/event/41151/","shortener_url":null,"started_at":"2016-10-26T04:00:00.000+09:00","ended_at":"2016-10-26T07:00:00.000+09:00","limit_number":25,"address":"東京都目黒区下目黒1丁目8-1　アルコタワー17F","place":"株式会社ドリコム","lat":35.6315,"lon":139.714,"state":"active","id":null},{"event_id":"43197","title":"【無料】【windows向け】【学生ALL OK】講師のフォロー付きでRubyを学ぼう！","url":"https://morei.connpass.com/event/43197/","shortener_url":null,"started_at":"2016-10-30T14:00:00.000+09:00","ended_at":"2016-10-30T19:00:00.000+09:00","limit_number":6,"address":"渋谷区神南1-20-7 川原ビル４階","place":"Connecting The Dots","lat":35.6618,"lon":139.7,"state":"active","id":null},{"event_id":"43196","title":"【無料】【大学生向け】【懇親会付き】渋谷のおしゃれスペースでオリジナルiPhoneアプリを作る!","url":"https://morei.connpass.com/event/43196/","shortener_url":null,"started_at":"2016-10-30T14:00:00.000+09:00","ended_at":"2016-10-30T18:00:00.000+09:00","limit_number":10,"address":"渋谷区神南1-20-7 川原ビル４階","place":"Connecting The Dots: 「渋谷」","lat":35.6618,"lon":139.7,"state":"active","id":null},{"event_id":"42771","title":"【大学生・大学院生限定】RxSwift習得会","url":"https://techsalon.connpass.com/event/42771/","shortener_url":null,"started_at":"2016-10-25T04:00:00.000+09:00","ended_at":"2016-10-25T07:00:00.000+09:00","limit_number":20,"address":"東京都渋谷区渋谷2-21-1 渋谷ヒカリエ","place":"株式会社ディー・エヌ・エー","lat":35.659,"lon":139.703,"state":"active","id":null},{"event_id":"41905","title":"Adobe XD Meeting #02","url":"https://xd-study.connpass.com/event/41905/","shortener_url":null,"started_at":"2016-10-22T04:00:00.000+09:00","ended_at":"2016-10-22T06:00:00.000+09:00","limit_number":55,"address":"東京都品川区大崎1-11-2","place":"アドビ システムズ 株式会社 日本オフィス 会議室(ゲートシティ大崎 イーストタワー19F)","lat":35.6187,"lon":139.732,"state":"active","id":null},{"event_id":"41482","title":"CODE HAMMER ~ pixivのAPI初公開のハッカソン ~","url":"https://techsalon.connpass.com/event/41482/","shortener_url":null,"started_at":"2016-10-22T19:00:00.000+09:00","ended_at":"2016-10-24T05:00:00.000+09:00","limit_number":40,"address":"東京都渋谷区千駄ヶ谷4-23-5 JPR千駄ヶ谷ビル2F","place":"ピクシブ株式会社","lat":35.681,"lon":139.707,"state":"active","id":null},{"event_id":"42241","title":"【懇親会付き】【無料】【大学生向け】渋谷のおしゃれスペースでオリジナルiPhoneアプリを作ろう★","url":"https://morei.connpass.com/event/42241/","shortener_url":null,"started_at":"2016-10-30T14:00:00.000+09:00","ended_at":"2016-10-30T18:00:00.000+09:00","limit_number":10,"address":"渋谷区神南1-20-7 川原ビル４階","place":"Connecting The Dots: 「渋谷」","lat":35.6618,"lon":139.7,"state":"active","id":null},{"event_id":"41488","title":"Sendai Communication All Star会議〜SENDAI CS JAM#6〜","url":"https://csjam.connpass.com/event/41488/","shortener_url":null,"started_at":"2016-10-26T19:00:00.000+09:00","ended_at":"2016-10-26T21:30:00.000+09:00","limit_number":20,"address":"宮城県仙台市青葉区本町1-12-12 (GMビルディング 7F)","place":"株式会社メルカリ　仙台オフィス","lat":38.2665,"lon":140.878,"state":"active","id":null},{"event_id":"41150","title":"【大学生・大学院生限定】TECH_SALON AI勉強会-機械学習の基礎から応用まで学べる勉強会-","url":"https://techsalon.connpass.com/event/41150/","shortener_url":null,"started_at":"2016-10-19T04:00:00.000+09:00","ended_at":"2016-10-19T07:00:00.000+09:00","limit_number":25,"address":"東京都目黒区下目黒1丁目8-1　アルコタワー17F","place":"株式会社ドリコム","lat":35.6315,"lon":139.714,"state":"active","id":null},{"event_id":"42394","title":"【大学生・大学院生限定】UNITY_SHADER勉強会-基礎から応用へ-","url":"https://techsalon.connpass.com/event/42394/","shortener_url":null,"started_at":"2016-10-20T05:00:00.000+09:00","ended_at":"2016-10-20T07:00:00.000+09:00","limit_number":25,"address":"東京都渋谷区渋谷2-21-1 渋谷ヒカリエ","place":"株式会社ディー・エヌ・エー","lat":35.659,"lon":139.703,"state":"active","id":null},{"event_id":"41909","title":"第107回オープンソースサロン","url":"https://connpass.com/event/41909/","shortener_url":null,"started_at":"2016-10-28T18:30:00.000+09:00","ended_at":"2016-10-28T20:00:00.000+09:00","limit_number":null,"address":"島根県松江市朝日町４７８−１８","place":"松江オープンソースラボ","lat":35.464,"lon":133.062,"state":"active","id":null},{"event_id":"41928","title":"【大学生・大学院生限定】Docker入門","url":"https://techsalon.connpass.com/event/41928/","shortener_url":null,"started_at":"2016-10-21T04:00:00.000+09:00","ended_at":"2016-10-21T07:00:00.000+09:00","limit_number":20,"address":"東京都品川区西五反田2-8-1 五反田ファーストビル 9F","place":"freee株式会社","lat":35.6268,"lon":139.722,"state":"active","id":null},{"event_id":"42249","title":"Sota講習会 【Vstone Magicを始めよう】 Part 3","url":"https://sota.connpass.com/event/42249/","shortener_url":null,"started_at":"2016-10-22T04:00:00.000+09:00","ended_at":"2016-10-22T04:50:00.000+09:00","limit_number":4,"address":"東京都千代田区外神田1-9-9 内田ビル4F","place":"ヴイストン ロボットセンター秋葉原店","lat":35.6987,"lon":139.77,"state":"active","id":null},{"event_id":"40049","title":"iOS Creators' Meetup vol.2","url":"https://oi-study.connpass.com/event/40049/","shortener_url":null,"started_at":"2016-10-14T19:30:00.000+09:00","ended_at":"2016-10-14T22:00:00.000+09:00","limit_number":60,"address":"〒141-0022 東京都品川区東五反田1丁目13番12号 (いちご五反田ビル4F)","place":"オイシックス株式会社","lat":35.6268,"lon":139.725,"state":"active","id":null},{"event_id":"42388","title":"【U-29若手エンジニア対象】Substance Painterもくもく会","url":"https://techsalon.connpass.com/event/42388/","shortener_url":null,"started_at":"2016-10-15T22:00:00.000+09:00","ended_at":"2016-10-16T03:00:00.000+09:00","limit_number":20,"address":"東京都渋谷区渋谷2-21-1 渋谷ヒカリエ","place":"株式会社ディー・エヌ・エー","lat":35.659,"lon":139.703,"state":"active","id":null},{"event_id":"42511","title":"【Rails初心者向け】OthloEvent@Goodfind #5","url":"https://othlotech.connpass.com/event/42511/","shortener_url":null,"started_at":"2016-10-29T20:00:00.000+09:00","ended_at":"2016-10-30T04:00:00.000+09:00","limit_number":20,"address":"愛知県名古屋市中区大須4-11-5 (観音ビル 6階)","place":"Open Village","lat":35.1584,"lon":136.906,"state":"active","id":null},{"event_id":"42410","title":"アーバンデータチャレンジ2016キックオフ with Code for Kyoto","url":"https://code4kyoto.connpass.com/event/42410/","shortener_url":null,"started_at":"2016-10-29T13:00:00.000+09:00","ended_at":"2016-10-29T18:00:00.000+09:00","limit_number":null,"address":"京都府京都市中京区手洗水町647","place":"Oinai Karasuma","lat":35.006,"lon":135.76,"state":"active","id":null},{"event_id":"42443","title":"第3回 特許技術SDK/API勉強会@Co-Edo【10/25開催】","url":"https://pas-ta.connpass.com/event/42443/","shortener_url":null,"started_at":"2016-10-25T19:30:00.000+09:00","ended_at":"2016-10-25T21:30:00.000+09:00","limit_number":15,"address":"東京都 中央区新川 1-3-4 PAビル5F","place":"コワーキングスペース茅場町 Co-Edo（コエド）","lat":35.6786,"lon":139.782,"state":"active","id":null},{"event_id":"41929","title":"【U-29若手エンジニア対象】MORNING_HACKS","url":"https://techsalon.connpass.com/event/41929/","shortener_url":null,"started_at":"2016-10-13T07:00:00.000+09:00","ended_at":"2016-10-13T10:00:00.000+09:00","limit_number":10,"address":"東京都渋谷区道玄坂2-10-12 新大宗ビル3号館531号","place":"HiveShibuya","lat":35.6587,"lon":139.698,"state":"active","id":null},{"event_id":"41486","title":"【大学生・大学院生限定】最新技術キャッチアップ勉強会(Elixir編)","url":"https://techsalon.connpass.com/event/41486/","shortener_url":null,"started_at":"2016-10-15T04:00:00.000+09:00","ended_at":"2016-10-15T07:00:00.000+09:00","limit_number":20,"address":"東京都品川区西五反田2-8-1 五反田ファーストビル 9F","place":"freee株式会社","lat":35.6268,"lon":139.722,"state":"active","id":null},{"event_id":"40999","title":"【再増枠!!】インターネットで金融を変える！Fintechスタートアップのトレンドと挑戦","url":"https://connpass.com/event/40999/","shortener_url":null,"started_at":"2016-10-13T04:00:00.000+09:00","ended_at":"2016-10-13T06:30:00.000+09:00","limit_number":50,"address":"東京都千代田区 二番町5−1","place":"住友不動産麹町ビル","lat":35.6854,"lon":139.737,"state":"active","id":null},{"event_id":"39879","title":"\bファッションとヒャッカソン","url":"https://100-a-thon.connpass.com/event/39879/","shortener_url":null,"started_at":"2016-10-15T09:50:00.000+09:00","ended_at":"2016-10-15T18:00:00.000+09:00","limit_number":25,"address":"東京都港区赤坂2-14‐27 国際新赤坂ビル東館15F","place":"株式会社スパイスボックス","lat":35.6722,"lon":139.737,"state":"active","id":null},{"event_id":"40980","title":"【Windows歓迎】【学生】無料でオリジナルHPを作ろう(懇親会付き)！文系/体育会系大歓迎★","url":"https://morei.connpass.com/event/40980/","shortener_url":null,"started_at":"2016-10-18T19:00:00.000+09:00","ended_at":"2016-10-26T21:00:00.000+09:00","limit_number":6,"address":"〒162-0823 東京都新宿区神楽河岸1-1 (セントラルプラザ)","place":"株式会社カケハシ スカイソリューションズ","lat":35.701,"lon":139.744,"state":"active","id":null},{"event_id":"40978","title":"【学生】無料でiPhoneアプリを作ろう(懇親会付き)！文系/体育会系大歓迎★","url":"https://morei.connpass.com/event/40978/","shortener_url":null,"started_at":"2016-10-18T19:00:00.000+09:00","ended_at":"2016-10-26T21:00:00.000+09:00","limit_number":6,"address":"〒162-0823 東京都新宿区神楽河岸1-1 (セントラルプラザ)","place":"株式会社カケハシ スカイソリューションズ","lat":35.701,"lon":139.744,"state":"active","id":null},{"event_id":"41043","title":"【懇親会付き】【学生向け】文系も参加OK!無料のプログラミング講座でiPhoneアプリ製作★","url":"https://morei.connpass.com/event/41043/","shortener_url":null,"started_at":"2016-10-19T19:00:00.000+09:00","ended_at":"2016-10-19T21:00:00.000+09:00","limit_number":10,"address":"〒162-0823 東京都新宿区神楽河岸1-1 (セントラルプラザ)","place":"株式会社カケハシ スカイソリューションズ","lat":35.701,"lon":139.744,"state":"active","id":null},{"event_id":"40919","title":"第6回サウンドゲームジャム","url":"https://effectorhack.connpass.com/event/40919/","shortener_url":null,"started_at":"2016-10-08T10:00:00.000+09:00","ended_at":"2016-10-09T20:00:00.000+09:00","limit_number":50,"address":"東京都渋谷区渋谷1-7-7(住友不動産青山通ビル13階)","place":"CRI・ミドルウェアC会議室","lat":35.6605,"lon":139.706,"state":"active","id":null},{"event_id":"41149","title":"【大学生・院生限定】TECH_SALON AI勉強会  Week5","url":"https://techsalon.connpass.com/event/41149/","shortener_url":null,"started_at":"2016-10-12T04:00:00.000+09:00","ended_at":"2016-10-12T07:00:00.000+09:00","limit_number":25,"address":"東京都目黒区下目黒1丁目8-1　アルコタワー17F","place":"株式会社ドリコム","lat":35.6315,"lon":139.714,"state":"active","id":null},{"event_id":"40624","title":"アーバンデータチャレンジ2016 in石川 Vol.2 ハッカソン 〜 地域の課題を解決しよう〜","url":"https://cfk.connpass.com/event/40624/","shortener_url":null,"started_at":"2016-10-08T10:30:00.000+09:00","ended_at":"2016-10-08T17:00:00.000+09:00","limit_number":null,"address":"石川県金沢市武蔵町14番31号","place":"ITビジネスプラザ武蔵","lat":36.5713,"lon":136.655,"state":"active","id":null},{"event_id":"40533","title":"信州マッシュアップハッカソンin塩尻（MA2016)","url":"https://gdg-shinshu.connpass.com/event/40533/","shortener_url":null,"started_at":"2016-10-15T19:00:00.000+09:00","ended_at":"2016-10-17T03:00:00.000+09:00","limit_number":30,"address":"長野県塩尻市大門八番町１−２","place":"塩尻インキュベーションプラザ 1F 多目的ホール","lat":36.1113,"lon":137.95,"state":"active","id":null},{"event_id":"41092","title":"【公立はこだて未来大学】JPHACKS2016説明会","url":"https://giveryengineersupport.connpass.com/event/41092/","shortener_url":null,"started_at":"2016-10-07T21:10:00.000+09:00","ended_at":"2016-10-07T23:40:00.000+09:00","limit_number":null,"address":"北海道函館市亀田中野町116番地2","place":"公立はこだて未来大学　484教室","lat":41.8418,"lon":140.767,"state":"active","id":null},{"event_id":"39429","title":"就活アイデアソン【C-1グランプリ】 PwC特別講演も…！","url":"https://connpass.com/event/39429/","shortener_url":null,"started_at":"2016-10-22T13:00:00.000+09:00","ended_at":"2016-10-22T19:00:00.000+09:00","limit_number":45,"address":"東京都千代田区三崎町3-6-15 ","place":"東京学院ビル本館3F","lat":35.7015,"lon":139.752,"state":"active","id":null},{"event_id":"41358","title":"【大学生・大学院生限定】Xcode 8 / Swift 3 で学ぶiOS開発ハンズオン","url":"https://techsalon.connpass.com/event/41358/","shortener_url":null,"started_at":"2016-10-07T04:00:00.000+09:00","ended_at":"2016-10-07T07:00:00.000+09:00","limit_number":10,"address":"東京都渋谷区恵比寿1-18-14 恵比寿ファーストスクエア 9F","place":"株式会社VASILY","lat":35.6475,"lon":139.715,"state":"active","id":null},{"event_id":"41350","title":"UX JAM 12","url":"https://uxmilk.connpass.com/event/41350/","shortener_url":null,"started_at":"2016-10-12T19:45:00.000+09:00","ended_at":"2016-10-12T22:15:00.000+09:00","limit_number":150,"address":"東京都目黒区目黒3丁目9−1 目黒須田ビル","place":"株式会社オロ","lat":35.633,"lon":139.708,"state":"active","id":null},{"event_id":"41886","title":"ラブライブ！サンシャイン!!の聖地・沼津を盛り上げるアイディアソン 第2回","url":"https://akibalab.connpass.com/event/41886/","shortener_url":null,"started_at":"2016-10-22T17:00:00.000+09:00","ended_at":"2016-10-22T20:00:00.000+09:00","limit_number":5,"address":"静岡県沼津市大手町1-1-4","place":"キラメッセぬまづ（プラサヴェルデ） 405会議室","lat":35.104,"lon":138.862,"state":"active","id":null},{"event_id":"41183","title":"【東北大学】JPHACKS2016説明会","url":"https://giveryengineersupport.connpass.com/event/41183/","shortener_url":null,"started_at":"2016-10-05T01:30:00.000+09:00","ended_at":"2016-10-05T03:00:00.000+09:00","limit_number":null,"address":"宮城県仙台市青葉区荒巻字青葉6-6","place":"東北大学カタールサイエンスキャンパス","lat":38.2552,"lon":140.841,"state":"active","id":null},{"event_id":"40621","title":"【満員御礼】【懇親会付き】20/30代向けのプログラミング講座★講師付きでしっかり学ぶ♪","url":"https://morei.connpass.com/event/40621/","shortener_url":null,"started_at":"2016-10-04T19:00:00.000+09:00","ended_at":"2016-10-04T21:00:00.000+09:00","limit_number":18,"address":"〒107-0052　東京都港区赤坂3-21-20　赤坂ロングビーチビル","place":"株式会社キャリアデザインセンター","lat":35.6772,"lon":139.736,"state":"active","id":null},{"event_id":"39281","title":"第二弾 GLS ITセミナー「人工知能とVR」","url":"https://connpass.com/event/39281/","shortener_url":null,"started_at":"2016-10-29T22:00:00.000+09:00","ended_at":"2016-10-30T01:00:00.000+09:00","limit_number":30,"address":"仙台市青葉区中央一丁目3番1号AER7階","place":"AER7階　アシスタ","lat":38.2585,"lon":140.877,"state":"active","id":null},{"event_id":"41310","title":"毎週土曜日Arduino もくもく会","url":"https://column.connpass.com/event/41310/","shortener_url":null,"started_at":"2016-10-09T03:00:00.000+09:00","ended_at":"2016-10-09T05:00:00.000+09:00","limit_number":8,"address":"山口県周南市若宮町１丁目２１","place":"コワーキングスペース「カラム」","lat":34.0527,"lon":131.808,"state":"active","id":null},{"event_id":"40795","title":"【大学生・大学院生限定】爆速でGo勉強会！！","url":"https://techsalon.connpass.com/event/40795/","shortener_url":null,"started_at":"2016-10-06T04:30:00.000+09:00","ended_at":"2016-10-06T07:00:00.000+09:00","limit_number":20,"address":"東京都港区六本木1-6-1 泉ガーデンタワー32F","place":"ディップ株式会社","lat":35.6646,"lon":139.739,"state":"active","id":null},{"event_id":"40537","title":"【29歳以下対象】500 HALLOWEEN HACKATHON 優勝チームはシリコンバレーに招待！","url":"https://techsalon.connpass.com/event/40537/","shortener_url":null,"started_at":"2016-10-08T10:00:00.000+09:00","ended_at":"2016-10-09T20:00:00.000+09:00","limit_number":null,"address":"東京都渋谷区恵比寿4-20-3 恵比寿ガーデンプレイスタワ−11階","place":"株式会社コロプラ","lat":35.6421,"lon":139.713,"state":"active","id":null},{"event_id":"41148","title":"【大学生・院生限定】TECH_SALON AI勉強会  Week4","url":"https://techsalon.connpass.com/event/41148/","shortener_url":null,"started_at":"2016-10-05T04:00:00.000+09:00","ended_at":"2016-10-05T07:00:00.000+09:00","limit_number":25,"address":"東京都目黒区下目黒1丁目8-1　アルコタワー17F","place":"株式会社ドリコム","lat":35.6315,"lon":139.714,"state":"active","id":null},{"event_id":"40969","title":"【大学生・大学院生限定】UNITY SHADER 勉強会","url":"https://techsalon.connpass.com/event/40969/","shortener_url":null,"started_at":"2016-10-02T22:00:00.000+09:00","ended_at":"2016-10-03T01:00:00.000+09:00","limit_number":25,"address":"東京都渋谷区代々木2丁目2-1 小田急サザンタワー8階","place":"株式会社Donuts","lat":35.6876,"lon":139.7,"state":"active","id":null},{"event_id":"41509","title":"【電気通信大学】JPHACKS2016説明会","url":"https://giveryengineersupport.connpass.com/event/41509/","shortener_url":null,"started_at":"2016-10-07T03:00:00.000+09:00","ended_at":"2016-10-07T04:00:00.000+09:00","limit_number":null,"address":"東京都調布市調布ケ丘1-5-1 電気通信大学","place":"電気通信大学 西2号館 １階 アクティブラーニングスペース","lat":35.6562,"lon":139.544,"state":"active","id":null},{"event_id":"41507","title":"【北海道大学】JPHACKS2016説明会","url":"https://giveryengineersupport.connpass.com/event/41507/","shortener_url":null,"started_at":"2016-10-05T21:30:00.000+09:00","ended_at":"2016-10-06T01:00:00.000+09:00","limit_number":null,"address":"札幌市北区北14条西9丁目","place":"情報科学研究科棟　5階中会議室（508）","lat":43.0763,"lon":141.34,"state":"active","id":null},{"event_id":"41496","title":"みんなでアプリ開発[仕様作成・環境構築など]（未経験者歓迎）","url":"https://jagkumamoto.connpass.com/event/41496/","shortener_url":null,"started_at":"2016-10-15T22:00:00.000+09:00","ended_at":"2016-10-16T02:00:00.000+09:00","limit_number":10,"address":"熊本県熊本市中央区大江本町５－１","place":"熊本大学薬学部　　宮本記念館　１階　カンファレンスルーム","lat":32.7945,"lon":130.721,"state":"active","id":null},{"event_id":"41332","title":"名古屋ゲーム制作部　分割ゲームジャム　前編　１０月２９日（土）","url":"https://nagogebu.connpass.com/event/41332/","shortener_url":null,"started_at":"2016-10-29T10:00:00.000+09:00","ended_at":"2016-10-29T20:00:00.000+09:00","limit_number":20,"address":"愛知県 名古屋市 愛知県名古屋市中村区名駅四丁目15番地15号 名古屋綜合市場ビル","place":"フィーバー柳橋","lat":35.1697,"lon":136.888,"state":"active","id":null},{"event_id":"40800","title":"【大学生・大学院生限定】WALT Boot Camp Vol.1 Bitcoin API 勉強会","url":"https://techsalon.connpass.com/event/40800/","shortener_url":null,"started_at":"2016-10-01T20:00:00.000+09:00","ended_at":"2016-10-02T03:00:00.000+09:00","limit_number":20,"address":"東京都千代田区丸の内一丁目3番1号　東京銀行協会ビル14階","place":"Finolab","lat":35.6838,"lon":139.763,"state":"active","id":null},{"event_id":"41140","title":"Sota講習会 【Vstone Magicを始めよう】 Part 3","url":"https://sota.connpass.com/event/41140/","shortener_url":null,"started_at":"2016-10-08T04:00:00.000+09:00","ended_at":"2016-10-08T04:50:00.000+09:00","limit_number":4,"address":"東京都千代田区外神田1-9-9 内田ビル4F","place":"ヴイストン ロボットセンター秋葉原店","lat":35.6987,"lon":139.77,"state":"active","id":null},{"event_id":"40478","title":"SaCSS vol.80","url":"https://connpass.com/event/40478/","shortener_url":null,"started_at":"2016-10-01T22:30:00.000+09:00","ended_at":"2016-10-02T01:30:00.000+09:00","limit_number":40,"address":"札幌市中央区北1条東4丁目1番地1","place":"株式会社インフィニットループ 会議室","lat":43.0643,"lon":141.363,"state":"active","id":null},{"event_id":"41099","title":"JPHACKS2016","url":"https://giveryengineersupport.connpass.com/event/41099/","shortener_url":null,"started_at":"2016-10-29T09:00:00.000+09:00","ended_at":"2016-11-06T09:00:00.000+09:00","limit_number":null,"address":"","place":"","lat":null,"lon":null,"state":"active","id":null},{"event_id":"39839","title":"ラーメン二郎ハッカソン「ジロッカソン」","url":"https://connpass.com/event/39839/","shortener_url":null,"started_at":"2016-10-01T19:00:00.000+09:00","ended_at":"2016-10-02T05:00:00.000+09:00","limit_number":40,"address":"東京都渋谷区神泉町8-16 渋谷ファーストプレイス 8F","place":"サポーターズ東京オフィス","lat":35.6553,"lon":139.694,"state":"active","id":null},{"event_id":"40676","title":"AppleWatchハッカソン『新宿』","url":"https://prototype-hackathon.connpass.com/event/40676/","shortener_url":null,"started_at":"2016-10-01T21:45:00.000+09:00","ended_at":"2016-10-02T04:00:00.000+09:00","limit_number":9,"address":"〒163-0801 東京都新宿区西新宿2−4−1","place":"NSビル一階のタリーズ","lat":35.6882,"lon":139.694,"state":"active","id":null},{"event_id":"40782","title":"日本Androidの会浜松支部 BBQ(第66回ミーティング)","url":"https://jaghama.connpass.com/event/40782/","shortener_url":null,"started_at":"2016-10-01T11:00:00.000+09:00","ended_at":"2016-10-01T16:00:00.000+09:00","limit_number":15,"address":"静岡県湖西市白須賀697-2","place":"アオゾラカフェ ベイス","lat":34.6787,"lon":137.514,"state":"active","id":null},{"event_id":"40521","title":"第二回WBAハッカソン","url":"https://connpass.com/event/40521/","shortener_url":null,"started_at":"2016-10-08T10:00:00.000+09:00","ended_at":"2016-10-10T17:00:00.000+09:00","limit_number":40,"address":"神奈川県横浜市港北区日吉4-1-1","place":"慶応義塾大学日吉キャンパス","lat":35.5527,"lon":139.651,"state":"active","id":null},{"event_id":"40111","title":"Race for Resilience 2016 熊本","url":"https://connpass.com/event/40111/","shortener_url":null,"started_at":"2016-10-08T10:30:00.000+09:00","ended_at":"2016-10-09T17:30:00.000+09:00","limit_number":25,"address":"熊本県上益城郡益城町田原 2081-28 （テクノリサーチ・パーク内）","place":"熊本ソフトウェア株式会社","lat":32.8255,"lon":130.844,"state":"active","id":null},{"event_id":"39658","title":"第７回ドラスゲームジャム","url":"https://dorasugj.connpass.com/event/39658/","shortener_url":null,"started_at":"2016-10-09T09:30:00.000+09:00","ended_at":"2016-10-09T20:00:00.000+09:00","limit_number":20,"address":"愛知県名古屋市中村区名駅2丁目35番22号","place":"misoca会議室","lat":35.1744,"lon":136.882,"state":"active","id":null},{"event_id":"34744","title":"日本Androidの会横須賀支部10月定例会","url":"https://jagyokosuka.connpass.com/event/34744/","shortener_url":null,"started_at":"2016-10-08T23:00:00.000+09:00","ended_at":"2016-10-09T01:30:00.000+09:00","limit_number":30,"address":"横須賀市本町3-27","place":"横須賀市産業交流プラザ","lat":35.2811,"lon":139.663,"state":"active","id":null},{"event_id":"39259","title":"JEITA 防災・減災×IT アイデアソン","url":"https://connpass.com/event/39259/","shortener_url":null,"started_at":"2016-10-31T10:00:00.000+09:00","ended_at":"2016-10-31T18:00:00.000+09:00","limit_number":30,"address":"東京都千代田区大手町1-1-3 大手センタービル","place":"（社）電子情報技術産業協会　402-403会議室","lat":35.686,"lon":139.763,"state":"active","id":null},{"event_id":"82874","title":"第258回オフライン開発ミーティング","url":"https://atnd.org/events/82874","shortener_url":null,"started_at":"2016-10-30T10:00:00.000+09:00","ended_at":"2016-10-30T12:00:00.000+09:00","limit_number":null,"address":"東京都品川区大崎1-11-1","place":"ゲートシティ大崎B1アトリウムフリー座席","lat":35.6194,"lon":139.731,"state":"closed","id":null},{"event_id":"82582","title":"第257回オフライン開発ミーティング","url":"https://atnd.org/events/82582","shortener_url":null,"started_at":"2016-10-23T10:00:00.000+09:00","ended_at":"2016-10-23T12:00:00.000+09:00","limit_number":null,"address":"東京都品川区大崎1-11-1","place":"ゲートシティ大崎B1アトリウムフリー座席","lat":35.6194,"lon":139.731,"state":"closed","id":null},{"event_id":"79021","title":"【10/19(水)】2016 日米医療機器イノベーションフォーラム in 広島","url":"https://atnd.org/events/79021","shortener_url":null,"started_at":"2016-10-19T10:00:00.000+09:00","ended_at":"2016-10-19T18:00:00.000+09:00","limit_number":500,"address":"広島県広島市中区中島町1-5","place":"広島国際会議場「ヒマワリ」（日英同時通訳有）","lat":34.3921,"lon":132.451,"state":"closed","id":null},{"event_id":"82534","title":"créateurs de brouilleur gsm pas cher","url":"https://atnd.org/events/82534","shortener_url":null,"started_at":"2016-10-17T12:30:00.000+09:00","ended_at":"2017-03-16T09:00:00.000+09:00","limit_number":null,"address":"","place":"","lat":null,"lon":null,"state":"closed","id":null},{"event_id":"82349","title":"第256回オフライン開発ミーティング","url":"https://atnd.org/events/82349","shortener_url":null,"started_at":"2016-10-16T10:00:00.000+09:00","ended_at":"2016-10-16T12:00:00.000+09:00","limit_number":null,"address":"東京都品川区大崎1-11-1","place":"ゲートシティ大崎B1アトリウムフリー座席","lat":35.6194,"lon":139.731,"state":"closed","id":null},{"event_id":"81740","title":"インターネットで金融を変える！Fintechスタートアップのトレンドと挑戦","url":"https://atnd.org/events/81740","shortener_url":null,"started_at":"2016-10-12T19:00:00.000+09:00","ended_at":"2016-10-12T21:30:00.000+09:00","limit_number":10,"address":"東京都港区赤坂1丁目12番32号アーク森ビル3階","place":"Cross Over Lounge","lat":35.6671,"lon":139.74,"state":"closed","id":null},{"event_id":"82167","title":"第255回オフライン開発ミーティング","url":"https://atnd.org/events/82167","shortener_url":null,"started_at":"2016-10-09T10:00:00.000+09:00","ended_at":"2016-10-09T12:00:00.000+09:00","limit_number":null,"address":"東京都品川区大崎1-11-1","place":"ゲートシティ大崎B1アトリウムフリー座席","lat":35.6194,"lon":139.731,"state":"closed","id":null},{"event_id":"81924","title":"第254回オフライン開発ミーティング","url":"https://atnd.org/events/81924","shortener_url":null,"started_at":"2016-10-02T10:00:00.000+09:00","ended_at":"2016-10-02T12:00:00.000+09:00","limit_number":null,"address":"東京都品川区大崎1-11-1","place":"ゲートシティ大崎B1アトリウムフリー座席","lat":35.6194,"lon":139.731,"state":"closed","id":null},{"event_id":"40714","title":"東海道らぐ 2016年10月あひる焼き合宿 in 下呂温泉","url":"https://tokaidolug.connpass.com/event/40714/","shortener_url":null,"started_at":"2016-10-22T16:40:00.000+09:00","ended_at":"2016-10-23T10:00:00.000+09:00","limit_number":12,"address":"岐阜県下呂市湯之島521-1","place":"温泉宿廣司","lat":35.811,"lon":137.239,"state":"active","id":null},{"event_id":"36135","title":"もくもく温泉　開発合宿 #6","url":"https://mokumoku-onsen.connpass.com/event/36135/","shortener_url":null,"started_at":"2016-10-15T15:00:00.000+09:00","ended_at":"2016-10-16T18:30:00.000+09:00","limit_number":18,"address":"千葉県香取郡 東庄町笹川い６２４","place":"土善旅館","lat":35.845,"lon":140.662,"state":"active","id":null},{"event_id":"41258","title":"(第69回)Python mini Hack-a-thon","url":"https://pyhack.connpass.com/event/41258/","shortener_url":null,"started_at":"2016-10-08T11:00:00.000+09:00","ended_at":"2016-10-08T19:00:00.000+09:00","limit_number":20,"address":"豊島区東池袋1-7-12 日産ビルディング7F","place":"ビープラウド会議室","lat":35.6864,"lon":139.704,"state":"active","id":null},{"event_id":"38730","title":"サーバー構築ハンズオン －セキュアなプロトコルも使ってみよう－ in 東京 #061","url":"https://svrkcho.connpass.com/event/38730/","shortener_url":null,"started_at":"2016-10-29T12:30:00.000+09:00","ended_at":"2016-10-29T18:00:00.000+09:00","limit_number":8,"address":"東京都渋谷区恵比寿1-18-5 アルカサル恵比寿201","place":"株式会社ウェブコミュニケーションズ","lat":35.6476,"lon":139.714,"state":"active","id":null},{"event_id":"36944","title":"PyLadies Tokyo 秋合宿 2016","url":"https://pyladies-tokyo.connpass.com/event/36944/","shortener_url":null,"started_at":"2016-10-08T15:00:00.000+09:00","ended_at":"2016-10-10T16:00:00.000+09:00","limit_number":12,"address":"〒414-0022静岡県伊東市東松原町4-7","place":"山喜旅館","lat":34.9725,"lon":139.098,"state":"active","id":null},{"event_id":"81462","title":"第28回 Drupal さっぽろ Meetup（Drupal 勉強会＠さっぽろ）","url":"https://atnd.org/events/81462","shortener_url":null,"started_at":"2016-10-08T13:30:00.000+09:00","ended_at":"2016-10-08T17:00:00.000+09:00","limit_number":20,"address":"札幌市白石区東札幌5条1丁目1-1","place":" 札幌市産業振興センター　セミナールームD","lat":43.0562,"lon":141.386,"state":"closed","id":null}]