[{"event_id":"34328","title":"【投票直前】 参院選データジャーナリズムハッカソン - 立候補者の違いを可視化しよう！","url":"https://e2d3.connpass.com/event/34328/","shortener_url":null,"started_at":"2016-07-02T10:00:00.000+09:00","ended_at":"2016-07-02T22:00:00.000+09:00","limit_number":50,"address":"神奈川県横浜市中区相生町３丁目６１ 泰生 ビル 2F ","place":"さくらWORKS","lat":35.4467,"lon":139.638,"state":"active","id":null},{"event_id":"34650","title":"オオサカプログラミングカフェ#2","url":"https://osakaprgcafe.connpass.com/event/34650/","shortener_url":null,"started_at":"2016-07-03T19:00:00.000+09:00","ended_at":"2016-07-04T01:00:00.000+09:00","limit_number":8,"address":"大阪市北区鶴野町1-5  関西大学梅田キャンパス2F","place":"スタートアップカフェ大阪","lat":34.7063,"lon":135.501,"state":"active","id":null},{"event_id":"35770","title":"オオサカプログラミングカフェ#3","url":"https://osakaprgcafe.connpass.com/event/35770/","shortener_url":null,"started_at":"2016-07-24T22:30:00.000+09:00","ended_at":"2016-07-25T02:30:00.000+09:00","limit_number":8,"address":"大阪市北区鶴野町1-5  関西大学梅田キャンパス2F","place":"スタートアップカフェ大阪","lat":34.7063,"lon":135.501,"state":"active","id":null},{"event_id":"35666","title":"関東LibreOffice（以外も歓迎！）HackFest(#8) @Chiba","url":"https://kantolibo.connpass.com/event/35666/","shortener_url":null,"started_at":"2016-07-24T22:00:00.000+09:00","ended_at":"2016-07-25T03:00:00.000+09:00","limit_number":5,"address":"千葉県千葉市中央区新千葉2-8-10(第三雄秀ビル201)","place":"千葉コワーキングスペース201","lat":35.6146,"lon":140.109,"state":"active","id":null},{"event_id":"35608","title":"TOKYO CS JAM #3","url":"https://csjam.connpass.com/event/35608/","shortener_url":null,"started_at":"2016-07-20T19:15:00.000+09:00","ended_at":"2016-07-20T21:45:00.000+09:00","limit_number":15,"address":"東京都港区六本木6-10-1（六本木ヒルズ森タワー18F）","place":"株式会社メルカリ","lat":35.6604,"lon":139.729,"state":"active","id":null},{"event_id":"36137","title":"【Drink/お菓子/講師付き】土曜/昼に渋谷でiPhoneアプリ開発をSTARTさせよう★","url":"https://morei.connpass.com/event/36137/","shortener_url":null,"started_at":"2016-07-23T14:00:00.000+09:00","ended_at":"2016-07-23T16:00:00.000+09:00","limit_number":2,"address":"渋谷区神南1-20-7 川原ビル４階","place":"Connecting The Dots: 「渋谷」","lat":35.6618,"lon":139.7,"state":"active","id":null},{"event_id":"36273","title":"ツール・ド・東北支援IoTハッカソン【Morio Quest Vol.1】","url":"https://morique.connpass.com/event/36273/","shortener_url":null,"started_at":"2016-07-30T04:00:00.000+09:00","ended_at":"2016-08-20T07:00:00.000+09:00","limit_number":25,"address":"東京都新宿区四谷4-29","place":"株式会社IDCフロンティア","lat":35.6883,"lon":139.715,"state":"active","id":null},{"event_id":"35324","title":"第1回 創造性を引き出すアイデアソン\"地方創生×VR/AR\"","url":"https://connpass.com/event/35324/","shortener_url":null,"started_at":"2016-07-31T13:30:00.000+09:00","ended_at":"2016-07-31T16:00:00.000+09:00","limit_number":9,"address":"〒531-0075 大阪府大阪市北区大淀南1-1-16-2F","place":"THE COMMON PLACE ギャラリールーム","lat":34.7037,"lon":135.491,"state":"active","id":null},{"event_id":"34862","title":"DeepLearning もくもくハッカソン 第2回 〜俺たちは帰ってきた〜","url":"https://deep-learning-hackathon.connpass.com/event/34862/","shortener_url":null,"started_at":"2016-07-30T20:00:00.000+09:00","ended_at":"2016-08-01T06:00:00.000+09:00","limit_number":15,"address":"東京都港区赤坂9-7-1 ミッドタウン・タワー","place":"ヤフー株式会社","lat":35.6662,"lon":139.731,"state":"active","id":null},{"event_id":"35923","title":"PyCon JP Staff \"Meat\" UP in shinjuku","url":"https://pyconjp-staff.connpass.com/event/35923/","shortener_url":null,"started_at":"2016-07-31T03:30:00.000+09:00","ended_at":"2016-07-31T05:30:00.000+09:00","limit_number":30,"address":"東京都新宿区新宿4-1-9 新宿ユースビル 7Ｆ","place":"ビストロ 熟肉","lat":35.6889,"lon":139.703,"state":"active","id":null},{"event_id":"33921","title":"aozorahack hackathon #1","url":"https://aozorahack.connpass.com/event/33921/","shortener_url":null,"started_at":"2016-07-30T10:00:00.000+09:00","ended_at":"2016-07-31T17:00:00.000+09:00","limit_number":50,"address":"東京都中央区日本橋2-7-1 東京日本橋タワー","place":"サイボウズ株式会社 東京オフィス","lat":35.6819,"lon":139.774,"state":"active","id":null},{"event_id":"36093","title":"【渋谷/土曜】【Drink/お菓子付き】初心者向け★SwiftでiPhoneアプリ開発をSTART★","url":"https://morei.connpass.com/event/36093/","shortener_url":null,"started_at":"2016-07-30T14:00:00.000+09:00","ended_at":"2016-07-30T16:00:00.000+09:00","limit_number":3,"address":"渋谷区神南1-20-7 川原ビル４階","place":"Connecting The Dots: 「渋谷」","lat":35.6618,"lon":139.7,"state":"active","id":null},{"event_id":"32676","title":"SMART LIFE HACKATHON #4","url":"https://smartlife-hackathon.connpass.com/event/32676/","shortener_url":null,"started_at":"2016-07-30T10:00:00.000+09:00","ended_at":"2016-07-30T18:00:00.000+09:00","limit_number":50,"address":"東京都文京区弥生2-1-1(東京大学弥生キャンパスI-REF棟)","place":"東京大学 I-REF棟","lat":35.7138,"lon":139.766,"state":"active","id":null},{"event_id":"36272","title":"【渋谷/土曜】【Drink/お菓子付き】初心者歓迎！Git+GitHubの使い方をマスター★","url":"https://morei.connpass.com/event/36272/","shortener_url":null,"started_at":"2016-07-30T14:00:00.000+09:00","ended_at":"2016-07-30T16:00:00.000+09:00","limit_number":3,"address":"渋谷区神南1-20-7 川原ビル４階","place":"Connecting The Dots","lat":35.6618,"lon":139.7,"state":"active","id":null},{"event_id":"35765","title":"SENDAI IT JAM Vol.1","url":"https://connpass.com/event/35765/","shortener_url":null,"started_at":"2016-07-30T14:00:00.000+09:00","ended_at":"2016-07-30T19:00:00.000+09:00","limit_number":115,"address":"〒980-0856　仙台市青葉区青葉山無番地","place":"国際センター駅市民交流施設「青葉の風テラス」","lat":38.2586,"lon":140.858,"state":"active","id":null},{"event_id":"32728","title":"Software Defined Media ワークショップ2016","url":"https://sdm.connpass.com/event/32728/","shortener_url":null,"started_at":"2016-07-29T13:00:00.000+09:00","ended_at":"2016-07-29T17:30:00.000+09:00","limit_number":50,"address":"東京都文京区弥生1-1-1","place":"東京大学 I-REF棟6F","lat":35.7168,"lon":139.76,"state":"active","id":null},{"event_id":"34977","title":"UX JAM 10","url":"https://uxmilk.connpass.com/event/34977/","shortener_url":null,"started_at":"2016-07-13T19:30:00.000+09:00","ended_at":"2016-07-13T22:00:00.000+09:00","limit_number":215,"address":"東京都渋谷区恵比寿4-20-3","place":"株式会社クラウドワークス","lat":35.6423,"lon":139.713,"state":"active","id":null},{"event_id":"36581","title":"【Drink/お菓子付き】【文系/非エンジニア歓迎】あなたが学ぶべきプログラミングはこれだ!!","url":"https://morei.connpass.com/event/36581/","shortener_url":null,"started_at":"2016-07-30T11:00:00.000+09:00","ended_at":"2016-07-30T12:00:00.000+09:00","limit_number":4,"address":"渋谷区神南1-20-7 川原ビル４階","place":"Connecting The Dots","lat":35.6618,"lon":139.7,"state":"active","id":null},{"event_id":"34818","title":"aozorahack hackathon 福岡会場 #1","url":"https://aozorahack.connpass.com/event/34818/","shortener_url":null,"started_at":"2016-07-30T10:00:00.000+09:00","ended_at":"2016-07-31T17:00:00.000+09:00","limit_number":50,"address":"福岡県福岡市博多区博多駅中央街8番1号 JRJP博多ビル 12F","place":"LINE Fukuoka","lat":33.589,"lon":130.419,"state":"active","id":null},{"event_id":"35362","title":"第35回（後編） コンピュータビジョン勉強会＠関東","url":"https://kantocv.connpass.com/event/35362/","shortener_url":null,"started_at":"2016-07-24T22:00:00.000+09:00","ended_at":"2016-07-25T03:00:00.000+09:00","limit_number":118,"address":"〒108-0075  東京都港区港南 2-16-3 品川グランドセントラルタワー","place":"日本マイクロソフト　品川本社　31階セミナールーム C+D","lat":35.6267,"lon":139.74,"state":"active","id":null},{"event_id":"35298","title":"Hackerz MTG.Vol_2","url":"https://hackerzlabhkt.connpass.com/event/35298/","shortener_url":null,"started_at":"2016-07-30T20:00:00.000+09:00","ended_at":"2016-07-30T22:00:00.000+09:00","limit_number":80,"address":"福岡県福岡市博多区中洲３-７－２４  ゲイツビル7F","place":"ル・ジャルダン","lat":33.5937,"lon":130.406,"state":"active","id":null},{"event_id":"36138","title":"【渋谷/土曜】【Drink/お菓子付き】初心者歓迎！Git+GitHubの使い方をマスターしよう★","url":"https://morei.connpass.com/event/36138/","shortener_url":null,"started_at":"2016-07-23T14:00:00.000+09:00","ended_at":"2016-07-23T16:00:00.000+09:00","limit_number":3,"address":"渋谷区神南1-20-7 川原ビル４階","place":"Connecting The Dots","lat":35.6618,"lon":139.7,"state":"active","id":null},{"event_id":"36460","title":"【持ち物不要】現役WebエンジニアがSI→Webのキャリアチェンジをぶっちゃける！","url":"https://morei.connpass.com/event/36460/","shortener_url":null,"started_at":"2016-07-23T11:00:00.000+09:00","ended_at":"2016-07-23T12:00:00.000+09:00","limit_number":4,"address":"渋谷区神南1-20-7 川原ビル４階","place":"Connecting The Dots","lat":35.6618,"lon":139.7,"state":"active","id":null},{"event_id":"35119","title":"【土曜/渋谷】【Drink/菓子/講師付き】初心者歓迎!iPhoneアプリ開発をSTART★","url":"https://morei.connpass.com/event/35119/","shortener_url":null,"started_at":"2016-07-23T14:00:00.000+09:00","ended_at":"2016-07-23T16:00:00.000+09:00","limit_number":2,"address":"渋谷区神南1-20-7 川原ビル４階","place":"Connecting The Dots: 「渋谷」","lat":35.6618,"lon":139.7,"state":"active","id":null},{"event_id":"36364","title":"Batería ASUS A32-K93","url":"https://connpass.com/event/36364/","shortener_url":null,"started_at":"2016-07-20T10:00:00.000+09:00","ended_at":"2016-07-20T12:00:00.000+09:00","limit_number":null,"address":"","place":"","lat":null,"lon":null,"state":"active","id":null},{"event_id":"35601","title":"みんなでラズパイコンテストに応募しよう！アイディアソン＋もくもく会 by Xojo","url":"https://xojojp.connpass.com/event/35601/","shortener_url":null,"started_at":"2016-07-31T13:30:00.000+09:00","ended_at":"2016-07-31T18:30:00.000+09:00","limit_number":20,"address":"東京都千代田区神田小川町3-28-9 (三東ビル1F)","place":"TAM COWORKING TOKYO","lat":35.6955,"lon":139.763,"state":"active","id":null},{"event_id":"34158","title":"SENDAI CS JAM #3　〜CSキャリアの極め方〜","url":"https://csjam.connpass.com/event/34158/","shortener_url":null,"started_at":"2016-07-21T19:00:00.000+09:00","ended_at":"2016-07-21T21:30:00.000+09:00","limit_number":25,"address":"宮城県仙台市青葉区本町1-12-12 (GMビルディング 7F)","place":"株式会社メルカリ　仙台オフィス","lat":38.2665,"lon":140.878,"state":"active","id":null},{"event_id":"35118","title":"【Drink/お菓子/講師付き】渋谷でiPhoneアプリを作ってみよう★","url":"https://morei.connpass.com/event/35118/","shortener_url":null,"started_at":"2016-07-16T14:00:00.000+09:00","ended_at":"2016-07-16T16:00:00.000+09:00","limit_number":3,"address":"渋谷区神南1-20-7 川原ビル４階","place":"Connecting The Dots: 「渋谷」","lat":35.6618,"lon":139.7,"state":"active","id":null},{"event_id":"34474","title":"【U-29若手限定】IoTプログラミング1day速習会〜各種センサーを使いこなせるようになるために〜","url":"https://techsalon.connpass.com/event/34474/","shortener_url":null,"started_at":"2016-07-17T19:00:00.000+09:00","ended_at":"2016-07-18T04:00:00.000+09:00","limit_number":90,"address":"東京都新宿区北新宿2-21-1　新宿フロントタワー","place":"ニフティ株式会社","lat":35.6961,"lon":139.689,"state":"active","id":null},{"event_id":"35850","title":"【渋谷】【文系/Windows/初心者歓迎】Drink/お菓子付きでRuby基礎を一気に学ぶ！","url":"https://morei.connpass.com/event/35850/","shortener_url":null,"started_at":"2016-07-16T14:00:00.000+09:00","ended_at":"2016-07-16T16:00:00.000+09:00","limit_number":2,"address":"渋谷区神南1-20-7 川原ビル４階","place":"Connecting The Dots: 「渋谷」","lat":35.6618,"lon":139.7,"state":"active","id":null},{"event_id":"35733","title":"【学生限定】コロプラ 1day Hackathon -GAME-／エンジニア","url":"https://colopl.connpass.com/event/35733/","shortener_url":null,"started_at":"2016-07-24T10:00:00.000+09:00","ended_at":"2016-07-24T19:00:00.000+09:00","limit_number":null,"address":"東京都渋谷区恵比寿4-20-3 （恵比寿ガーデンプレイスタワー11階）","place":"株式会社コロプラ セミナールーム","lat":35.6423,"lon":139.713,"state":"active","id":null},{"event_id":"34943","title":"【学生限定】OthloEvent@Misoca #3","url":"https://othlotech.connpass.com/event/34943/","shortener_url":null,"started_at":"2016-07-16T04:00:00.000+09:00","ended_at":"2016-07-16T06:00:00.000+09:00","limit_number":23,"address":"名古屋市中村区名駅2丁目35番22号(メビウス名古屋ビル2階)","place":"株式会社Misoca セミナールーム","lat":35.1744,"lon":136.882,"state":"active","id":null},{"event_id":"35921","title":"PyCon JP Staff hack-a-thon #5 2016.07.30","url":"https://pyconjp-staff.connpass.com/event/35921/","shortener_url":null,"started_at":"2016-07-30T22:00:00.000+09:00","ended_at":"2016-07-31T03:00:00.000+09:00","limit_number":null,"address":"東京都 墨田区横網１-12-21","place":"両国テラス","lat":35.6984,"lon":139.794,"state":"active","id":null},{"event_id":"33660","title":"人工知能チャットボットハッカソン","url":"https://connpass.com/event/33660/","shortener_url":null,"started_at":"2016-07-09T10:00:00.000+09:00","ended_at":"2016-07-10T19:00:00.000+09:00","limit_number":55,"address":"東京都渋谷区恵比寿4丁目20番3号","place":"恵比寿ガーデンプレイスタワー4階「SPACE6」","lat":35.6423,"lon":139.713,"state":"active","id":null},{"event_id":"34502","title":"【土曜/渋谷】【初心者/非エンジニア歓迎】個別指導型のプログラミング講座でアプリ開発スタート★","url":"https://morei.connpass.com/event/34502/","shortener_url":null,"started_at":"2016-07-09T14:00:00.000+09:00","ended_at":"2016-07-09T16:00:00.000+09:00","limit_number":3,"address":"渋谷区神南1-20-7 川原ビル４階","place":"Connecting The Dots: 「渋谷」","lat":35.6618,"lon":139.7,"state":"active","id":null},{"event_id":"34006","title":"【渋谷/土曜】【初心者/Windows歓迎】コスパ最高!?3000円でRubyの基礎を学ぼう！","url":"https://morei.connpass.com/event/34006/","shortener_url":null,"started_at":"2016-07-09T14:00:00.000+09:00","ended_at":"2016-07-09T16:00:00.000+09:00","limit_number":2,"address":"渋谷区神南1-20-7 川原ビル４階","place":"Connecting The Dots: 「渋谷」","lat":35.6618,"lon":139.7,"state":"active","id":null},{"event_id":"33326","title":"【SE/文系歓迎】【渋谷/土曜】お昼に渋谷でオリジナルiPhoneアプリを作ろう♫","url":"https://morei.connpass.com/event/33326/","shortener_url":null,"started_at":"2016-07-09T14:00:00.000+09:00","ended_at":"2016-07-30T16:00:00.000+09:00","limit_number":4,"address":"渋谷区神南1-20-7 川原ビル４階","place":"Connecting The Dots","lat":35.6618,"lon":139.7,"state":"active","id":null},{"event_id":"34842","title":"7/8(金)19:30 徹底解説！DayDreamとTangoで変わるVRスタートアップシーン","url":"https://svmeetup.connpass.com/event/34842/","shortener_url":null,"started_at":"2016-07-08T19:30:00.000+09:00","ended_at":"2016-07-08T22:00:00.000+09:00","limit_number":73,"address":"東京都渋谷区道玄坂2-10-12 新大宗ビル3号5F","place":"#Hiveshibuya","lat":35.6587,"lon":139.698,"state":"active","id":null},{"event_id":"34792","title":"kintone Café 沖縄 Vol.5 - kintone ハッカソン 2016 - 懇親会","url":"https://connpass.com/event/34792/","shortener_url":null,"started_at":"2016-07-10T03:00:00.000+09:00","ended_at":"2016-07-10T05:00:00.000+09:00","limit_number":30,"address":"宜野湾市真志喜4-2-1","place":"トロピカルビーチ","lat":26.2802,"lon":127.736,"state":"active","id":null},{"event_id":"32182","title":"kintone Café 沖縄 Vol.5 - kintone ハッカソン 2016 -","url":"https://connpass.com/event/32182/","shortener_url":null,"started_at":"2016-07-09T19:00:00.000+09:00","ended_at":"2016-07-11T01:00:00.000+09:00","limit_number":30,"address":"沖縄県宜野湾市宇地泊558-18　宜野湾ベイサイド情報センター","place":"Gwave Incubate(Gwave Cafe 2F)","lat":26.274,"lon":127.729,"state":"active","id":null},{"event_id":"33419","title":"Google Maps API勉強会#3","url":"https://connpass.com/event/33419/","shortener_url":null,"started_at":"2016-07-09T03:00:00.000+09:00","ended_at":"2016-07-09T05:00:00.000+09:00","limit_number":20,"address":"東京都渋谷区渋谷3-6-3","place":"株式会社ゴーガ","lat":35.658,"lon":139.705,"state":"active","id":null},{"event_id":"35166","title":"AITC女子：データ分析勉強会第４回＆交流会","url":"https://aitcjoshi.connpass.com/event/35166/","shortener_url":null,"started_at":"2016-07-16T14:00:00.000+09:00","ended_at":"2016-07-16T18:00:00.000+09:00","limit_number":30,"address":"〒104-6014 東京都中央区晴海 1-8-10 トリトンスクエア タワーX 14F","place":"ウルシステムズ株式会社　会議室","lat":35.6564,"lon":139.782,"state":"active","id":null},{"event_id":"34122","title":"【スイーツ/Drink付き】【無料】初心者歓迎!!本格iPhoneアプリを作ってスキルアップ♡","url":"https://morei.connpass.com/event/34122/","shortener_url":null,"started_at":"2016-07-07T19:00:00.000+09:00","ended_at":"2016-07-07T21:00:00.000+09:00","limit_number":5,"address":"〒169-8333　東京都新宿区北新宿2-21-1　新宿フロントタワー  18F","place":"富士通クラウドテクノロジーズ","lat":35.696,"lon":139.689,"state":"active","id":null},{"event_id":"35285","title":"【持ち物不要】現役WebエンジニアがSI→Webのキャリアチェンジをぶっちゃける！","url":"https://morei.connpass.com/event/35285/","shortener_url":null,"started_at":"2016-07-16T11:00:00.000+09:00","ended_at":"2016-07-16T12:00:00.000+09:00","limit_number":4,"address":"渋谷区神南1-20-7 川原ビル４階","place":"Connecting The Dots","lat":35.6618,"lon":139.7,"state":"active","id":null},{"event_id":"35151","title":"NDS in Niigata #11 日本酒もくもく会！","url":"https://nds-meetup.connpass.com/event/35151/","shortener_url":null,"started_at":"2016-07-09T22:30:00.000+09:00","ended_at":"2016-07-10T01:30:00.000+09:00","limit_number":10,"address":"新潟市中央区東万代町9番1号","place":"東新潟コミュニティセンター","lat":37.9166,"lon":139.062,"state":"active","id":null},{"event_id":"34528","title":"マーハッカソン","url":"https://connpass.com/event/34528/","shortener_url":null,"started_at":"2016-07-09T18:00:00.000+09:00","ended_at":"2016-07-10T03:00:00.000+09:00","limit_number":60,"address":"小平キャンパス 〒187-8577　東京都小平市津田町２－１－１","place":"津田塾大学　小平キャンパス　大学ホール","lat":35.7218,"lon":139.467,"state":"active","id":null},{"event_id":"35041","title":"第六回　真夜中のハッカソン","url":"https://yonakahack.connpass.com/event/35041/","shortener_url":null,"started_at":"2016-07-02T06:00:00.000+09:00","ended_at":"2016-07-02T18:00:00.000+09:00","limit_number":100,"address":"","place":"各自の家","lat":null,"lon":null,"state":"active","id":null},{"event_id":"33447","title":"【土曜/渋谷】【初心者/文系歓迎】コスパ最高!?iPhoneアプリ開発でスキルアップ！","url":"https://morei.connpass.com/event/33447/","shortener_url":null,"started_at":"2016-07-02T10:00:00.000+09:00","ended_at":"2016-07-02T12:00:00.000+09:00","limit_number":4,"address":"渋谷区神南1-20-7 川原ビル４階","place":"Connecting The Dots: 「渋谷」","lat":35.6618,"lon":139.7,"state":"active","id":null},{"event_id":"33503","title":"【渋谷/土曜】【初心者/Windows歓迎】コスパ最高!?3000円でRuby学んでスキルアップ!","url":"https://morei.connpass.com/event/33503/","shortener_url":null,"started_at":"2016-07-02T10:00:00.000+09:00","ended_at":"2016-07-02T12:00:00.000+09:00","limit_number":1,"address":"渋谷区神南1-20-7 川原ビル４階","place":"Connecting The Dots: 「渋谷」","lat":35.6618,"lon":139.7,"state":"active","id":null},{"event_id":"33451","title":"【渋谷/土曜】【Drink/お菓子付き】初心者歓迎！Git+GitHubをマスター★","url":"https://morei.connpass.com/event/33451/","shortener_url":null,"started_at":"2016-07-02T10:00:00.000+09:00","ended_at":"2016-07-02T12:00:00.000+09:00","limit_number":6,"address":"渋谷区神南1-20-7 川原ビル４階","place":"Connecting The Dots","lat":35.6618,"lon":139.7,"state":"active","id":null},{"event_id":"33746","title":"異文化探索ナイト\b","url":"https://thinking-space124.connpass.com/event/33746/","shortener_url":null,"started_at":"2016-07-01T04:00:00.000+09:00","ended_at":"2016-07-01T07:00:00.000+09:00","limit_number":18,"address":"東京都新宿区西新宿2-4-1　新宿ＮＳビル8階","place":"株式会社インタースペース","lat":35.688,"lon":139.694,"state":"active","id":null},{"event_id":"34945","title":"UX JAM 10","url":"https://uxmilk.connpass.com/event/34945/","shortener_url":null,"started_at":"2016-07-13T19:30:00.000+09:00","ended_at":"2016-07-13T22:00:00.000+09:00","limit_number":150,"address":"東京都渋谷区恵比寿4-20-3","place":"株式会社クラウドワークス","lat":35.6423,"lon":139.713,"state":"active","id":null},{"event_id":"34336","title":"PyCon JP \"Meat\" UP in yebisu","url":"https://pyconjp-staff.connpass.com/event/34336/","shortener_url":null,"started_at":"2016-07-03T03:30:00.000+09:00","ended_at":"2016-07-03T05:30:00.000+09:00","limit_number":40,"address":"東京都渋谷区恵比寿西1-7-9 (タイムハウスビルB１)","place":"肉や 恵比寿 まる福","lat":35.6477,"lon":139.709,"state":"active","id":null},{"event_id":"34669","title":"第32回Reactive Design Patterns読書会@西新宿","url":"https://readeffectiveakka.connpass.com/event/34669/","shortener_url":null,"started_at":"2016-07-01T04:00:00.000+09:00","ended_at":"2016-07-01T07:00:00.000+09:00","limit_number":8,"address":"東京都新宿区西新宿8-17-1(住友不動産新宿グランドタワー)","place":"TIS株式会社","lat":35.696,"lon":139.691,"state":"active","id":null},{"event_id":"33540","title":"【割引中】【先着1名】学生/20代限定!日曜/お昼に渋谷で完全マンツーマン！","url":"https://morei.connpass.com/event/33540/","shortener_url":null,"started_at":"2016-07-10T10:00:00.000+09:00","ended_at":"2016-07-31T12:00:00.000+09:00","limit_number":1,"address":"渋谷区神南1-20-7 川原ビル４階","place":"Connecting The Dots","lat":35.6618,"lon":139.7,"state":"active","id":null},{"event_id":"33826","title":"Geeks Who Drink","url":"https://nulab.connpass.com/event/33826/","shortener_url":null,"started_at":"2016-07-09T04:00:00.000+09:00","ended_at":"2016-07-09T06:30:00.000+09:00","limit_number":80,"address":"福岡県福岡市中央区大名1-8-6 (HCC BLD. 7F)","place":"Nulab Cafe Space","lat":33.5866,"lon":130.392,"state":"active","id":null},{"event_id":"33392","title":"【割引中】【初心者歓迎】【4回開催】渋谷/平日の夜にオリジナルアプリを作ってスキルアップ★","url":"https://morei.connpass.com/event/33392/","shortener_url":null,"started_at":"2016-07-05T19:00:00.000+09:00","ended_at":"2016-07-26T21:00:00.000+09:00","limit_number":6,"address":"渋谷区神南1-20-7 川原ビル４階","place":"Connecting The Dots","lat":35.6618,"lon":139.7,"state":"active","id":null},{"event_id":"33632","title":"PyCon JP hack-a-thon #4 2016.07","url":"https://pyconjp-staff.connpass.com/event/33632/","shortener_url":null,"started_at":"2016-07-02T22:00:00.000+09:00","ended_at":"2016-07-03T03:00:00.000+09:00","limit_number":null,"address":"東京都 新宿区 四谷 １-７ 第２鹿倉ビル １F","place":"エル・アルボル","lat":35.6867,"lon":139.728,"state":"active","id":null},{"event_id":"34259","title":"必殺仕事人ハッカソン Webデザイナー編 〜最短最速で最高のデザインを構築するのは誰だ！？〜","url":"https://techsalon.connpass.com/event/34259/","shortener_url":null,"started_at":"2016-07-02T03:30:00.000+09:00","ended_at":"2016-07-02T06:30:00.000+09:00","limit_number":8,"address":"東京都渋谷区道玄坂2-10-7 新大宗ビル1号館 303号室","place":"The Roots","lat":35.6581,"lon":139.697,"state":"active","id":null},{"event_id":"33523","title":"AccSell Meetup 012","url":"https://accsell.connpass.com/event/33523/","shortener_url":null,"started_at":"2016-07-02T23:00:00.000+09:00","ended_at":"2016-07-03T02:00:00.000+09:00","limit_number":null,"address":"東京都中央区晴海1-8-10 晴海アイランド トリトンスクエアオフィスタワーX 37階","place":"株式会社メンバーズ東京本社 ラウンジスペース","lat":35.6564,"lon":139.782,"state":"active","id":null},{"event_id":"80106","title":"第246回オフライン開発ミーティング","url":"https://atnd.org/events/80106","shortener_url":null,"started_at":"2016-07-31T10:00:00.000+09:00","ended_at":"2016-07-31T12:00:00.000+09:00","limit_number":null,"address":"東京都品川区大崎1-11-1","place":"ゲートシティ大崎B1アトリウムフリー座席","lat":35.6194,"lon":139.731,"state":"closed","id":null},{"event_id":"80121","title":"【初心者歓迎】【渋谷/土曜】【Drink/お菓子付き】SwiftでiPhoneアプリ開発をSTART★少人数制で講師がしっかりサポートします！","url":"https://atnd.org/events/80121","shortener_url":null,"started_at":"2016-07-30T14:00:00.000+09:00","ended_at":"2016-07-30T16:00:00.000+09:00","limit_number":2,"address":"渋谷区神南1-20-7 川原ビル4階","place":"Connecting The Dots: 「渋谷」","lat":35.6618,"lon":139.7,"state":"closed","id":null},{"event_id":"80000","title":"【渋谷/土曜】【持ち物不要】【Drink/お菓子付き】【非エンジニア歓迎】超初心者向け!!あなたが学ぶべきプログラミングはこれだ!!","url":"https://atnd.org/events/80000","shortener_url":null,"started_at":"2016-07-30T11:00:00.000+09:00","ended_at":"2016-07-30T12:00:00.000+09:00","limit_number":5,"address":"渋谷区神南1-20-7 川原ビル4階","place":"Connecting The Dots: 「渋谷」","lat":35.6618,"lon":139.7,"state":"closed","id":null},{"event_id":"79372","title":"福島 GameJam 2016 at ビサイド","url":"https://atnd.org/events/79372","shortener_url":null,"started_at":"2016-07-30T09:00:00.000+09:00","ended_at":"2016-07-31T20:00:00.000+09:00","limit_number":20,"address":"東京都立川市曙町1-21-1 ユニゾ立川ビル1F","place":"株式会社ビサイド","lat":35.6997,"lon":139.407,"state":"closed","id":null},{"event_id":"79815","title":"事例でわかる！中国人向け、アメリカ人向けWEBサイトUX設計のコツ","url":"https://atnd.org/events/79815","shortener_url":null,"started_at":"2016-07-28T07:00:00.000+09:00","ended_at":"2016-07-28T20:30:00.000+09:00","limit_number":25,"address":"東京都千代田区神田錦町3‐21","place":"ちよだプラットフォームスクウェア","lat":35.6915,"lon":139.762,"state":"closed","id":null},{"event_id":"79814","title":"Androidの会 秋田支部(JAGA) /情報処理と電子機器の技術研究会 あきた 月例ミーティング(2016.7月)","url":"https://atnd.org/events/79814","shortener_url":null,"started_at":"2016-07-22T18:30:00.000+09:00","ended_at":"2016-07-22T21:00:00.000+09:00","limit_number":20,"address":"秋田県秋田市大町3-5-1 秋田大町ビル","place":"リコーITソリューションズ株式会社 秋田事業所","lat":39.7184,"lon":140.112,"state":"closed","id":null},{"event_id":"78403","title":"7.17(sun) MOMJAM","url":"https://atnd.org/events/78403","shortener_url":null,"started_at":"2016-07-17T12:30:00.000+09:00","ended_at":"2016-07-17T14:30:00.000+09:00","limit_number":null,"address":"東京都渋谷区宇田川町26-3 サンルイビル4階","place":"バグース 渋谷店","lat":35.6599,"lon":139.699,"state":"closed","id":null},{"event_id":"79563","title":"第245回オフライン開発ミーティング","url":"https://atnd.org/events/79563","shortener_url":null,"started_at":"2016-07-17T10:00:00.000+09:00","ended_at":"2016-07-17T12:00:00.000+09:00","limit_number":null,"address":"東京都品川区大崎1-11-1","place":"ゲートシティ大崎B1アトリウムフリー座席","lat":35.6194,"lon":139.731,"state":"closed","id":null},{"event_id":"79352","title":"第244回オフライン開発ミーティング","url":"https://atnd.org/events/79352","shortener_url":null,"started_at":"2016-07-10T10:00:00.000+09:00","ended_at":"2016-07-10T12:00:00.000+09:00","limit_number":null,"address":"東京都品川区大崎1-11-1","place":"ゲートシティ大崎B1アトリウムフリー座席","lat":35.6194,"lon":139.731,"state":"closed","id":null},{"event_id":"79009","title":"第243回オフライン開発ミーティング","url":"https://atnd.org/events/79009","shortener_url":null,"started_at":"2016-07-03T10:00:00.000+09:00","ended_at":"2016-07-03T12:00:00.000+09:00","limit_number":null,"address":"東京都品川区大崎1-11-1","place":"ゲートシティ大崎B1アトリウムフリー座席","lat":35.6194,"lon":139.731,"state":"closed","id":null},{"event_id":"78910","title":"『つくってええやんvol.3～100年後も愛される文具～』","url":"https://atnd.org/events/78910","shortener_url":null,"started_at":"2016-07-03T09:30:00.000+09:00","ended_at":"2016-07-03T11:30:00.000+09:00","limit_number":9,"address":"東京都千代田区神田錦町3−11弦本ビル(旧松岡ビル)2F","place":"Tokyo Producers House","lat":35.6921,"lon":139.76,"state":"closed","id":null},{"event_id":"78668","title":"ヨッピーと2泊3日の温泉ハッカソンへ行こう！～チームメンバー募集～","url":"https://atnd.org/events/78668","shortener_url":null,"started_at":"2016-07-02T11:30:00.000+09:00","ended_at":"2016-07-04T16:00:00.000+09:00","limit_number":null,"address":"埼玉県熊谷市小江川228","place":"ホテルヘリテイジ 四季の湯温泉","lat":36.0939,"lon":139.341,"state":"closed","id":null},{"event_id":"35055","title":"RNN camp","url":"https://connpass.com/event/35055/","shortener_url":null,"started_at":"2016-07-20T19:00:00.000+09:00","ended_at":"2016-07-20T21:00:00.000+09:00","limit_number":50,"address":"〒106-6126 東京都港区六本木 6-10-1(六本木ヒルズ森タワー)","place":"Google東京オフィス","lat":35.6604,"lon":139.729,"state":"active","id":null},{"event_id":"30881","title":"もくもく温泉　開発合宿 #5","url":"https://mokumoku-onsen.connpass.com/event/30881/","shortener_url":null,"started_at":"2016-07-16T15:00:00.000+09:00","ended_at":"2016-07-18T18:30:00.000+09:00","limit_number":13,"address":"新潟県南魚沼市宮１７―４","place":"五十沢温泉ゆもとかん","lat":37.0588,"lon":138.927,"state":"active","id":null},{"event_id":"34829","title":"(第66回)Python mini Hack-a-thon","url":"https://pyhack.connpass.com/event/34829/","shortener_url":null,"started_at":"2016-07-09T11:00:00.000+09:00","ended_at":"2016-07-09T19:00:00.000+09:00","limit_number":20,"address":"渋谷区千駄ヶ谷5-32-7 野村不動産南新宿ビル4F","place":"ビープラウド会議室","lat":35.6864,"lon":139.704,"state":"active","id":null},{"event_id":"32913","title":"dots. 女子部 ( #dotsgirls )さんと夏合宿 in 房総","url":"https://gtuggirls.connpass.com/event/32913/","shortener_url":null,"started_at":"2016-07-23T12:00:00.000+09:00","ended_at":"2016-07-24T19:00:00.000+09:00","limit_number":8,"address":"千葉県富津市金谷3870","place":"南房総金谷のコワーキングスペース「まるも」","lat":35.1665,"lon":139.824,"state":"active","id":null},{"event_id":"34136","title":"SocioInfo＃11　データマイニングしたりする合宿（仮）","url":"https://socioinfo.connpass.com/event/34136/","shortener_url":null,"started_at":"2016-07-30T13:00:00.000+09:00","ended_at":"2016-07-31T11:00:00.000+09:00","limit_number":20,"address":"茨城県行方市宇崎1389","place":"レイクエコー　茨城県鹿行生涯学習センター","lat":36.0221,"lon":140.547,"state":"active","id":null},{"event_id":"34157","title":"サーバー構築ハンズオン －セキュアなプロトコルも使ってみよう－ in 東京 #057","url":"https://svrkcho.connpass.com/event/34157/","shortener_url":null,"started_at":"2016-07-18T12:30:00.000+09:00","ended_at":"2016-07-18T17:30:00.000+09:00","limit_number":8,"address":"東京都渋谷区恵比寿1-18-5 アルカサル恵比寿201","place":"株式会社ウェブコミュニケーションズ","lat":35.6476,"lon":139.714,"state":"active","id":null},{"event_id":"25920","title":"IHANet meeting 15 @沖縄合宿","url":"https://ihanet.connpass.com/event/25920/","shortener_url":null,"started_at":"2016-07-09T13:00:00.000+09:00","ended_at":"2016-07-10T07:00:00.000+09:00","limit_number":18,"address":"宜野湾市真志喜4丁目2番1号","place":"ぎのわん海浜公園 トロピカルビーチ","lat":26.2802,"lon":127.736,"state":"active","id":null},{"event_id":"36101","title":"Skill Exchange LT Vol.0 in Osaka","url":"https://sha.connpass.com/event/36101/","shortener_url":null,"started_at":"2016-07-22T19:00:00.000+09:00","ended_at":"2016-07-22T21:00:00.000+09:00","limit_number":12,"address":"大阪府大阪市北区大深町3−1 グランフロント大阪北館7F","place":"ナレッジサロン","lat":34.7053,"lon":135.495,"state":"active","id":null}]