[{"event_id":"31437","title":"【毎朝渋谷で開催】【大学生・院生限定】大学生プログラミング朝活部 日本最大規模！","url":"https://techsalon.connpass.com/event/31437/","shortener_url":null,"started_at":"2016-05-05T17:00:00.000+09:00","ended_at":"2016-10-27T19:00:00.000+09:00","limit_number":150,"address":"東京都渋谷区道玄坂2-10-7 新大宗ビル1号館 303号室","place":"The Roots","lat":35.6581,"lon":139.697,"state":"active","id":null},{"event_id":"31793","title":"UX JAM 9","url":"https://uxmilk.connpass.com/event/31793/","shortener_url":null,"started_at":"2016-05-25T19:30:00.000+09:00","ended_at":"2016-05-25T22:00:00.000+09:00","limit_number":137,"address":"東京都中央区晴海1-8-10晴海アイランド トリトンスクエアオフィスタワーX 37階","place":"株式会社メンバーズ　ラウンジスペース","lat":35.6597,"lon":139.785,"state":"active","id":null},{"event_id":"30467","title":"teamLab Hack-Day「チームラボ インタラクティブ・プログラミング」","url":"https://teamlab.connpass.com/event/30467/","shortener_url":null,"started_at":"2016-05-28T22:00:00.000+09:00","ended_at":"2016-06-06T06:00:00.000+09:00","limit_number":40,"address":"東京都文京区本郷1-11-6東接本郷ビル6F","place":"チームラボ","lat":35.7043,"lon":139.757,"state":"active","id":null},{"event_id":"32397","title":"【無料】【初心者歓迎】【17/18卒学生】六本木ヒルズでRuby基礎を学んでスキルアップ♪","url":"https://morei.connpass.com/event/32397/","shortener_url":null,"started_at":"2016-05-31T20:00:00.000+09:00","ended_at":"2016-05-31T22:30:00.000+09:00","limit_number":20,"address":"東京都港区六本木六丁目１０番１号六本木ヒルズ森タワー","place":"CROOZ,Inc","lat":35.6641,"lon":139.729,"state":"active","id":null},{"event_id":"30735","title":"超人工生命もくもく会","url":"https://lis.connpass.com/event/30735/","shortener_url":null,"started_at":"2016-05-08T20:00:00.000+09:00","ended_at":"2016-05-09T03:00:00.000+09:00","limit_number":50,"address":"東京都中央区築地１丁目１３−１","place":"ドワンゴセミナールーム（銀座松竹スクエア13F）","lat":35.6683,"lon":139.769,"state":"active","id":null},{"event_id":"32396","title":"【無料】【17/18卒】【初心者/文系歓迎】平日に六本木ヒルズでiPhoneアプリ開発！","url":"https://morei.connpass.com/event/32396/","shortener_url":null,"started_at":"2016-05-31T20:00:00.000+09:00","ended_at":"2016-05-31T22:30:00.000+09:00","limit_number":20,"address":"東京都港区六本木六丁目１０番１号六本木ヒルズ森タワー","place":"CROOZ,Inc","lat":35.6641,"lon":139.729,"state":"active","id":null},{"event_id":"31806","title":"TOKYO CS JAM #1","url":"https://csjam.connpass.com/event/31806/","shortener_url":null,"started_at":"2016-05-19T19:15:00.000+09:00","ended_at":"2016-05-19T21:30:00.000+09:00","limit_number":10,"address":"東京都港区六本木6-10-1（六本木ヒルズ森タワー18F）","place":"株式会社メルカリ","lat":35.6604,"lon":139.729,"state":"active","id":null},{"event_id":"31576","title":"アニメと名古屋をITでハックする「ShangriLa Meetup in Nagoya」","url":"https://akibalab.connpass.com/event/31576/","shortener_url":null,"started_at":"2016-05-28T19:00:00.000+09:00","ended_at":"2016-05-28T20:30:00.000+09:00","limit_number":5,"address":"\t 愛知県名古屋市中村区椿町15-2 名古屋ミタニビル 1F","place":"カフェ・ド・クリエ 名駅西口店","lat":35.1692,"lon":136.881,"state":"active","id":null},{"event_id":"30957","title":"クソサイト開発バトル","url":"https://kusodevbattle.connpass.com/event/30957/","shortener_url":null,"started_at":"2016-05-29T22:00:00.000+09:00","ended_at":"2016-05-30T03:00:00.000+09:00","limit_number":15,"address":"東京都目黒区中央町2-30-2","place":"favorite.lab 様","lat":35.6322,"lon":139.688,"state":"active","id":null},{"event_id":"32864","title":"サマーインターンシップ奪取を賭けたオンラインプログラミングチャレンジ　SPRINT","url":"https://giveryengineersupport.connpass.com/event/32864/","shortener_url":null,"started_at":"2016-05-09T09:00:00.000+09:00","ended_at":"2016-06-04T08:59:00.000+09:00","limit_number":150,"address":"","place":"","lat":null,"lon":null,"state":"active","id":null},{"event_id":"32808","title":"第五回　真夜中のハッカソン","url":"https://yonakahack.connpass.com/event/32808/","shortener_url":null,"started_at":"2016-05-28T06:00:00.000+09:00","ended_at":"2016-05-28T18:00:00.000+09:00","limit_number":100,"address":"","place":"各自の家","lat":null,"lon":null,"state":"active","id":null},{"event_id":"32101","title":"DIST.11 「プロトタイピング」","url":"https://dist.connpass.com/event/32101/","shortener_url":null,"started_at":"2016-05-26T04:00:00.000+09:00","ended_at":"2016-05-26T07:00:00.000+09:00","limit_number":90,"address":"東京都中野区中野4-10-1 (NAKANO CENTRAL PARK EAST 1F)","place":"ICTCO（イクトコ）","lat":35.7074,"lon":139.661,"state":"active","id":null},{"event_id":"32310","title":"【17/18卒】【初心者/文系歓迎】平日に六本木ヒルズのおしゃれオフィスでiPhoneアプリを開発★","url":"https://morei.connpass.com/event/32310/","shortener_url":null,"started_at":"2016-05-24T20:00:00.000+09:00","ended_at":"2016-05-25T01:00:00.000+09:00","limit_number":20,"address":"東京都港区六本木六丁目１０番１号六本木ヒルズ森タワー","place":"CROOZ,Inc","lat":35.6641,"lon":139.729,"state":"active","id":null},{"event_id":"31841","title":"SENDAI CS JAM #1","url":"https://csjam.connpass.com/event/31841/","shortener_url":null,"started_at":"2016-05-26T19:00:00.000+09:00","ended_at":"2016-05-26T21:30:00.000+09:00","limit_number":null,"address":"宮城県仙台市青葉区本町1-12-12 GMビルディング 7F","place":"株式会社メルカリ 仙台オフィス","lat":38.2665,"lon":140.878,"state":"active","id":null},{"event_id":"31177","title":"女性のためのC++コミュニティ Ladies++ meetup #2","url":"https://ladiespp.connpass.com/event/31177/","shortener_url":null,"started_at":"2016-05-21T22:00:00.000+09:00","ended_at":"2016-05-22T02:00:00.000+09:00","limit_number":20,"address":"東京都港区南青山6-5-55 (青山サンライトビル3F)","place":"はてな(東京オフィス)","lat":35.6619,"lon":139.717,"state":"active","id":null},{"event_id":"32363","title":"第29回Reactive Design Patterns読書会@西新宿","url":"https://readeffectiveakka.connpass.com/event/32363/","shortener_url":null,"started_at":"2016-05-27T04:00:00.000+09:00","ended_at":"2016-05-27T07:00:00.000+09:00","limit_number":8,"address":"東京都新宿区西新宿8-17-1(住友不動産新宿グランドタワー)","place":"TIS株式会社","lat":35.696,"lon":139.691,"state":"active","id":null},{"event_id":"31513","title":"世界最大級のグローバルハッカソン Angelhack Tokyo","url":"https://giveryengineersupport.connpass.com/event/31513/","shortener_url":null,"started_at":"2016-05-21T09:00:00.000+09:00","ended_at":"2016-05-22T18:00:00.000+09:00","limit_number":null,"address":"東京都港区南青山2-27-25 (オリックス南青山ビル6F)","place":"株式会社エウレカ","lat":35.6694,"lon":139.717,"state":"active","id":null},{"event_id":"29865","title":"ジンジャエールハッカソン #2.5","url":"https://gingerhack.connpass.com/event/29865/","shortener_url":null,"started_at":"2016-05-14T21:00:00.000+09:00","ended_at":"2016-05-15T05:00:00.000+09:00","limit_number":null,"address":"埼玉県越谷市 レイクタウン8-11-1 レイクタウンオークラビル","place":"halake","lat":35.8761,"lon":139.823,"state":"active","id":null},{"event_id":"31127","title":"「第12回エフェクターミニハッカソン」と「第14回Pure Dataパッチングサークル東京」共同開催","url":"https://effectorhack.connpass.com/event/31127/","shortener_url":null,"started_at":"2016-05-15T22:00:00.000+09:00","ended_at":"2016-05-16T03:00:00.000+09:00","limit_number":45,"address":"東京都渋谷区渋谷1-7-7(住友不動産青山通ビル13階)","place":"CRI・ミドルウェアC会議室","lat":35.6605,"lon":139.706,"state":"active","id":null},{"event_id":"31858","title":"第28回Reactive Design Patterns読書会@西新宿","url":"https://readeffectiveakka.connpass.com/event/31858/","shortener_url":null,"started_at":"2016-05-20T04:00:00.000+09:00","ended_at":"2016-05-20T07:00:00.000+09:00","limit_number":6,"address":"東京都新宿区西新宿8-17-1(住友不動産新宿グランドタワー)","place":"TIS株式会社","lat":35.696,"lon":139.691,"state":"active","id":null},{"event_id":"31456","title":"【大学生限定!! コロプラクエスト《面白いゲームを作れ!》】","url":"https://techsalon.connpass.com/event/31456/","shortener_url":null,"started_at":"2016-05-13T19:00:00.000+09:00","ended_at":"2016-05-25T22:00:00.000+09:00","limit_number":30,"address":"東京都渋谷区恵比寿4-20-3 (恵比寿ガーデンプレイスタワー11階)","place":"株式会社コロプラ本社","lat":35.6423,"lon":139.713,"state":"active","id":null},{"event_id":"31539","title":"AITC女子：第2回 今さら聞けないWebサイト開発＆交流会","url":"https://aitcjoshi.connpass.com/event/31539/","shortener_url":null,"started_at":"2016-05-21T14:00:00.000+09:00","ended_at":"2016-05-21T18:00:00.000+09:00","limit_number":20,"address":"東京都中央区晴海1-8-10","place":"リコーITソリューションズ株式会社 大会議室「Blue Ocean」","lat":35.6564,"lon":139.782,"state":"active","id":null},{"event_id":"30892","title":"アニメと秋葉原をITでハックする「ShangriLa Meetup 第4回」","url":"https://akibalab.connpass.com/event/30892/","shortener_url":null,"started_at":"2016-05-04T17:00:00.000+09:00","ended_at":"2016-05-04T22:00:00.000+09:00","limit_number":45,"address":"東京都千代田区外神田4-7-3 秋葉原虎ビル 2F","place":"トラ(ノ)アナ NOMOO","lat":35.7026,"lon":139.772,"state":"active","id":null},{"event_id":"31377","title":"第四回　真夜中のハッカソン","url":"https://yonakahack.connpass.com/event/31377/","shortener_url":null,"started_at":"2016-05-03T06:00:00.000+09:00","ended_at":"2016-05-03T18:00:00.000+09:00","limit_number":15000,"address":"","place":"各自の家","lat":null,"lon":null,"state":"active","id":null},{"event_id":"31374","title":"PyCon JP メディアチームWeb制作ハッカソン 2016.05","url":"https://pyconjp-staff.connpass.com/event/31374/","shortener_url":null,"started_at":"2016-05-03T22:00:00.000+09:00","ended_at":"2016-05-04T03:00:00.000+09:00","limit_number":null,"address":"東京都渋谷区恵比寿１丁目１９−１５ ウノサワ東急ビル 3階","place":"アライドアーキテクツ","lat":35.6474,"lon":139.713,"state":"active","id":null},{"event_id":"29996","title":"Junction Asia 国際ハッカソン (Produced by Slush Asia)","url":"https://connpass.com/event/29996/","shortener_url":null,"started_at":"2016-05-06T07:00:00.000+09:00","ended_at":"2016-05-08T22:00:00.000+09:00","limit_number":null,"address":"〒140-0002 東京都品川区東品川2-6-10 ","place":"寺田倉庫","lat":35.6209,"lon":139.749,"state":"active","id":null},{"event_id":"30182","title":"メガネハッカソン","url":"https://codeforfukui.connpass.com/event/30182/","shortener_url":null,"started_at":"2016-05-28T19:00:00.000+09:00","ended_at":"2016-05-30T01:00:00.000+09:00","limit_number":120,"address":"福井県鯖江市桜町2丁目7番1号","place":"鯖江市 嚮陽会館 2F 中会議室","lat":35.9477,"lon":136.179,"state":"active","id":null},{"event_id":"30545","title":"カーネル／VMキャンプ #3","url":"https://connpass.com/event/30545/","shortener_url":null,"started_at":"2016-05-02T18:00:00.000+09:00","ended_at":"2016-05-07T05:00:00.000+09:00","limit_number":6,"address":"東京都西多摩郡檜原村人里1839","place":"へんぼり堂","lat":35.7131,"lon":139.088,"state":"active","id":null},{"event_id":"30793","title":"第27回Reactive Design Patterns読書会@西新宿","url":"https://readeffectiveakka.connpass.com/event/30793/","shortener_url":null,"started_at":"2016-05-13T04:00:00.000+09:00","ended_at":"2016-05-13T07:00:00.000+09:00","limit_number":6,"address":"東京都新宿区西新宿8-17-1(住友不動産新宿グランドタワー)","place":"TIS株式会社","lat":35.696,"lon":139.691,"state":"active","id":null},{"event_id":"30615","title":"【学生限定】HACKER WARS～日本一の学生エンジニアを決定するハッカソン･イベント～","url":"https://gfe.connpass.com/event/30615/","shortener_url":null,"started_at":"2016-05-14T10:00:00.000+09:00","ended_at":"2016-05-15T21:00:00.000+09:00","limit_number":60,"address":"東京都港区南青山2-11-17　第一法規本社ビル 2･3F","place":"Goodfindセミナールーム","lat":35.6715,"lon":139.722,"state":"active","id":null},{"event_id":"77954","title":"【平日/六本木】【初心者/文系/Windows歓迎】【17/18卒】【学生向け】コスパ最高!?500円台でRubyの基礎を学ぼう♬講師付きと安心の個別学習★","url":"https://atnd.org/events/77954","shortener_url":null,"started_at":"2016-05-31T20:00:00.000+09:00","ended_at":"2016-05-31T22:30:00.000+09:00","limit_number":10,"address":"東京都港区六本木六丁目10番1号六本木ヒルズ森タワー","place":"CROOZ,Inc","lat":35.6641,"lon":139.729,"state":"closed","id":null},{"event_id":"77953","title":"【平日/六本木】【初心者/文系歓迎】【17/18卒】【学生向け】コスパ最高!?500円でSwiftを使ってiPhoneアプリを作ろう！講師付きと安心の個別学習でサポート★","url":"https://atnd.org/events/77953","shortener_url":null,"started_at":"2016-05-31T20:00:00.000+09:00","ended_at":"2016-05-31T22:30:00.000+09:00","limit_number":10,"address":"東京都港区六本木六丁目10番1号六本木ヒルズ森タワー","place":"CROOZ,Inc","lat":35.6641,"lon":139.729,"state":"closed","id":null},{"event_id":"77903","title":"第238回オフライン開発ミーティング","url":"https://atnd.org/events/77903","shortener_url":null,"started_at":"2016-05-29T10:00:00.000+09:00","ended_at":"2016-05-29T12:00:00.000+09:00","limit_number":null,"address":"東京都品川区大崎1-11-1","place":"ゲートシティ大崎B1アトリウムフリー座席","lat":35.6194,"lon":139.731,"state":"closed","id":null},{"event_id":"77697","title":"第237回オフライン開発ミーティング","url":"https://atnd.org/events/77697","shortener_url":null,"started_at":"2016-05-22T10:00:00.000+09:00","ended_at":"2016-05-22T12:00:00.000+09:00","limit_number":null,"address":"東京都品川区大崎1-11-1","place":"ゲートシティ大崎B1アトリウムフリー座席","lat":35.6194,"lon":139.731,"state":"closed","id":null},{"event_id":"77591","title":"日曜にゲームでも作るか（もくもく会）","url":"https://atnd.org/events/77591","shortener_url":null,"started_at":"2016-05-22T10:00:00.000+09:00","ended_at":"2016-05-22T23:00:00.000+09:00","limit_number":12,"address":"東京都武蔵野市境2-2-18","place":"ぴっくるのコワーキングスペース『ぴこす』","lat":35.7041,"lon":139.544,"state":"closed","id":null},{"event_id":"77526","title":"第236回オフライン開発ミーティング","url":"https://atnd.org/events/77526","shortener_url":null,"started_at":"2016-05-15T10:00:00.000+09:00","ended_at":"2016-05-15T12:00:00.000+09:00","limit_number":null,"address":"東京都品川区大崎1-11-1","place":"ゲートシティ大崎B1アトリウムフリー座席","lat":35.6194,"lon":139.731,"state":"closed","id":null},{"event_id":"77194","title":"学生限定！スタートアップCEOと一緒に考える、これからのインバウンドビジネス！","url":"https://atnd.org/events/77194","shortener_url":null,"started_at":"2016-05-12T19:00:00.000+09:00","ended_at":"2016-05-12T22:00:00.000+09:00","limit_number":50,"address":"東京都渋谷区神宮前6-25-16 いちご神宮前ビル2階","place":"Smartnews株式会社セミナールーム","lat":35.6655,"lon":139.703,"state":"closed","id":null},{"event_id":"77058","title":"diet-hackathon 略して Dyson","url":"https://atnd.org/events/77058","shortener_url":null,"started_at":"2016-05-03T11:00:00.000+09:00","ended_at":"2016-05-05T19:00:00.000+09:00","limit_number":null,"address":"","place":"未定(募集中)","lat":null,"lon":null,"state":"closed","id":null},{"event_id":"30211","title":"(第64回)Python mini Hack-a-thon","url":"https://pyhack.connpass.com/event/30211/","shortener_url":null,"started_at":"2016-05-21T11:00:00.000+09:00","ended_at":"2016-05-21T19:00:00.000+09:00","limit_number":20,"address":"渋谷区千駄ヶ谷5-32-7 野村不動産南新宿ビル4F","place":"ビープラウド会議室","lat":35.6864,"lon":139.704,"state":"active","id":null},{"event_id":"76236","title":"フロコン2016　（お風呂で語ろう　FM-Hokkaido）","url":"https://atnd.org/events/76236","shortener_url":null,"started_at":"2016-05-28T13:00:00.000+09:00","ended_at":"2016-05-29T12:00:00.000+09:00","limit_number":12,"address":"小樽市朝里川温泉2-670","place":"小樽（かんぽの宿）","lat":43.1418,"lon":141.04,"state":"closed","id":null},{"event_id":"76875","title":"ハーバルタロット講座　基礎編（裏磐梯にて）","url":"https://atnd.org/events/76875","shortener_url":null,"started_at":"2016-05-08T14:00:00.000+09:00","ended_at":"2016-05-08T16:00:00.000+09:00","limit_number":6,"address":"福島県耶麻郡北塩原村桧原曽原山","place":"Earth Spiral","lat":37.6901,"lon":140.073,"state":"closed","id":null},{"event_id":"25004388800","title":"#FounderFriday","url":"https://www.eventbrite.com/e/founderfriday-registration-25004388800","shortener_url":null,"started_at":"2016-05-14T01:00:00.000+09:00","ended_at":"2022-09-03T04:30:00.000+09:00","limit_number":null,"address":null,"place":"online","lat":null,"lon":null,"state":"active","id":null}]