[{"event_id":"27646","title":"UX JAM 7","url":"https://uxmilk.connpass.com/event/27646/","shortener_url":null,"started_at":"2016-03-09T10:30:00.000+09:00","ended_at":"2016-03-09T12:30:00.000+09:00","limit_number":113,"address":"東京都渋谷区千駄ヶ谷3−60−5 オー・アール・ディ原宿ビル2階","place":"株式会社トランスリミット","lat":35.6739,"lon":139.705,"state":"active","id":null},{"event_id":"28330","title":"「第11回エフェクタミニハッカソン」と「第13回Pure Dataパッチングサークル東京」共同開催","url":"https://effectorhack.connpass.com/event/28330/","shortener_url":null,"started_at":"2016-03-27T13:00:00.000+09:00","ended_at":"2016-03-27T19:00:00.000+09:00","limit_number":null,"address":"東京都渋谷区渋谷1-7-7(住友不動産青山通ビル13階)","place":"CRI・ミドルウェアC会議室","lat":35.6605,"lon":139.706,"state":"active","id":null},{"event_id":"28576","title":"第23回Reactive Design Patterns読書会@西新宿","url":"https://readeffectiveakka.connpass.com/event/28576/","shortener_url":null,"started_at":"2016-03-31T19:00:00.000+09:00","ended_at":"2016-03-31T22:00:00.000+09:00","limit_number":6,"address":"東京都新宿区西新宿8-17-1(住友不動産新宿グランドタワー)","place":"TIS株式会社","lat":35.696,"lon":139.691,"state":"active","id":null},{"event_id":"28154","title":"第22回Reactive Design Patterns読書会@西新宿","url":"https://readeffectiveakka.connpass.com/event/28154/","shortener_url":null,"started_at":"2016-03-10T19:00:00.000+09:00","ended_at":"2016-03-10T22:00:00.000+09:00","limit_number":6,"address":"東京都新宿区西新宿8-17-1(住友不動産新宿グランドタワー)","place":"TIS株式会社","lat":35.696,"lon":139.691,"state":"active","id":null},{"event_id":"27756","title":"第21回Reactive Design Patterns読書会@西新宿","url":"https://readeffectiveakka.connpass.com/event/27756/","shortener_url":null,"started_at":"2016-03-03T19:00:00.000+09:00","ended_at":"2016-03-03T22:00:00.000+09:00","limit_number":6,"address":"東京都新宿区西新宿8-17-1(住友不動産新宿グランドタワー)","place":"TIS株式会社","lat":35.696,"lon":139.691,"state":"active","id":null},{"event_id":"27044","title":"【本日】【スイーツ付き】女性/初心者向けプログラミング講座でおしゃれなアプリを作っちゃおう♡","url":"https://morei.connpass.com/event/27044/","shortener_url":null,"started_at":"2016-03-23T11:00:00.000+09:00","ended_at":"2016-03-23T13:30:00.000+09:00","limit_number":20,"address":"〒150-6006 東京都 渋谷区 恵比寿 4-20-3 恵比寿ガーデンプレイスタワー 6階","place":"株式会社クラウドワークス","lat":35.6423,"lon":139.713,"state":"active","id":null},{"event_id":"28956","title":"Study Jams プログラム勉強会 #2","url":"https://gdg-tokyo.connpass.com/event/28956/","shortener_url":null,"started_at":"2016-03-29T19:00:00.000+09:00","ended_at":"2016-03-29T21:00:00.000+09:00","limit_number":80,"address":"東京都港区六本木6-10-1六本木ヒルズ","place":"Google 東京オフィス","lat":35.6605,"lon":139.729,"state":"active","id":null},{"event_id":"28953","title":"Study Jams プログラム勉強会 #1","url":"https://gdg-tokyo.connpass.com/event/28953/","shortener_url":null,"started_at":"2016-03-25T19:00:00.000+09:00","ended_at":"2016-03-25T21:00:00.000+09:00","limit_number":80,"address":"東京都港区六本木6-10-1六本木ヒルズ","place":"Google 東京オフィス","lat":35.6605,"lon":139.729,"state":"active","id":null},{"event_id":"29176","title":"HTML+CSS+JSだけで何か作る@渋谷(平日夜)","url":"https://obakaapp.connpass.com/event/29176/","shortener_url":null,"started_at":"2016-03-28T19:30:00.000+09:00","ended_at":"2016-03-28T22:00:00.000+09:00","limit_number":null,"address":"東京都渋谷道玄坂2-10-7 新大宗ビル1号館 2F","place":"BOOK LAB TOKYO","lat":35.6581,"lon":139.697,"state":"active","id":null},{"event_id":"28490","title":"【男子学生枠用】【WindowsもOK】赤坂のおしゃれオフィスでプログラミングを学ぼう！","url":"https://morei.connpass.com/event/28490/","shortener_url":null,"started_at":"2016-03-24T11:00:00.000+09:00","ended_at":"2016-03-24T13:30:00.000+09:00","limit_number":15,"address":"東京都港区赤坂1-12-32　アーク森ビル34階","place":"株式会社アイスタイル","lat":35.6671,"lon":139.74,"state":"active","id":null},{"event_id":"27718","title":"【木曜】【初心者歓迎】赤坂のカフェ風オフィスでおしゃれなiPhoneアプリを作ってスキルアップ！","url":"https://morei.connpass.com/event/27718/","shortener_url":null,"started_at":"2016-03-24T11:00:00.000+09:00","ended_at":"2016-03-24T13:30:00.000+09:00","limit_number":15,"address":"東京都港区赤坂1-12-32　アーク森ビル34階","place":"株式会社アイスタイル","lat":35.6671,"lon":139.74,"state":"active","id":null},{"event_id":"27717","title":"【女子学生枠用】【初心者歓迎】赤坂のカフェ風でオフィスでおしゃれなアプリを作ろう！","url":"https://morei.connpass.com/event/27717/","shortener_url":null,"started_at":"2016-03-24T11:00:00.000+09:00","ended_at":"2016-03-24T13:30:00.000+09:00","limit_number":5,"address":"東京都港区赤坂1-12-32　アーク森ビル34階","place":"株式会社アイスタイル","lat":35.6671,"lon":139.74,"state":"active","id":null},{"event_id":"29007","title":"顔認識を失敗させる技術を失敗させるハッカソン","url":"https://connpass.com/event/29007/","shortener_url":null,"started_at":"2016-03-27T13:00:00.000+09:00","ended_at":"2016-03-27T18:00:00.000+09:00","limit_number":11,"address":"東京都渋谷区千駄ヶ谷５丁目３２−７ (NOF 南 新宿 ビル 4F)","place":"株式会社ビープラウド","lat":35.6864,"lon":139.704,"state":"active","id":null},{"event_id":"28695","title":"【学生向け】〜CTOメンタリングデー〜 上場IT企業のCTOに技術とキャリアの相談！","url":"https://plion-meeting.connpass.com/event/28695/","shortener_url":null,"started_at":"2016-03-24T16:00:00.000+09:00","ended_at":"2016-03-24T18:00:00.000+09:00","limit_number":5,"address":"〒106-6138　東京都港区六本木六丁目１０番１号六本木ヒルズ森タワー","place":"クルーズ株式会社","lat":35.6605,"lon":139.729,"state":"active","id":null},{"event_id":"29056","title":"【無料】ロボットを触ってみよう！サバフェスハンズオン","url":"https://svfes.connpass.com/event/29056/","shortener_url":null,"started_at":"2016-03-22T19:00:00.000+09:00","ended_at":"2016-03-22T20:00:00.000+09:00","limit_number":5,"address":"東京都新宿区四谷4-29","place":"株式会社IDCフロンティア 1F MSS","lat":35.6883,"lon":139.715,"state":"active","id":null},{"event_id":"28069","title":"【20代限定】【デザイナー歓迎】現役エンジニア講師+テキストでGitの使い方を学ぼう♬","url":"https://connpass.com/event/28069/","shortener_url":null,"started_at":"2016-03-27T04:00:00.000+09:00","ended_at":"2016-03-27T07:00:00.000+09:00","limit_number":10,"address":"渋谷区神南1-20-7 川原ビル４階","place":"Connecting The Dots","lat":35.6618,"lon":139.7,"state":"active","id":null},{"event_id":"27765","title":"Android Study Jams \u0026 Machine learning予習会","url":"https://gdg-shinshu.connpass.com/event/27765/","shortener_url":null,"started_at":"2016-03-13T13:10:00.000+09:00","ended_at":"2016-03-13T16:45:00.000+09:00","limit_number":12,"address":"長野県塩尻市大門一番町１２－２","place":"えんぱーく302会議室","lat":36.112,"lon":137.953,"state":"active","id":null},{"event_id":"28524","title":"niconico超コメント生成ハッカソン","url":"https://chokaigi2016-dmv.connpass.com/event/28524/","shortener_url":null,"started_at":"2016-03-21T10:00:00.000+09:00","ended_at":"2016-04-03T21:00:00.000+09:00","limit_number":30,"address":"東京都中央区築地１丁目１３−１ (銀座松竹スクエア)","place":"ドワンゴセミナールーム（銀座松竹スクエア13F）","lat":35.6683,"lon":139.769,"state":"active","id":null},{"event_id":"29010","title":"【子供向け】【少人数制】IT体験ワークショップ　〜電子工作編〜","url":"https://connpass.com/event/29010/","shortener_url":null,"started_at":"2016-03-26T13:30:00.000+09:00","ended_at":"2016-03-26T15:30:00.000+09:00","limit_number":5,"address":"東京都港区新橋6-18-3","place":"AT-GARAGE","lat":35.6617,"lon":139.753,"state":"active","id":null},{"event_id":"28409","title":"【初心者歓迎】【20代社会人限定】同世代でプログラミングをSTART in 東新橋♬","url":"https://connpass.com/event/28409/","shortener_url":null,"started_at":"2016-03-19T04:00:00.000+09:00","ended_at":"2016-03-19T06:30:00.000+09:00","limit_number":3,"address":"東京都港区新橋２丁目１９−３ カシケイビル 2Ｆ","place":"Basis Point","lat":35.6668,"lon":139.76,"state":"active","id":null},{"event_id":"27951","title":"【無料】ESP8266EXがもらえる！サバフェスハンズオン","url":"https://svfes.connpass.com/event/27951/","shortener_url":null,"started_at":"2016-03-18T19:00:00.000+09:00","ended_at":"2016-03-18T21:40:00.000+09:00","limit_number":30,"address":"東京都新宿区四谷4-29　IDCフロンティア　１０F","place":"株式会社IDCフロンティア　カスタマーソリューションセンター","lat":35.6882,"lon":139.715,"state":"active","id":null},{"event_id":"27007","title":"IoT縛りの勉強会\u0010! IoTLT vol.13 @ DeNA","url":"https://iotlt.connpass.com/event/27007/","shortener_url":null,"started_at":"2016-03-16T19:00:00.000+09:00","ended_at":"2016-03-16T21:45:00.000+09:00","limit_number":285,"address":"東京都渋谷区渋谷２丁目２１−１ (渋谷ヒカリエ21F)","place":"株式会社ディー・エヌ・エー (DeNA)","lat":35.659,"lon":139.703,"state":"active","id":null},{"event_id":"25851","title":"【スイーツ付き】【原宿/初心者歓迎】講師+テキストで挫折なしのプログラミング学習をSTARTしよう♡","url":"https://morei.connpass.com/event/25851/","shortener_url":null,"started_at":"2016-03-16T10:30:00.000+09:00","ended_at":"2016-03-16T13:00:00.000+09:00","limit_number":20,"address":"東京都渋谷区神宮前6-27-8 エムズ原宿5F","place":"株式会社ホールハート","lat":35.6667,"lon":139.704,"state":"active","id":null},{"event_id":"28096","title":"【女子学生枠】【無料】代官山のおしゃれオフィスでプログラミング発表会に参加しよう！","url":"https://morei.connpass.com/event/28096/","shortener_url":null,"started_at":"2016-03-10T11:00:00.000+09:00","ended_at":"2016-03-10T13:30:00.000+09:00","limit_number":5,"address":"東京都目黒区上目黒1-1-5　第二育良ビル4階","place":"株式会社アカツキ","lat":35.6467,"lon":139.702,"state":"active","id":null},{"event_id":"28698","title":"【iOS】ソフトウェアシンセサイザーを制作してみる@静岡","url":"https://bios.connpass.com/event/28698/","shortener_url":null,"started_at":"2016-03-27T09:00:00.000+09:00","ended_at":"2016-03-27T12:00:00.000+09:00","limit_number":9,"address":"静岡県静岡市駿河区池田79-4","place":"グランシップ静岡 12F 会議室 舟形1201 ","lat":34.9857,"lon":138.417,"state":"active","id":null},{"event_id":"27989","title":"【初心者歓迎】おしゃれコワーキングスペースでプログラミング(iPhoneアプリ)をスタートしよう★","url":"https://connpass.com/event/27989/","shortener_url":null,"started_at":"2016-03-26T04:00:00.000+09:00","ended_at":"2016-03-26T07:00:00.000+09:00","limit_number":9,"address":"渋谷区神南1-20-7 川原ビル４階","place":"Connecting The Dots","lat":35.6618,"lon":139.7,"state":"active","id":null},{"event_id":"28202","title":"【女子学生枠用】【文系もOK】五反田のおしゃれオフィスでプログラミングを学ぼう！","url":"https://morei.connpass.com/event/28202/","shortener_url":null,"started_at":"2016-03-18T11:00:00.000+09:00","ended_at":"2016-03-18T13:00:00.000+09:00","limit_number":5,"address":"東京都品川区西五反田2丁目30-4　BR五反田ビル7F","place":"株式会社デザインワン・ジャパン","lat":35.6248,"lon":139.72,"state":"active","id":null},{"event_id":"28201","title":"【文系もOK】【初心者歓迎】五反田のおしゃれオフィスでプログラミングを学ぼう！","url":"https://morei.connpass.com/event/28201/","shortener_url":null,"started_at":"2016-03-18T11:00:00.000+09:00","ended_at":"2016-03-18T13:30:00.000+09:00","limit_number":5,"address":"東京都品川区西五反田2丁目30-4　BR五反田ビル7F","place":"株式会社デザインワン・ジャパン","lat":35.6248,"lon":139.72,"state":"active","id":null},{"event_id":"27920","title":"クックパッドｘMESH「未来のクッキングを描くアイデアソン」","url":"https://connpass.com/event/27920/","shortener_url":null,"started_at":"2016-03-21T01:00:00.000+09:00","ended_at":"2016-03-21T09:30:00.000+09:00","limit_number":48,"address":"東京都渋谷区恵比寿4-20-3","place":"クックパッド本社 恵比寿ガーデンプレイスタワー12F","lat":35.6423,"lon":139.713,"state":"active","id":null},{"event_id":"28593","title":"【20代社会人限定】【初心者歓迎】同世代だけでiPhoneアプリを作ってみよう！","url":"https://connpass.com/event/28593/","shortener_url":null,"started_at":"2016-03-12T07:00:00.000+09:00","ended_at":"2016-03-12T10:00:00.000+09:00","limit_number":6,"address":"渋谷区神南1-20-7 川原ビル４階","place":"Connecting The Dots","lat":35.6618,"lon":139.7,"state":"active","id":null},{"event_id":"28611","title":"第三回　真夜中のハッカソン","url":"https://yonakahack.connpass.com/event/28611/","shortener_url":null,"started_at":"2016-03-11T21:00:00.000+09:00","ended_at":"2016-03-12T09:00:00.000+09:00","limit_number":15000,"address":"","place":"各自の家","lat":null,"lon":null,"state":"active","id":null},{"event_id":"28226","title":"【20代社会人限定】【初心者歓迎】同世代だけでiPhoneアプリを作ってみよう！","url":"https://connpass.com/event/28226/","shortener_url":null,"started_at":"2016-03-12T07:00:00.000+09:00","ended_at":"2016-03-12T10:00:00.000+09:00","limit_number":10,"address":"渋谷区神南1-20-7 川原ビル４階","place":"Connecting The Dots","lat":35.6618,"lon":139.7,"state":"active","id":null},{"event_id":"24291","title":"【スイーツ付き！】【初心者歓迎】女性向けプログラミング講座でアプリ開発を満喫しよう♡","url":"https://morei.connpass.com/event/24291/","shortener_url":null,"started_at":"2016-03-09T10:40:00.000+09:00","ended_at":"2016-03-09T13:00:00.000+09:00","limit_number":8,"address":"東京都港区六本木1-6-1 泉ガーデンタワー　32F","place":"ディップ株式会社","lat":35.6646,"lon":139.739,"state":"active","id":null},{"event_id":"27945","title":"ネタサービスハッカソン@渋谷","url":"https://obakaapp.connpass.com/event/27945/","shortener_url":null,"started_at":"2016-03-19T10:00:00.000+09:00","ended_at":"2016-03-19T18:00:00.000+09:00","limit_number":null,"address":"東京都渋谷区宇田川町36-6 ワールド宇田川ビル 6F A号","place":"株式会社ホットスタートアップ","lat":35.6618,"lon":139.697,"state":"active","id":null},{"event_id":"27980","title":"【3/12(土)】【初心者歓迎】おしゃれコワーキングスペースでiPhoneアプリを作ってみよう！","url":"https://connpass.com/event/27980/","shortener_url":null,"started_at":"2016-03-12T07:00:00.000+09:00","ended_at":"2016-03-12T10:00:00.000+09:00","limit_number":10,"address":"渋谷区神南1-20-7 川原ビル４階","place":"Connecting The Dots","lat":35.6618,"lon":139.7,"state":"active","id":null},{"event_id":"26917","title":"【17卒】【無料】五反田のおしゃれオフィスでアプリとプログラミングを学ぶ友達を作ろう！","url":"https://morei.connpass.com/event/26917/","shortener_url":null,"started_at":"2016-03-04T11:00:00.000+09:00","ended_at":"2016-03-25T13:30:00.000+09:00","limit_number":10,"address":"東京都品川区西五反田2丁目30-4　BR五反田ビル7F","place":"株式会社デザインワン・ジャパン","lat":35.6248,"lon":139.72,"state":"active","id":null},{"event_id":"26178","title":"Microservices Casual Talks","url":"https://connpass.com/event/26178/","shortener_url":null,"started_at":"2016-03-14T19:00:00.000+09:00","ended_at":"2016-03-14T21:30:00.000+09:00","limit_number":130,"address":"東京都港区港南2-16-3 (品川グランドセントラルタワー)","place":"日本マイクロソフト株式会社 品川本社","lat":35.6266,"lon":139.741,"state":"active","id":null},{"event_id":"28098","title":"【男子学生枠】【無料】代官山のおしゃれオフィスでプログラミング発表会に参加しよう！","url":"https://morei.connpass.com/event/28098/","shortener_url":null,"started_at":"2016-03-10T11:00:00.000+09:00","ended_at":"2016-03-10T13:30:00.000+09:00","limit_number":10,"address":"東京都目黒区上目黒1-1-5　第二育良ビル4階","place":"株式会社アカツキ","lat":35.6467,"lon":139.702,"state":"active","id":null},{"event_id":"27074","title":"旅行事業に興味があるエンジニア Drink meet up!!","url":"https://travel-dev.connpass.com/event/27074/","shortener_url":null,"started_at":"2016-03-10T10:00:00.000+09:00","ended_at":"2016-03-10T13:00:00.000+09:00","limit_number":50,"address":"東京都目黒区下目黒1丁目8-1　アルコタワー17F","place":"株式会社ドリコム セミナールーム","lat":35.6315,"lon":139.714,"state":"active","id":null},{"event_id":"26918","title":"【17卒】【女子学生】【無料】五反田のおしゃれオフィスでオリジナルアプリ/サービスを作ってみよう！","url":"https://morei.connpass.com/event/26918/","shortener_url":null,"started_at":"2016-03-04T11:00:00.000+09:00","ended_at":"2016-03-25T13:30:00.000+09:00","limit_number":5,"address":"東京都品川区西五反田2丁目30-4　BR五反田ビル7F","place":"株式会社デザインワン・ジャパン","lat":35.6248,"lon":139.72,"state":"active","id":null},{"event_id":"27935","title":"IHANet Hackathon@淡路町 \u0026 peering day #7","url":"https://ihanet.connpass.com/event/27935/","shortener_url":null,"started_at":"2016-03-05T05:00:00.000+09:00","ended_at":"2016-03-05T09:00:00.000+09:00","limit_number":70,"address":"東京都千代田区神田司町2-8-1 (PMO神田司町2F)","place":"(株)セキュアスカイ・テクノロジー 本社会議室 (カフェ・モリナル)","lat":35.6943,"lon":139.768,"state":"active","id":null},{"event_id":"26792","title":"Design Academy 第八回「スペシャリストたちが語る 2016年のSEO／ASO事情」","url":"https://design-academy.connpass.com/event/26792/","shortener_url":null,"started_at":"2016-03-12T16:00:00.000+09:00","ended_at":"2016-03-12T19:00:00.000+09:00","limit_number":50,"address":"東京都渋谷区代々木2丁目2-1 小田急サザンタワー8階","place":"株式会社Donuts","lat":35.6864,"lon":139.7,"state":"active","id":null},{"event_id":"26112","title":"[東京開催] 2016年3月度 DevOps ハッカソン","url":"https://devopsjp.connpass.com/event/26112/","shortener_url":null,"started_at":"2016-03-05T09:00:00.000+09:00","ended_at":"2016-03-06T16:00:00.000+09:00","limit_number":40,"address":"東京都 港区 港南 2-16-3  品川グランドセントラルタワー","place":"日本マイクロソフト株式会社セミナールーム","lat":35.6267,"lon":139.74,"state":"active","id":null},{"event_id":"26803","title":"効率的なMacとiOSの導入と管理","url":"https://toocurate.connpass.com/event/26803/","shortener_url":null,"started_at":"2016-03-18T10:30:00.000+09:00","ended_at":"2016-03-18T15:20:00.000+09:00","limit_number":50,"address":"東京都港区虎ノ門3-4-7 虎ノ門36森ビル3F","place":"The Gallery Too（株式会社Too本社3F）","lat":35.6662,"lon":139.747,"state":"active","id":null},{"event_id":"27252","title":"《VRに興味のある学生限定》３日間でVRコンテンツを作る「VR HACK祭」を京都で開催！","url":"https://connpass.com/event/27252/","shortener_url":null,"started_at":"2016-03-15T09:00:00.000+09:00","ended_at":"2016-03-28T17:00:00.000+09:00","limit_number":30,"address":"京都府京都市下京区中堂寺南町１３４","place":"京都リサーチパーク・バズホール","lat":34.9947,"lon":135.74,"state":"active","id":null},{"event_id":"24267","title":"[札幌開催] DevOps ハッカソン","url":"https://devopsjp.connpass.com/event/24267/","shortener_url":null,"started_at":"2016-03-12T09:00:00.000+09:00","ended_at":"2016-03-13T17:00:00.000+09:00","limit_number":20,"address":" 札幌市中央区北 5 条西 2 丁目 5 (JR タワーオフィスプラザさっぽろ 20階)","place":"日本マイクロソフト株式会社北海道支店","lat":43.0683,"lon":141.352,"state":"active","id":null},{"event_id":"75765","title":"Study JamsでAndroidプログラミング始めてみようよ#3","url":"https://atnd.org/events/75765","shortener_url":null,"started_at":"2016-03-30T07:30:00.000+09:00","ended_at":"2016-03-30T10:00:00.000+09:00","limit_number":10,"address":"東京都台東区浅草橋5-4-5 ハシモトビル401","place":"Akiba code","lat":35.6995,"lon":139.781,"state":"closed","id":null},{"event_id":"76124","title":"第231回オフライン開発ミーティング","url":"https://atnd.org/events/76124","shortener_url":null,"started_at":"2016-03-27T01:00:00.000+09:00","ended_at":"2016-03-27T03:00:00.000+09:00","limit_number":null,"address":"東京都品川区大崎1-11-1","place":"ゲートシティ大崎B1アトリウムフリー座席","lat":35.6194,"lon":139.731,"state":"closed","id":null},{"event_id":"75941","title":"【Swift】【男子学生枠用】【初心者歓迎】赤坂のおしゃれオフィスでプログラミングを学ぼう！","url":"https://atnd.org/events/75941","shortener_url":null,"started_at":"2016-03-24T11:00:00.000+09:00","ended_at":"2016-03-24T13:30:00.000+09:00","limit_number":10,"address":"東京都港区赤坂1-12-32 アーク森ビル34階","place":"株式会社アイスタイル （英文表記：istyle Inc.）","lat":35.6671,"lon":139.74,"state":"closed","id":null},{"event_id":"75938","title":"【Swift】【女子学生枠用】【初心者歓迎】赤坂のおしゃれオフィスでプログラミングを学ぼう！","url":"https://atnd.org/events/75938","shortener_url":null,"started_at":"2016-03-24T11:00:00.000+09:00","ended_at":"2016-03-24T13:30:00.000+09:00","limit_number":10,"address":"東京都港区赤坂1-12-32 アーク森ビル34階","place":"株式会社アイスタイル （英文表記：istyle Inc.）","lat":35.6671,"lon":139.74,"state":"closed","id":null},{"event_id":"75785","title":"Udacityでウェブサイトパフォーマンス最適化を学ぶ#1","url":"https://atnd.org/events/75785","shortener_url":null,"started_at":"2016-03-24T10:00:00.000+09:00","ended_at":"2016-03-24T12:00:00.000+09:00","limit_number":10,"address":"東京都台東区浅草橋5-4-5 ハシモトビル401","place":"AkibaCode ","lat":35.6995,"lon":139.781,"state":"closed","id":null},{"event_id":"75764","title":"Study JamsでAndroidプログラミング始めてみようよ#2","url":"https://atnd.org/events/75764","shortener_url":null,"started_at":"2016-03-23T07:30:00.000+09:00","ended_at":"2016-03-23T10:00:00.000+09:00","limit_number":10,"address":"東京都台東区浅草橋5-4-5 ハシモトビル401","place":"Akiba code","lat":35.6995,"lon":139.781,"state":"closed","id":null},{"event_id":"75518","title":"クックパッドｘMESH「未来のクッキングを描くアイデアソン」","url":"https://atnd.org/events/75518","shortener_url":null,"started_at":"2016-03-21T01:00:00.000+09:00","ended_at":"2016-03-21T09:00:00.000+09:00","limit_number":1,"address":"東京都渋谷区恵比寿4-20-3","place":"クックパッド本社 恵比寿ガーデンプレイスタワー12F","lat":35.6423,"lon":139.713,"state":"closed","id":null},{"event_id":"75411","title":"青空シャッカソン #3 〜青空文庫のハック発表と入力ハッカソン〜","url":"https://atnd.org/events/75411","shortener_url":null,"started_at":"2016-03-21T01:00:00.000+09:00","ended_at":"2016-03-21T08:00:00.000+09:00","limit_number":25,"address":"東京都中央区日本橋2-7-1 東京日本橋タワー 27F(受付:7F)","place":"サイボウズ株式会社 東京オフィス","lat":35.6819,"lon":139.774,"state":"closed","id":null},{"event_id":"75478","title":"全国ゲーム制作部 合同ゲームジャム@関ゲ部","url":"https://atnd.org/events/75478","shortener_url":null,"started_at":"2016-03-20T04:00:00.000+09:00","ended_at":"2016-03-21T11:00:00.000+09:00","limit_number":15,"address":"大阪市北区西天満4丁目11-8-701","place":"Biz Library","lat":34.6975,"lon":135.503,"state":"closed","id":null},{"event_id":"75913","title":"第230回オフライン開発ミーティング","url":"https://atnd.org/events/75913","shortener_url":null,"started_at":"2016-03-20T01:00:00.000+09:00","ended_at":"2016-03-20T03:00:00.000+09:00","limit_number":null,"address":"東京都品川区大崎1-11-1","place":"ゲートシティ大崎B1アトリウムフリー座席","lat":35.6194,"lon":139.731,"state":"closed","id":null},{"event_id":"75746","title":"Study JamsでAndroidプログラミング始めてみようよ#1","url":"https://atnd.org/events/75746","shortener_url":null,"started_at":"2016-03-16T07:30:00.000+09:00","ended_at":"2016-03-16T10:00:00.000+09:00","limit_number":10,"address":"東京都台東区浅草橋5-4-5 ハシモトビル401","place":"Akiba code","lat":35.6995,"lon":139.781,"state":"closed","id":null},{"event_id":"75040","title":"《VRに興味のある学生限定》３日間でVRのコンテンツを作る「VR HACK祭」を京都で開催！ 優勝チームにはOculus Rift CV1をプレゼント！","url":"https://atnd.org/events/75040","shortener_url":null,"started_at":"2016-03-15T00:00:00.000+09:00","ended_at":"2016-03-17T23:59:59.000+09:00","limit_number":30,"address":"京都府京都市下京区中堂寺南町134","place":"京都リサーチパーク・バズホール","lat":34.9947,"lon":135.74,"state":"closed","id":null},{"event_id":"75368","title":"Androidの会 秋田支部(JAGA) 月例ミーティング(2016.3月)","url":"https://atnd.org/events/75368","shortener_url":null,"started_at":"2016-03-11T09:30:00.000+09:00","ended_at":"2016-03-11T12:00:00.000+09:00","limit_number":20,"address":"秋田県秋田市大町3-5-1 秋田大町ビル","place":"リコーITソリューションズ株式会社 秋田事業所","lat":39.7184,"lon":140.112,"state":"closed","id":null},{"event_id":"74150","title":"明治大学総合数理学部：春休みに「マイクロソフトデビュー」\u000bしましょう！（第2回）","url":"https://atnd.org/events/74150","shortener_url":null,"started_at":"2016-03-07T04:00:00.000+09:00","ended_at":"2016-03-07T09:00:00.000+09:00","limit_number":50,"address":"","place":"明治大学中野キャンパス309室","lat":null,"lon":null,"state":"closed","id":null},{"event_id":"75580","title":"第229回オフライン開発ミーティング","url":"https://atnd.org/events/75580","shortener_url":null,"started_at":"2016-03-06T01:00:00.000+09:00","ended_at":"2016-03-06T03:00:00.000+09:00","limit_number":null,"address":"東京都品川区大崎1-11-1","place":"ゲートシティ大崎B1アトリウムフリー座席","lat":35.6194,"lon":139.731,"state":"closed","id":null},{"event_id":"74378","title":"ゲーム関連企業合同就職説明会｜JobJamKyoto2016.3.5","url":"https://atnd.org/events/74378","shortener_url":null,"started_at":"2016-03-05T04:00:00.000+09:00","ended_at":"2016-03-05T08:00:00.000+09:00","limit_number":132,"address":"京都府京都市南区西九条寺ノ前町10-5","place":"京都コンピュータ学院 京都駅前校 4階","lat":34.985,"lon":135.753,"state":"closed","id":null},{"event_id":"74939","title":"立命館大学競技プログラミング合宿2016","url":"https://atnd.org/events/74939","shortener_url":null,"started_at":"2016-03-06T04:00:00.000+09:00","ended_at":"2016-03-08T05:00:00.000+09:00","limit_number":60,"address":"滋賀県草津市野路東1-1-1","place":"コラーニングハウスⅡ606, クリエーションコアCC601","lat":34.9822,"lon":135.965,"state":"closed","id":null},{"event_id":"74278","title":"20160305 FictionJunction Club ライブ後オフ","url":"https://atnd.org/events/74278","shortener_url":null,"started_at":"2016-03-05T12:00:00.000+09:00","ended_at":"2016-03-05T14:00:00.000+09:00","limit_number":50,"address":"東京都中野区中野3-37-10 大谷ビル1F","place":"Kitchen しとれ","lat":35.7051,"lon":139.664,"state":"closed","id":null}]