[{"event_id":"42246","title":"第1回FPGAスタートアップセミナー","url":"https://fpgastartup.connpass.com/event/42246/","shortener_url":null,"started_at":"2016-11-20T05:00:00.000+09:00","ended_at":"2016-11-20T08:30:00.000+09:00","limit_number":85,"address":"〒103-6028 東京都中央区日本橋2-7-1 東京日本橋タワー 27階","place":"サイボウズ東京オフィス","lat":35.6821,"lon":139.774,"state":"active","id":null},{"event_id":"44344","title":"東京で考える地方創生！RESAS API ハッカソン","url":"https://eventdots.connpass.com/event/44344/","shortener_url":null,"started_at":"2016-11-06T00:30:00.000+09:00","ended_at":"2016-11-13T12:30:00.000+09:00","limit_number":70,"address":"〒103-6028東京都中央区日本橋2-7-1 東京日本橋タワー","place":"サイボウズ株式会社　東京オフィス（日本橋）","lat":35.6821,"lon":139.774,"state":"active","id":null},{"event_id":"41670","title":"【ポストVRの未来を切り開く! 】 UnlimitedHandハッカソン","url":"https://unlimitedhand.connpass.com/event/41670/","shortener_url":null,"started_at":"2016-11-18T09:30:00.000+09:00","ended_at":"2016-11-20T09:00:00.000+09:00","limit_number":20,"address":"東京都港区港南1-7-1","place":"ソニー本社1F Creative Lounge","lat":35.6312,"lon":139.744,"state":"active","id":null},{"event_id":"44769","title":"Yahoo! JAPAN MeetUp #5 （Reactハンズオン@名古屋）","url":"https://yj-meetup.connpass.com/event/44769/","shortener_url":null,"started_at":"2016-11-26T13:00:00.000+09:00","ended_at":"2016-11-26T17:00:00.000+09:00","limit_number":30,"address":"愛知県名古屋市西区名駅２丁目27−8（名古屋プライムセントラルタワー）","place":"ヤフー名古屋オフィス","lat":35.176,"lon":136.886,"state":"active","id":null},{"event_id":"44365","title":"TOKYO CS JAM #7 〜コミュニケーションの\"流儀\"を語ろう〜","url":"https://csjam.connpass.com/event/44365/","shortener_url":null,"started_at":"2016-11-17T10:15:00.000+09:00","ended_at":"2016-11-17T12:45:00.000+09:00","limit_number":40,"address":"東京都港区六本木6-10-1（六本木ヒルズ森タワー18F）","place":"株式会社メルカリ","lat":35.6604,"lon":139.729,"state":"active","id":null},{"event_id":"43774","title":"UX MILK Workstyle 01","url":"https://uxmilk.connpass.com/event/43774/","shortener_url":null,"started_at":"2016-11-14T10:30:00.000+09:00","ended_at":"2016-11-14T13:00:00.000+09:00","limit_number":100,"address":"〒150-0043 東京都渋谷区道玄坂2丁目10−7","place":"Book Lab Tokyo","lat":35.6582,"lon":139.697,"state":"active","id":null},{"event_id":"44457","title":"【平日】【無料】【女性向け】初心者歓迎!仕事終わりにスイーツを食べてアプリを作ろう!","url":"https://morei.connpass.com/event/44457/","shortener_url":null,"started_at":"2016-11-17T10:00:00.000+09:00","ended_at":"2016-11-17T12:15:00.000+09:00","limit_number":10,"address":"〒169-8333　東京都新宿区北新宿2-21-1　新宿フロントタワー  18F","place":"富士通クラウドテクノロジーズ","lat":35.696,"lon":139.689,"state":"active","id":null},{"event_id":"44524","title":"Shinjuku.rb #43","url":"https://shinjukurb.connpass.com/event/44524/","shortener_url":null,"started_at":"2016-11-30T19:45:00.000+09:00","ended_at":"2016-11-30T21:30:00.000+09:00","limit_number":25,"address":"東京都新宿区西新宿6-8-1 (住友不動産新宿オークタワー30F)","place":"株式会社メタップス 会議室","lat":35.6939,"lon":139.691,"state":"active","id":null},{"event_id":"42907","title":"DevFest Kansai 2016 Women Techmakers 16:45 - 17:15","url":"https://devfestkansai.connpass.com/event/42907/","shortener_url":null,"started_at":"2016-11-27T16:45:00.000+09:00","ended_at":"2016-11-27T17:15:00.000+09:00","limit_number":19,"address":"大阪市淀川区西中島5-12-12","place":"エムオーテックス新大阪ビル","lat":34.7293,"lon":135.499,"state":"active","id":null},{"event_id":"43449","title":"アーバンデータチャレンジ2016 in石川 Vol.3 ハッカソン 〜 地域の課題を解決しよう〜","url":"https://cfk.connpass.com/event/43449/","shortener_url":null,"started_at":"2016-11-27T01:30:00.000+09:00","ended_at":"2016-11-27T08:00:00.000+09:00","limit_number":null,"address":"金沢市粟崎町4丁目80番地1","place":"金沢市ものづくり会館","lat":36.6285,"lon":136.62,"state":"active","id":null},{"event_id":"43460","title":"VR GameJam in Japan 2016 Autumn 福岡会場","url":"https://connpass.com/event/43460/","shortener_url":null,"started_at":"2016-11-26T01:00:00.000+09:00","ended_at":"2016-11-27T10:00:00.000+09:00","limit_number":15,"address":"福岡県糸島市泊765番地","place":"伊都の湯どころ近くの会議室","lat":33.5858,"lon":130.213,"state":"active","id":null},{"event_id":"44670","title":"【アイデアソン】人工知能で運命の人と出会えるか？","url":"https://connpass.com/event/44670/","shortener_url":null,"started_at":"2016-11-23T04:00:00.000+09:00","ended_at":"2016-11-23T09:30:00.000+09:00","limit_number":38,"address":"東京都港区六本木6−10−1 六本木ヒルズ森タワー","place":"Google本社","lat":35.6641,"lon":139.729,"state":"active","id":null},{"event_id":"45503","title":"VR GameJam in Japan 2016 Autumn in 石川会場","url":"https://kzgame.connpass.com/event/45503/","shortener_url":null,"started_at":"2016-11-26T02:00:00.000+09:00","ended_at":"2016-11-27T14:00:00.000+09:00","limit_number":20,"address":"石川県野々市市扇が丘７−１","place":"金沢工業大学 扇が丘キャンパス 12号館2F アントレプレナーズラボ ","lat":36.531,"lon":136.628,"state":"active","id":null},{"event_id":"44522","title":"ハッカソン・趣味で作ったプロダクトリバイバルLT会","url":"https://bigdatamokumoku.connpass.com/event/44522/","shortener_url":null,"started_at":"2016-11-26T11:00:00.000+09:00","ended_at":"2016-11-26T14:00:00.000+09:00","limit_number":37,"address":"千代田区神田錦町3-11","place":"TOKYO PRODUCERS HOUSE","lat":35.6921,"lon":139.76,"state":"active","id":null},{"event_id":"43969","title":"Code for OSAKA ハッカソンAPI勉強会","url":"https://code4osaka.connpass.com/event/43969/","shortener_url":null,"started_at":"2016-11-19T13:00:00.000+09:00","ended_at":"2016-11-19T17:00:00.000+09:00","limit_number":50,"address":"大阪市北区鶴野町1番5号","place":"関西大学梅田キャンパス KANDAI Me RISE","lat":34.7065,"lon":135.501,"state":"active","id":null},{"event_id":"44617","title":"優勝賞金1000万のLINE BOT AWARDSを目指せ！ハッカソン","url":"https://ichigayageek.connpass.com/event/44617/","shortener_url":null,"started_at":"2016-11-20T09:30:00.000+09:00","ended_at":"2016-11-20T20:00:00.000+09:00","limit_number":70,"address":"東京都渋谷区渋谷2-21-1 (渋谷ヒカリエ 27階)","place":"LINE株式会社 渋谷オフィス","lat":35.659,"lon":139.703,"state":"active","id":null},{"event_id":"41692","title":"Jubatusハッカソン with 読売新聞 #2","url":"https://jubatus.connpass.com/event/41692/","shortener_url":null,"started_at":"2016-11-12T04:00:00.000+09:00","ended_at":"2016-11-13T09:00:00.000+09:00","limit_number":50,"address":" 東京都中央区築地1-13-1 ","place":"株式会社ドワンゴ 銀座松竹スクエア","lat":35.6683,"lon":139.769,"state":"active","id":null},{"event_id":"44057","title":"UX JAM 13","url":"https://uxmilk.connpass.com/event/44057/","shortener_url":null,"started_at":"2016-11-16T10:30:00.000+09:00","ended_at":"2016-11-16T13:00:00.000+09:00","limit_number":130,"address":"〒150-6015 東京都渋谷区恵比寿4-20-3(恵比寿ガーデンプレイスタワー 15階)","place":"スターフェスティバル株式会社","lat":35.647,"lon":139.719,"state":"active","id":null},{"event_id":"43503","title":"PyCon JP 2017 システムチーム MTG#01","url":"https://pyconjp-staff.connpass.com/event/43503/","shortener_url":null,"started_at":"2016-11-17T19:30:00.000+09:00","ended_at":"2016-11-17T21:30:00.000+09:00","limit_number":33,"address":"東京都 新宿区 四谷 １-７ 第２鹿倉ビル １F","place":"エル・アルボル","lat":35.6867,"lon":139.728,"state":"active","id":null},{"event_id":"44727","title":"Sendai Communication All Star会議〜Sendai CS JAM#7〜","url":"https://csjam.connpass.com/event/44727/","shortener_url":null,"started_at":"2016-11-16T10:00:00.000+09:00","ended_at":"2016-11-16T12:30:00.000+09:00","limit_number":5,"address":"宮城県仙台市青葉区本町1-12-12 (GMビルディング 7F)","place":"株式会社メルカリ　仙台オフィス","lat":38.2665,"lon":140.878,"state":"active","id":null},{"event_id":"42182","title":"東京Node学園祭2016 2日目","url":"https://nodejs.connpass.com/event/42182/","shortener_url":null,"started_at":"2016-11-13T09:00:00.000+09:00","ended_at":"2016-11-13T21:00:00.000+09:00","limit_number":400,"address":"東京都渋谷区道玄坂1-12-1 (渋谷マークシティ13F)","place":"CyberAgent セミナールーム","lat":35.658,"lon":139.698,"state":"active","id":null},{"event_id":"44482","title":"第14回エフェクターミニハッカソン","url":"https://effectorhack.connpass.com/event/44482/","shortener_url":null,"started_at":"2016-11-12T13:00:00.000+09:00","ended_at":"2016-11-12T18:00:00.000+09:00","limit_number":25,"address":"東京都渋谷区渋谷1-7-7(住友不動産青山通ビル13階)","place":"CRI・ミドルウェアC会議室","lat":35.6605,"lon":139.706,"state":"active","id":null},{"event_id":"43598","title":"【学生限定】OthloEvent@メ〜テレ #6","url":"https://othlotech.connpass.com/event/43598/","shortener_url":null,"started_at":"2016-11-15T19:00:00.000+09:00","ended_at":"2016-11-15T21:30:00.000+09:00","limit_number":25,"address":"名古屋市中区橘2-10-1","place":"メ～テレ本社","lat":35.1506,"lon":136.903,"state":"active","id":null},{"event_id":"43181","title":"はじめてのハッカソンvol.19  - \u003c提供\u003e音声による感情認識API -","url":"https://hackathon.connpass.com/event/43181/","shortener_url":null,"started_at":"2016-11-13T01:00:00.000+09:00","ended_at":"2016-11-13T10:00:00.000+09:00","limit_number":25,"address":"東京都千代田区四番町6　東急番町ビル 5階","place":"株式会社オプト オプトカフェ(通用口をご利用ください)","lat":35.6892,"lon":139.736,"state":"active","id":null},{"event_id":"38929","title":"ヘルスケア共創サミット in しまね","url":"https://connpass.com/event/38929/","shortener_url":null,"started_at":"2016-11-18T04:30:00.000+09:00","ended_at":"2016-11-19T08:00:00.000+09:00","limit_number":null,"address":"","place":"1日目：松江市総合文化センター　２日目：島根大学松江キャンパス","lat":null,"lon":null,"state":"active","id":null},{"event_id":"42699","title":"FOR CREATORS 〜クリエイターの課外授業〜#デザイナーズハッカソン","url":"https://for-creators.connpass.com/event/42699/","shortener_url":null,"started_at":"2016-11-12T10:50:00.000+09:00","ended_at":"2016-11-12T20:45:00.000+09:00","limit_number":34,"address":"東京都渋谷区渋谷2丁目22-3渋谷東口ビル11F ","place":"ランサーズ株式会社　新しい働き方LAB","lat":35.6586,"lon":139.704,"state":"active","id":null},{"event_id":"44966","title":"NoCTF 問題作ろッカソン","url":"https://noctf.connpass.com/event/44966/","shortener_url":null,"started_at":"2016-11-12T05:00:00.000+09:00","ended_at":"2016-11-12T08:00:00.000+09:00","limit_number":12,"address":"","place":"charakoba-DC","lat":null,"lon":null,"state":"active","id":null},{"event_id":"42108","title":"#DevFest Shikoku 2016 - 道後温泉ハッカソン","url":"https://gdgshikoku.connpass.com/event/42108/","shortener_url":null,"started_at":"2016-11-12T14:00:00.000+09:00","ended_at":"2016-11-13T15:00:00.000+09:00","limit_number":20,"address":"愛媛県松山市道後公園1-30","place":"松山市立 子規記念博物館","lat":33.8497,"lon":132.787,"state":"active","id":null},{"event_id":"41071","title":"Service x Design #3 デザイナーの力を引き出すデザイン組織とは？","url":"https://servicexdesign.connpass.com/event/41071/","shortener_url":null,"started_at":"2016-11-09T19:00:00.000+09:00","ended_at":"2016-11-09T22:00:00.000+09:00","limit_number":120,"address":"株式会社ディー・エヌ・エー サクラカフェ（渋谷ヒカリエ 24F）","place":"東京都渋谷区渋谷2-21-1 渋谷ヒカリエ","lat":35.659,"lon":139.703,"state":"active","id":null},{"event_id":"44581","title":"Sota講習会 【Vstone Magicを始めよう】 Part 3","url":"https://sota.connpass.com/event/44581/","shortener_url":null,"started_at":"2016-11-18T19:00:00.000+09:00","ended_at":"2016-11-18T19:50:00.000+09:00","limit_number":4,"address":"東京都千代田区外神田1-9-9 内田ビル4F","place":"ヴイストン ロボットセンター秋葉原店","lat":35.6987,"lon":139.77,"state":"active","id":null},{"event_id":"44035","title":"GAE/GoでChat botハッカソン","url":"https://gcpug-tokyo.connpass.com/event/44035/","shortener_url":null,"started_at":"2016-11-13T13:00:00.000+09:00","ended_at":"2016-11-13T19:00:00.000+09:00","limit_number":20,"address":"東京都渋谷区神南1-22-3(渋谷住友信託ビル8F)","place":"夢エデュケーション　渋谷セミナールーム","lat":35.6605,"lon":139.701,"state":"active","id":null},{"event_id":"43719","title":"まだ見ぬシェアエコはあるのか！？SHARING ECONOMY IDEATHON","url":"https://rmtl.connpass.com/event/43719/","shortener_url":null,"started_at":"2016-11-19T05:00:00.000+09:00","ended_at":"2016-11-19T10:30:00.000+09:00","limit_number":5,"address":"東京都中央区銀座7-2-6 リクルートアネックス1ビル B1F","place":"MTL cafe","lat":35.6708,"lon":139.761,"state":"active","id":null},{"event_id":"44194","title":"毎週土曜日Arduino もくもく会","url":"https://column.connpass.com/event/44194/","shortener_url":null,"started_at":"2016-11-05T18:00:00.000+09:00","ended_at":"2016-11-05T20:00:00.000+09:00","limit_number":8,"address":"山口県周南市若宮町１丁目２１","place":"コワーキングスペース「カラム」","lat":34.0527,"lon":131.808,"state":"active","id":null},{"event_id":"44075","title":"NSC Training in K-OF","url":"https://nsc.connpass.com/event/44075/","shortener_url":null,"started_at":"2016-11-12T01:00:00.000+09:00","ended_at":"2016-11-12T07:00:00.000+09:00","limit_number":20,"address":"大阪市住之江区南港北2-1-10","place":"ATC","lat":34.6373,"lon":135.413,"state":"active","id":null},{"event_id":"43907","title":"第3回メイドカフェでノマド会＠JAM","url":"https://maid-cafe-nomad.connpass.com/event/43907/","shortener_url":null,"started_at":"2016-11-14T04:00:00.000+09:00","ended_at":"2016-11-14T07:00:00.000+09:00","limit_number":4,"address":"東京都千代田区外神田３丁目２−１３ 山口ビルB1F","place":"JAM Akihabara","lat":35.7004,"lon":139.77,"state":"active","id":null},{"event_id":"43782","title":"【学生限定】HACKER WARS episodeⅣ","url":"https://gfe.connpass.com/event/43782/","shortener_url":null,"started_at":"2016-11-26T01:00:00.000+09:00","ended_at":"2016-11-27T11:00:00.000+09:00","limit_number":50,"address":"東京都港区南青山2-11-17　第一法規本社ビル 2･3F","place":"Goodfindセミナールーム","lat":35.6715,"lon":139.722,"state":"active","id":null},{"event_id":"39819","title":"VR GameJam in Japan 2016 Autumn【広島会場】","url":"https://hsc.connpass.com/event/39819/","shortener_url":null,"started_at":"2016-11-26T00:00:00.000+09:00","ended_at":"2016-11-27T12:00:00.000+09:00","limit_number":25,"address":"広島県東広島市鏡山１丁目４","place":"広島大学 東広島キャンパス 工学部C1棟 おもしろラボ","lat":34.3991,"lon":132.714,"state":"active","id":null},{"event_id":"43498","title":"PyCon JP \"Meat\" UP 2016 Final in Akasakamitsuke","url":"https://pyconjp-staff.connpass.com/event/43498/","shortener_url":null,"started_at":"2016-11-05T18:30:00.000+09:00","ended_at":"2016-11-05T20:30:00.000+09:00","limit_number":35,"address":"港区赤坂 3-20-8","place":"ブッチャーズ八百八 赤坂見附店","lat":35.6763,"lon":139.736,"state":"active","id":null},{"event_id":"42001","title":"PyCon JP hack-a-thon #6 2016.11.05","url":"https://pyconjp-staff.connpass.com/event/42001/","shortener_url":null,"started_at":"2016-11-05T13:00:00.000+09:00","ended_at":"2016-11-05T18:00:00.000+09:00","limit_number":null,"address":"東京都 新宿区 四谷 １-７ 第２鹿倉ビル １F","place":"エル・アルボル","lat":35.6867,"lon":139.728,"state":"active","id":null},{"event_id":"43411","title":"Sota講習会 【Vstone Magicを始めよう】 Part 3","url":"https://sota.connpass.com/event/43411/","shortener_url":null,"started_at":"2016-11-04T19:00:00.000+09:00","ended_at":"2016-11-04T19:50:00.000+09:00","limit_number":4,"address":"東京都千代田区外神田1-9-9 内田ビル4F","place":"ヴイストン ロボットセンター秋葉原店","lat":35.6987,"lon":139.77,"state":"active","id":null},{"event_id":"43336","title":"特許技術を活用したIoTアイディアソン(特許提供:パナソニック社)","url":"https://pas-ta.connpass.com/event/43336/","shortener_url":null,"started_at":"2016-11-19T01:00:00.000+09:00","ended_at":"2016-11-20T10:00:00.000+09:00","limit_number":50,"address":"東京都江東区有明3丁目5番1号","place":"パナソニックセンター東京","lat":35.6329,"lon":139.79,"state":"active","id":null},{"event_id":"43297","title":"みんなでandroid wear アプリ作成　完成１４日前（未経験者歓迎）","url":"https://jagkumamoto.connpass.com/event/43297/","shortener_url":null,"started_at":"2016-11-06T13:00:00.000+09:00","ended_at":"2016-11-06T17:00:00.000+09:00","limit_number":10,"address":"熊本県熊本市中央区大江本町５－１","place":"熊本大学薬学部　　宮本記念館　１階　カンファレンスルーム","lat":32.7945,"lon":130.721,"state":"active","id":null},{"event_id":"43293","title":"なにわPerl鍋（なにわPerl#10）","url":"https://naniwaperl.connpass.com/event/43293/","shortener_url":null,"started_at":"2016-11-02T18:00:00.000+09:00","ended_at":"2016-11-02T20:00:00.000+09:00","limit_number":8,"address":"大阪府大阪市北区大深町3−1 グランフロント大阪 北館7F ","place":"グランフロント大阪ナレッジサロン","lat":34.7053,"lon":135.495,"state":"active","id":null},{"event_id":"43011","title":"東京Node学園祭2016 1日目","url":"https://nodejs.connpass.com/event/43011/","shortener_url":null,"started_at":"2016-11-12T10:00:00.000+09:00","ended_at":"2016-11-12T18:00:00.000+09:00","limit_number":180,"address":"東京都渋谷区宇田川町20-17 (NMF渋谷公園通りビル 8F)","place":"イベント＆コミュニティスペース dots.","lat":35.661,"lon":139.7,"state":"active","id":null},{"event_id":"42490","title":"【学生限定】京町家ハッカソン〜関西一の学生エンジニアを決める〜","url":"https://gfe.connpass.com/event/42490/","shortener_url":null,"started_at":"2016-11-13T01:00:00.000+09:00","ended_at":"2016-11-13T11:00:00.000+09:00","limit_number":25,"address":"京都市上京区福大明神町128","place":"京都リサーチパーク町家スタジオ","lat":35.0255,"lon":135.751,"state":"active","id":null},{"event_id":"42368","title":"【ぼっちソン歓迎】ヒャッカソン熊本#0","url":"https://100kuma.connpass.com/event/42368/","shortener_url":null,"started_at":"2016-11-05T04:00:00.000+09:00","ended_at":"2016-11-05T12:00:00.000+09:00","limit_number":20,"address":"熊本市中央区世安町172","place":"びぷれす","lat":32.7895,"lon":130.69,"state":"active","id":null},{"event_id":"42389","title":"第1回プログラミングもくもく会”Blockchainプログラミング”","url":"https://connpass.com/event/42389/","shortener_url":null,"started_at":"2016-11-14T19:00:00.000+09:00","ended_at":"2016-11-14T21:00:00.000+09:00","limit_number":40,"address":"","place":"渋谷某所","lat":null,"lon":null,"state":"active","id":null},{"event_id":"41676","title":"【Unity + VR】VRゲームジャム事前勉強会【初心者大歓迎】","url":"https://hsc.connpass.com/event/41676/","shortener_url":null,"started_at":"2016-11-03T04:00:00.000+09:00","ended_at":"2016-11-03T09:00:00.000+09:00","limit_number":40,"address":" 広島市中区大手町 1 丁目 5-3‐604","place":"サテライトキャンパスひろしま 604号室","lat":34.3946,"lon":132.455,"state":"active","id":null},{"event_id":"83679","title":"第262回オフライン開発ミーティング","url":"https://atnd.org/events/83679","shortener_url":null,"started_at":"2016-11-27T01:00:00.000+09:00","ended_at":"2016-11-27T03:00:00.000+09:00","limit_number":null,"address":"東京都品川区大崎1-11-1","place":"ゲートシティ大崎B1アトリウムフリー座席","lat":35.6194,"lon":139.731,"state":"closed","id":null},{"event_id":"82872","title":"第３回　UnrealEngine4名古屋Meetup!","url":"https://atnd.org/events/82872","shortener_url":null,"started_at":"2016-11-26T04:00:00.000+09:00","ended_at":"2016-11-26T09:30:00.000+09:00","limit_number":25,"address":"愛知県 名古屋市 愛知県名古屋市中村区名駅四丁目15番地15号 名古屋綜合市場ビル","place":"フィーバー柳橋","lat":35.1697,"lon":136.888,"state":"closed","id":null},{"event_id":"82647","title":"鉄道情報・料金データから新サービスを考案するハッカソン　　　ー  審査員長は及川 卓也氏","url":"https://atnd.org/events/82647","shortener_url":null,"started_at":"2016-11-25T04:00:00.000+09:00","ended_at":"2016-11-25T11:30:00.000+09:00","limit_number":30,"address":"東京都杉並区高円寺北2-3-17","place":"株式会社ヴァル研究所　セミナールーム","lat":35.7061,"lon":139.651,"state":"closed","id":null},{"event_id":"83533","title":"第261回オフライン開発ミーティング","url":"https://atnd.org/events/83533","shortener_url":null,"started_at":"2016-11-20T01:00:00.000+09:00","ended_at":"2016-11-20T03:00:00.000+09:00","limit_number":null,"address":"東京都品川区大崎1-11-1","place":"ゲートシティ大崎B1アトリウムフリー座席","lat":35.6194,"lon":139.731,"state":"closed","id":null},{"event_id":"83284","title":"第260回オフライン開発ミーティング","url":"https://atnd.org/events/83284","shortener_url":null,"started_at":"2016-11-13T01:00:00.000+09:00","ended_at":"2016-11-13T03:00:00.000+09:00","limit_number":null,"address":"東京都品川区大崎1-11-1","place":"ゲートシティ大崎B1アトリウムフリー座席","lat":35.6194,"lon":139.731,"state":"closed","id":null},{"event_id":"82331","title":"「ゲームプランナーの理想と現実」11/12（土）at京都コンピュータ学院【15時15分開始の回】","url":"https://atnd.org/events/82331","shortener_url":null,"started_at":"2016-11-12T06:15:00.000+09:00","ended_at":"2016-11-12T08:00:00.000+09:00","limit_number":35,"address":"京都市南区西九条寺ノ前町10-5","place":"京都コンピュータ学院京都駅前校","lat":34.985,"lon":135.753,"state":"closed","id":null},{"event_id":"82078","title":"「ゲームプランナーの理想と現実」11/12（土）at京都コンピュータ学院【13時開始の回】","url":"https://atnd.org/events/82078","shortener_url":null,"started_at":"2016-11-12T04:00:00.000+09:00","ended_at":"2016-11-12T06:00:00.000+09:00","limit_number":40,"address":"京都市南区西九条寺ノ前町10-5","place":"京都コンピュータ学院京都駅前校","lat":34.985,"lon":135.753,"state":"closed","id":null},{"event_id":"83289","title":"Kleine Rauchmelder versteckte Spion kamera","url":"https://atnd.org/events/83289","shortener_url":null,"started_at":"2016-11-11T00:00:00.000+09:00","ended_at":"2016-11-25T00:30:00.000+09:00","limit_number":100,"address":"","place":"","lat":null,"lon":null,"state":"closed","id":null},{"event_id":"83043","title":"第259回オフライン開発ミーティング","url":"https://atnd.org/events/83043","shortener_url":null,"started_at":"2016-11-06T01:00:00.000+09:00","ended_at":"2016-11-06T03:00:00.000+09:00","limit_number":null,"address":"東京都品川区大崎1-11-1","place":"ゲートシティ大崎B1アトリウムフリー座席","lat":35.6194,"lon":139.731,"state":"closed","id":null},{"event_id":"44590","title":"RNN camp #3（延期になりました）","url":"https://connpass.com/event/44590/","shortener_url":null,"started_at":"2016-11-29T10:00:00.000+09:00","ended_at":"2016-11-29T13:00:00.000+09:00","limit_number":50,"address":"〒106-6126 東京都港区六本木 6-10-1(六本木ヒルズ森タワー)","place":"Google東京オフィス","lat":35.6604,"lon":139.729,"state":"active","id":null},{"event_id":"45140","title":"【秋の大勉強会】プロエンジニア カンファレンス@WEST 2016 【11/26(土)大阪開催】","url":"https://anket.connpass.com/event/45140/","shortener_url":null,"started_at":"2016-11-26T01:00:00.000+09:00","ended_at":"2016-11-26T09:00:00.000+09:00","limit_number":null,"address":"東京都港区高輪2-15-8グレイスビル泉岳寺前2階","place":"株式会社PE-BANK 東京本社","lat":35.6375,"lon":139.739,"state":"active","id":null},{"event_id":"44405","title":"はてな、百度、DeNAを経てシンガポール在住水野貴明氏（Famarry CTO）を迎えるミートアップ","url":"https://connpass.com/event/44405/","shortener_url":null,"started_at":"2016-11-29T10:00:00.000+09:00","ended_at":"2016-11-29T11:30:00.000+09:00","limit_number":null,"address":"東京都港区六本木四丁目2番45号高會堂ビル2階","place":"イーストベンチャーズ六本木","lat":35.6641,"lon":139.729,"state":"active","id":null},{"event_id":"77913","title":"らぶもち♪心とカラダのメンテナンスバケーション（スペイン）","url":"https://atnd.org/events/77913","shortener_url":null,"started_at":"2016-11-07T10:00:00.000+09:00","ended_at":"2016-11-09T23:59:59.000+09:00","limit_number":null,"address":"スペイン マラガ県","place":"HOTEL IPV PALACE \u0026 SPA","lat":36.7211,"lon":-4.42103,"state":"closed","id":null},{"event_id":"28992115197","title":"Virtual Green Drinks","url":"https://www.eventbrite.co.nz/e/virtual-green-drinks-tickets-28992115197","shortener_url":null,"started_at":"2016-11-02T04:30:00.000+09:00","ended_at":"2021-12-01T07:30:00.000+09:00","limit_number":null,"address":null,"place":"online","lat":null,"lon":null,"state":"active","id":null}]