[{"event_id":"39791","title":"2時間で学ぶ React ハンズオン in Osaka","url":"https://sha.connpass.com/event/39791/","shortener_url":null,"started_at":"2016-09-15T19:00:00.000+09:00","ended_at":"2016-09-15T21:00:00.000+09:00","limit_number":46,"address":"大阪府大阪市 北区大深町3番1号 グランフロント大阪 ナレッジキャピタルタワー C7階","place":"大阪イノベーションハブ","lat":34.7043,"lon":135.495,"state":"active","id":null},{"event_id":"38827","title":"オオサカプログラミングカフェ#4","url":"https://osakaprgcafe.connpass.com/event/38827/","shortener_url":null,"started_at":"2016-09-04T19:00:00.000+09:00","ended_at":"2016-09-05T01:00:00.000+09:00","limit_number":8,"address":"大阪市西区北堀江1-18-17 モトバヤシビル","place":"シゴトバBASE","lat":34.6747,"lon":135.495,"state":"active","id":null},{"event_id":"36372","title":"MarkeTechハッカソン2016（主催：マクロミル）","url":"https://macromill-hackathon.connpass.com/event/36372/","shortener_url":null,"started_at":"2016-09-18T10:00:00.000+09:00","ended_at":"2016-09-19T21:00:00.000+09:00","limit_number":70,"address":"東京都港区港南2-16-1 (品川イーストワンタワー 11F)","place":"株式会社マクロミル品川オフィス","lat":35.6279,"lon":139.741,"state":"active","id":null},{"event_id":"33982","title":"Googleベンチャーズの手法に学ぶ。デザインスプリントのワークショップ in Ehime","url":"https://gdgshikoku.connpass.com/event/33982/","shortener_url":null,"started_at":"2016-09-17T21:50:00.000+09:00","ended_at":"2016-09-18T03:00:00.000+09:00","limit_number":40,"address":"愛媛県松山市道後樋又１０−１３+愛媛大学本部","place":"愛媛大学職員会館2階大会議室","lat":33.8526,"lon":132.774,"state":"active","id":null},{"event_id":"37945","title":"ラブライブ！サンシャイン!!の聖地・沼津を盛り上げるアイディアソン","url":"https://akibalab.connpass.com/event/37945/","shortener_url":null,"started_at":"2016-09-11T17:00:00.000+09:00","ended_at":"2016-09-11T20:00:00.000+09:00","limit_number":3,"address":"静岡県沼津市米山町６","place":"沼津商工会議所 ４階会議室D","lat":35.1062,"lon":138.862,"state":"active","id":null},{"event_id":"39949","title":"IoTビジネス共創ラボ　第2回 Pepper WG 勉強会","url":"https://iotbizlabo.connpass.com/event/39949/","shortener_url":null,"started_at":"2016-09-30T10:30:00.000+09:00","ended_at":"2016-09-30T12:30:00.000+09:00","limit_number":75,"address":"東京都港区東新橋1-9-2","place":"汐留住友ビル 14階","lat":35.6623,"lon":139.76,"state":"active","id":null},{"event_id":"37309","title":"VR Tech Tokyo #3 ( 終了しました )","url":"https://vrtokyo.connpass.com/event/37309/","shortener_url":null,"started_at":"2016-09-27T04:00:00.000+09:00","ended_at":"2016-09-27T07:30:00.000+09:00","limit_number":209,"address":"東京都目黒区下目黒1丁目8-1 アルコタワー17F","place":"株式会社ドリコム カフェスペース（アルコタワー17F）","lat":35.6315,"lon":139.714,"state":"active","id":null},{"event_id":"38606","title":"【学生限定】【サイバーエージェント参戦】エンジニア Meet Up in 関西","url":"https://visions-lounge.connpass.com/event/38606/","shortener_url":null,"started_at":"2016-09-28T00:00:00.000+09:00","ended_at":"2016-09-28T02:30:00.000+09:00","limit_number":30,"address":"大阪府大阪市北区芝田1－1－4 阪急ターミナルビル7F","place":"VisionsLOUNGE","lat":34.7043,"lon":135.498,"state":"active","id":null},{"event_id":"38183","title":"【学生LT大会】OthloEvent@名城shake #4","url":"https://othlotech.connpass.com/event/38183/","shortener_url":null,"started_at":"2016-09-25T01:00:00.000+09:00","ended_at":"2016-09-25T03:30:00.000+09:00","limit_number":20,"address":"愛知県名古屋市東区矢田南4-102-9","place":"名城大学 社会連携ゾーン shake","lat":35.1872,"lon":136.944,"state":"active","id":null},{"event_id":"40696","title":"【大学生・院生限定】TECH_SALON AI勉強会  Week3","url":"https://techsalon.connpass.com/event/40696/","shortener_url":null,"started_at":"2016-09-28T04:00:00.000+09:00","ended_at":"2016-09-28T07:00:00.000+09:00","limit_number":25,"address":"東京都目黒区下目黒1丁目8-1　アルコタワー17F","place":"株式会社ドリコム","lat":35.6315,"lon":139.714,"state":"active","id":null},{"event_id":"40695","title":"Unityエディタ拡張勉強会【さらに一歩先を行きたい人のための勉強会】","url":"https://techsalon.connpass.com/event/40695/","shortener_url":null,"started_at":"2016-09-25T22:00:00.000+09:00","ended_at":"2016-09-26T01:00:00.000+09:00","limit_number":20,"address":"東京都目黒区下目黒1丁目8-1　アルコタワー17F","place":"株式会社ドリコム","lat":35.6315,"lon":139.714,"state":"active","id":null},{"event_id":"36912","title":"2016年度豊橋３大学連携まちづくりハッカソン　第２回ハッカソン（最終報告会）","url":"https://connpass.com/event/36912/","shortener_url":null,"started_at":"2016-09-24T10:00:00.000+09:00","ended_at":"2016-09-24T17:00:00.000+09:00","limit_number":null,"address":"愛知県豊橋市町畑町1-1","place":"愛知大学豊橋キャンパス　豊橋キャンパス本館５階","lat":34.7404,"lon":137.387,"state":"active","id":null},{"event_id":"38327","title":"第１５回伊勢IT交流会","url":"https://iseit.connpass.com/event/38327/","shortener_url":null,"started_at":"2016-09-22T22:30:00.000+09:00","ended_at":"2016-09-23T00:30:00.000+09:00","limit_number":15,"address":"三重県伊勢市本町16-2","place":"伊勢市観光協会風餐亭１Ｆ","lat":34.4892,"lon":136.705,"state":"active","id":null},{"event_id":"39339","title":"第2回 特許技術SDK/API勉強会@Co-Edo【9/27開催】","url":"https://pas-ta.connpass.com/event/39339/","shortener_url":null,"started_at":"2016-09-27T19:30:00.000+09:00","ended_at":"2016-09-27T21:30:00.000+09:00","limit_number":null,"address":"東京都 中央区新川 1-3-4 PAビル5F","place":"コワーキングスペース茅場町 Co-Edo（コエド）","lat":35.6786,"lon":139.782,"state":"active","id":null},{"event_id":"40684","title":"【大学生・院生限定】TECH_SALON AI勉強会  Week2","url":"https://techsalon.connpass.com/event/40684/","shortener_url":null,"started_at":"2016-09-24T04:00:00.000+09:00","ended_at":"2016-09-24T07:00:00.000+09:00","limit_number":25,"address":"東京都目黒区下目黒1丁目8-1　アルコタワー17F","place":"株式会社ドリコム","lat":35.6315,"lon":139.714,"state":"active","id":null},{"event_id":"37470","title":"【無料】【お菓子/Drink付き】現役エンジニア講師によるiPhoneアプリ作成講座★","url":"https://connpass.com/event/37470/","shortener_url":null,"started_at":"2016-09-10T14:00:00.000+09:00","ended_at":"2016-09-11T18:00:00.000+09:00","limit_number":6,"address":"〒162-0823 東京都新宿区神楽河岸1-1 (セントラルプラザ)","place":"株式会社カケハシ スカイソリューションズ","lat":35.701,"lon":139.744,"state":"active","id":null},{"event_id":"39697","title":"【大学生・大学院生限定】プロトタイプLT Vol.1","url":"https://techsalon.connpass.com/event/39697/","shortener_url":null,"started_at":"2016-09-26T04:00:00.000+09:00","ended_at":"2016-09-26T07:00:00.000+09:00","limit_number":20,"address":"〒150-0043 東京都渋谷区 道玄坂２丁目１０-１２ 新大宗ビル３号館５３１ 号","place":"HiveShibuya","lat":35.6587,"lon":139.698,"state":"active","id":null},{"event_id":"37480","title":"歌舞伎座.tech#11「Swiftプログラミング勉強会」","url":"https://kbkz.connpass.com/event/37480/","shortener_url":null,"started_at":"2016-09-17T03:30:00.000+09:00","ended_at":"2016-09-17T08:00:00.000+09:00","limit_number":98,"address":"松竹スクエア13F","place":"ドワンゴセミナールーム","lat":35.6683,"lon":139.769,"state":"active","id":null},{"event_id":"38023","title":"アーバンデータチャレンジ2016 in石川 キックオフアイデアソン","url":"https://cfk.connpass.com/event/38023/","shortener_url":null,"started_at":"2016-09-11T13:00:00.000+09:00","ended_at":"2016-09-11T18:00:00.000+09:00","limit_number":40,"address":"石川県金沢市武蔵町14番31号","place":"ITビジネスプラザ武蔵","lat":36.5713,"lon":136.655,"state":"active","id":null},{"event_id":"40190","title":"Sota講習会 【Vstone Magicを始めよう】 Part 3","url":"https://sota.connpass.com/event/40190/","shortener_url":null,"started_at":"2016-09-17T04:00:00.000+09:00","ended_at":"2016-09-17T04:50:00.000+09:00","limit_number":4,"address":"東京都千代田区外神田1-9-9 内田ビル4F","place":"ヴイストン ロボットセンター秋葉原店","lat":35.6987,"lon":139.77,"state":"active","id":null},{"event_id":"40114","title":"なにわPerl鍋（なにわPerl#9）","url":"https://naniwaperl.connpass.com/event/40114/","shortener_url":null,"started_at":"2016-09-22T03:00:00.000+09:00","ended_at":"2016-09-22T05:00:00.000+09:00","limit_number":8,"address":"大阪府大阪市北区大深町3−1 グランフロント大阪 北館7F ","place":"グランフロント大阪ナレッジサロン","lat":34.7053,"lon":135.495,"state":"active","id":null},{"event_id":"40074","title":"みんなでアプリを作ってみよう　アイデアソン（作りたいアプリのアイデアを出し合う）","url":"https://jagkumamoto.connpass.com/event/40074/","shortener_url":null,"started_at":"2016-09-24T13:00:00.000+09:00","ended_at":"2016-09-24T17:00:00.000+09:00","limit_number":20,"address":"熊本県熊本市中央区大江本町５－１","place":"熊本大学薬学部　　宮本記念館　１階　カンファレンスルーム","lat":32.7945,"lon":130.721,"state":"active","id":null},{"event_id":"32361","title":"チームラボオフィスでモノづくりをする1DAYインターンシップ(9/17)","url":"https://teamlab.connpass.com/event/32361/","shortener_url":null,"started_at":"2016-09-17T13:00:00.000+09:00","ended_at":"2016-09-17T18:00:00.000+09:00","limit_number":100,"address":"東京都文京区本郷1-11-6東接本郷ビル6F","place":"チームラボ","lat":35.7043,"lon":139.757,"state":"active","id":null},{"event_id":"39279","title":"仙台カスタマーサポート＠オフ会（SENDAI CS JAM#5）","url":"https://csjam.connpass.com/event/39279/","shortener_url":null,"started_at":"2016-09-14T19:00:00.000+09:00","ended_at":"2016-09-14T21:30:00.000+09:00","limit_number":10,"address":"宮城県仙台市青葉区本町1-12-12 (GMビルディング 7F)","place":"株式会社メルカリ　仙台オフィス","lat":38.2665,"lon":140.878,"state":"active","id":null},{"event_id":"39460","title":"TOKYO CS JAM #5","url":"https://csjam.connpass.com/event/39460/","shortener_url":null,"started_at":"2016-09-13T19:15:00.000+09:00","ended_at":"2016-09-13T21:45:00.000+09:00","limit_number":30,"address":"東京都港区六本木6-10-1（六本木ヒルズ森タワー18F）","place":"株式会社メルカリ","lat":35.6604,"lon":139.729,"state":"active","id":null},{"event_id":"38337","title":"【大学生限定】Elixir \u0026 Phoenix ドワンゴエンジニア登壇！！【ハンズオン】","url":"https://techsalon.connpass.com/event/38337/","shortener_url":null,"started_at":"2016-09-11T22:30:00.000+09:00","ended_at":"2016-09-12T03:00:00.000+09:00","limit_number":30,"address":"東京都中央区銀座4-12-15","place":"株式会社ドワンゴ","lat":35.6697,"lon":139.768,"state":"active","id":null},{"event_id":"37361","title":"ギョッカソン~水産×ITで楽しくハック！~","url":"https://suisan.connpass.com/event/37361/","shortener_url":null,"started_at":"2016-09-10T18:00:00.000+09:00","ended_at":"2016-09-11T04:00:00.000+09:00","limit_number":43,"address":"東京都港区東麻布1-5-3 (パシフィックビル3F)","place":"レンタルキッチンスペースパティア 東麻布","lat":35.6582,"lon":139.743,"state":"active","id":null},{"event_id":"39876","title":"【先着30名様】CodeCamp殺人事件！〜逃走中の犯人を確保せよ〜","url":"https://connpass.com/event/39876/","shortener_url":null,"started_at":"2016-09-17T14:00:00.000+09:00","ended_at":"2016-09-17T18:00:00.000+09:00","limit_number":30,"address":"オンライン","place":"Youtube / Twitter","lat":35.6967,"lon":139.696,"state":"active","id":null},{"event_id":"37818","title":"【学生向け】【懇親会付き】文系歓迎!!渋谷でiPhoneアプリを作ってみよう★","url":"https://morei.connpass.com/event/37818/","shortener_url":null,"started_at":"2016-09-07T19:00:00.000+09:00","ended_at":"2016-09-07T21:00:00.000+09:00","limit_number":20,"address":"〒150-0044 東京都渋谷区円山町19番1号 渋谷プライムプラザ","place":"渋谷プライムプラザ","lat":35.6566,"lon":139.695,"state":"active","id":null},{"event_id":"39619","title":"ふくもく会その20　〜もくもくハンサム〜","url":"https://fukumoku.connpass.com/event/39619/","shortener_url":null,"started_at":"2016-09-17T19:00:00.000+09:00","ended_at":"2016-09-18T03:00:00.000+09:00","limit_number":20,"address":"福井県坂井市丸岡町熊堂3-7-1-16(福井県産業情報センター 7F)","place":"福井県産業情報センター7階コワーキングスペース","lat":36.1099,"lon":136.274,"state":"active","id":null},{"event_id":"38768","title":"第一回OpenToonzハッカソン","url":"https://opentoonz.connpass.com/event/38768/","shortener_url":null,"started_at":"2016-09-11T21:30:00.000+09:00","ended_at":"2016-09-12T02:30:00.000+09:00","limit_number":15,"address":" 東京都中央区銀座4-12-15 ","place":"ドワンゴ 会議室 （歌舞伎座タワー 12F）","lat":35.6697,"lon":139.768,"state":"active","id":null},{"event_id":"38712","title":"OIH オールナイトハッカソン in 勝尾寺","url":"https://sha.connpass.com/event/38712/","shortener_url":null,"started_at":"2016-09-17T12:30:00.000+09:00","ended_at":"2016-09-18T16:00:00.000+09:00","limit_number":50,"address":"〒562-8508 大阪府箕面市勝尾寺","place":"勝尾寺","lat":34.8659,"lon":135.491,"state":"active","id":null},{"event_id":"39453","title":"PyCon JP Staff hack-a-thon #6 2016.09.10","url":"https://pyconjp-staff.connpass.com/event/39453/","shortener_url":null,"started_at":"2016-09-10T22:00:00.000+09:00","ended_at":"2016-09-11T03:00:00.000+09:00","limit_number":null,"address":"東京都 墨田区横網１-12-21","place":"両国テラス","lat":35.6984,"lon":139.794,"state":"active","id":null},{"event_id":"39163","title":"0910「Webサービスを創る（実践スタートアップ）。」講座＆ワークショップ。\u003c新規事業/起業\u003e","url":"https://connpass.com/event/39163/","shortener_url":null,"started_at":"2016-09-10T13:00:00.000+09:00","ended_at":"2016-09-10T19:00:00.000+09:00","limit_number":30,"address":"東京都渋谷区 千駄ヶ谷5-34-7 NEX新宿ビル 6階","place":"NEX新宿ビル 6階","lat":35.6878,"lon":139.703,"state":"active","id":null},{"event_id":"37679","title":"第一弾 GLS ITセミナー「IoT ビジネスの最先端」","url":"https://connpass.com/event/37679/","shortener_url":null,"started_at":"2016-09-10T22:00:00.000+09:00","ended_at":"2016-09-11T00:30:00.000+09:00","limit_number":25,"address":"仙台市青葉区中央一丁目3番1号AER7階","place":"AER7階　アシスタ","lat":38.2585,"lon":140.877,"state":"active","id":null},{"event_id":"37862","title":"DjangoGirlsワークショップ2016 スポンサー募集","url":"https://djangogirls-org.connpass.com/event/37862/","shortener_url":null,"started_at":"2016-09-03T19:00:00.000+09:00","ended_at":"2016-09-04T02:00:00.000+09:00","limit_number":18,"address":"","place":"","lat":null,"lon":null,"state":"active","id":null},{"event_id":"36578","title":"第一回 ゼロワン・ハッカソン","url":"https://01booster.connpass.com/event/36578/","shortener_url":null,"started_at":"2016-09-24T21:30:00.000+09:00","ended_at":"2016-09-26T05:00:00.000+09:00","limit_number":25,"address":"東京都港区東麻布１丁目７－３  第二渡邊ビル7F","place":"01booster 4F","lat":35.6577,"lon":139.744,"state":"active","id":null},{"event_id":"38755","title":"Consciousness Club at DG Lab","url":"https://consciousness-club-dblab.connpass.com/event/38755/","shortener_url":null,"started_at":"2016-09-01T19:00:00.000+09:00","ended_at":"2016-09-01T22:00:00.000+09:00","limit_number":40,"address":"東京都渋谷区恵比寿南3-5-7 (デジタルゲートビル 9階)","place":"株式会社デジタルガレージ","lat":35.6463,"lon":139.704,"state":"active","id":null},{"event_id":"36911","title":"2016年度豊橋３大学連携まちづくりハッカソン　第１回ハッカソン","url":"https://connpass.com/event/36911/","shortener_url":null,"started_at":"2016-09-03T10:00:00.000+09:00","ended_at":"2016-09-03T17:00:00.000+09:00","limit_number":null,"address":"愛知県豊橋市町畑町1-1","place":"愛知大学豊橋キャンパス　豊橋キャンパス本館５階","lat":34.7404,"lon":137.387,"state":"active","id":null},{"event_id":"37805","title":"第4回接着THON","url":"https://monofarm.connpass.com/event/37805/","shortener_url":null,"started_at":"2016-09-10T09:30:00.000+09:00","ended_at":"2016-09-10T12:00:00.000+09:00","limit_number":12,"address":"東京都東大和市中央2丁目827番地27","place":"monofarm-Lab（株式会社ニシカワ内 B1F）","lat":35.7471,"lon":139.429,"state":"active","id":null},{"event_id":"38672","title":"【学生向け】文系も参加OK!無料のプログラミング講座でiPhoneアプリ製作★","url":"https://morei.connpass.com/event/38672/","shortener_url":null,"started_at":"2016-09-08T20:00:00.000+09:00","ended_at":"2016-09-08T22:30:00.000+09:00","limit_number":20,"address":"東京都港区六本木1-6-1 泉ガーデンタワー　32F","place":"ディップ株式会社","lat":35.6646,"lon":139.74,"state":"active","id":null},{"event_id":"38671","title":"【学生向け】文系も参加OK!無料のプログラミング講座でiPhoneアプリ製作★","url":"https://morei.connpass.com/event/38671/","shortener_url":null,"started_at":"2016-09-01T20:00:00.000+09:00","ended_at":"2016-09-01T22:30:00.000+09:00","limit_number":20,"address":"東京都港区六本木1-6-1 泉ガーデンタワー　32F","place":"ディップ株式会社","lat":35.6646,"lon":139.74,"state":"active","id":null},{"event_id":"38632","title":"IoTの第一歩","url":"https://connpass.com/event/38632/","shortener_url":null,"started_at":"2016-09-14T13:00:00.000+09:00","ended_at":"2016-09-14T17:00:00.000+09:00","limit_number":20,"address":"岐阜県大垣市今宿6-52-16","place":"ソフトピアジャパン　ドリーム・コア2F　メッセ","lat":35.3679,"lon":136.637,"state":"active","id":null},{"event_id":"38129","title":"Sota講習会 【Vstone Magicを始めよう】 Part 3","url":"https://sota.connpass.com/event/38129/","shortener_url":null,"started_at":"2016-09-03T03:00:00.000+09:00","ended_at":"2016-09-03T03:50:00.000+09:00","limit_number":4,"address":"東京都千代田区外神田1-9-9 内田ビル4F","place":"ヴイストン ロボットセンター秋葉原店","lat":35.6987,"lon":139.77,"state":"active","id":null},{"event_id":"37781","title":"【女性向け】初心者歓迎!仕事終わりにスイーツを食べてアプリを作ろう!","url":"https://morei.connpass.com/event/37781/","shortener_url":null,"started_at":"2016-09-08T19:00:00.000+09:00","ended_at":"2016-09-08T21:00:00.000+09:00","limit_number":3,"address":"〒169-8333　東京都新宿区北新宿2-21-1　新宿フロントタワー  18F","place":"富士通クラウドテクノロジーズ","lat":35.696,"lon":139.689,"state":"active","id":null},{"event_id":"37413","title":"津島町家ハッカソン","url":"https://tsumugimach.connpass.com/event/37413/","shortener_url":null,"started_at":"2016-09-03T19:00:00.000+09:00","ended_at":"2016-09-04T06:00:00.000+09:00","limit_number":15,"address":"愛知県津島市本町１丁目-25","place":"津島まちや・まちなみ再生機構事務所","lat":35.1793,"lon":136.724,"state":"active","id":null},{"event_id":"37399","title":"【学生日本一を目指せ！】エンジニアリングの力で社会課題を解決せよ‐","url":"https://gfe.connpass.com/event/37399/","shortener_url":null,"started_at":"2016-09-17T10:00:00.000+09:00","ended_at":"2016-09-17T20:00:00.000+09:00","limit_number":null,"address":"東京都渋谷区神宮前5-52-2 青山オーバルビル 13F","place":"Sansan本社（表参道）","lat":35.6628,"lon":139.709,"state":"active","id":null},{"event_id":"35107","title":"【沖縄/土曜】【Windows/初心者歓迎】Ruby/Swiftを基礎から学ぶ(懇親会付き)★","url":"https://morei.connpass.com/event/35107/","shortener_url":null,"started_at":"2016-09-03T14:00:00.000+09:00","ended_at":"2016-09-03T16:00:00.000+09:00","limit_number":17,"address":"〒901-2227 沖縄県宜野湾市宇地泊558-18","place":"宜野湾ベイサイド情報センター　Gwaveオフィス","lat":26.274,"lon":127.729,"state":"active","id":null},{"event_id":"35108","title":"【無料/土曜】【文系/初心者歓迎】SwiftでiPhoneアプリをつくってみよう！","url":"https://morei.connpass.com/event/35108/","shortener_url":null,"started_at":"2016-09-03T14:00:00.000+09:00","ended_at":"2016-09-03T16:00:00.000+09:00","limit_number":15,"address":"〒901-2227 沖縄県宜野湾市宇地泊558-18","place":"宜野湾ベイサイド情報センター　Gwaveオフィス","lat":26.274,"lon":127.729,"state":"active","id":null},{"event_id":"35937","title":"インターンネット２０１６","url":"https://connpass.com/event/35937/","shortener_url":null,"started_at":"2016-09-13T19:00:00.000+09:00","ended_at":"2016-09-15T03:00:00.000+09:00","limit_number":null,"address":"東京都港区六本木6-9-1","place":"テレビ朝日本社","lat":35.6596,"lon":139.731,"state":"active","id":null},{"event_id":"81119","title":"第2回 特許技術SDK/API勉強会@Co-Edo","url":"https://atnd.org/events/81119","shortener_url":null,"started_at":"2016-09-27T19:30:00.000+09:00","ended_at":"2016-09-27T21:30:00.000+09:00","limit_number":15,"address":"東京都 中央区新川 1-3-4 PAビル5F","place":" コワーキングスペース茅場町 Co-Edo（コエド）","lat":35.6786,"lon":139.782,"state":"closed","id":null},{"event_id":"81757","title":"第253回オフライン開発ミーティング","url":"https://atnd.org/events/81757","shortener_url":null,"started_at":"2016-09-25T10:00:00.000+09:00","ended_at":"2016-09-25T12:00:00.000+09:00","limit_number":null,"address":"東京都品川区大崎1-11-1","place":"ゲートシティ大崎B1アトリウムフリー座席","lat":35.6194,"lon":139.731,"state":"closed","id":null},{"event_id":"81384","title":"みんなでアプリを作ってみよう　アイデアソン（作りたいアプリのアイデアを出し合う）","url":"https://atnd.org/events/81384","shortener_url":null,"started_at":"2016-09-24T13:00:00.000+09:00","ended_at":"2016-09-24T19:00:00.000+09:00","limit_number":20,"address":"熊本県熊本市中央区大江本町5-1","place":"熊本大学薬学部　宮本記念館　１階　カンファレンスルーム","lat":32.7945,"lon":130.721,"state":"closed","id":null},{"event_id":"81479","title":"第252回オフライン開発ミーティング","url":"https://atnd.org/events/81479","shortener_url":null,"started_at":"2016-09-18T10:00:00.000+09:00","ended_at":"2016-09-18T12:00:00.000+09:00","limit_number":null,"address":"東京都品川区大崎1-11-1","place":"ゲートシティ大崎B1アトリウムフリー座席","lat":35.6194,"lon":139.731,"state":"closed","id":null},{"event_id":"80837","title":"IoTの第一歩 次世代2次元カラーバーコード カメレオンコード ハンズオン＋","url":"https://atnd.org/events/80837","shortener_url":null,"started_at":"2016-09-14T13:00:00.000+09:00","ended_at":"2016-09-14T17:00:00.000+09:00","limit_number":20,"address":"岐阜県大垣市今宿6-52-16","place":"ドリーム・コア2F メッセ","lat":35.3679,"lon":136.637,"state":"closed","id":null},{"event_id":"80089","title":"＜増席しました！＞Photon勉強会【Photon Server Deep Dive - PhotonWireの実装から見つめるPhoton Serverの基礎と応用、ほか】","url":"https://atnd.org/events/80089","shortener_url":null,"started_at":"2016-09-13T19:00:00.000+09:00","ended_at":"2016-09-13T21:30:00.000+09:00","limit_number":120,"address":"東京都渋谷区桜丘町26-1","place":"GMO Yours（セルリアンタワー11F）","lat":35.6565,"lon":139.699,"state":"closed","id":null},{"event_id":"81466","title":"ある国はにwifi ジャマーの使用を合法化する","url":"https://atnd.org/events/81466","shortener_url":null,"started_at":"2016-09-13T13:00:00.000+09:00","ended_at":"2016-09-13T16:00:00.000+09:00","limit_number":10,"address":"東京都","place":"ダラントー26F","lat":35.6895,"lon":139.692,"state":"closed","id":null},{"event_id":"81340","title":"第251回オフライン開発ミーティング","url":"https://atnd.org/events/81340","shortener_url":null,"started_at":"2016-09-11T10:00:00.000+09:00","ended_at":"2016-09-11T12:00:00.000+09:00","limit_number":null,"address":"東京都品川区大崎1-11-1","place":"ゲートシティ大崎B1アトリウムフリー座席","lat":35.6194,"lon":139.731,"state":"closed","id":null},{"event_id":"80388","title":"【学生向け】【文系/初心者歓迎】Swiftを学ぼう★iPhoneオリジナルアプリ制作講座♫","url":"https://atnd.org/events/80388","shortener_url":null,"started_at":"2016-09-10T14:00:00.000+09:00","ended_at":"2016-09-17T18:00:00.000+09:00","limit_number":10,"address":"162-0823 東京都新宿区神楽河岸1-1 セントラルプラザ7F","place":"株式会社カケハシ スカイソリューションズ","lat":35.7009,"lon":139.744,"state":"closed","id":null},{"event_id":"81149","title":"アーバンデータチャレンジ ｢アプリのアイデア大会 公共交通編」","url":"https://atnd.org/events/81149","shortener_url":null,"started_at":"2016-09-10T09:45:00.000+09:00","ended_at":"2016-09-10T17:30:00.000+09:00","limit_number":30,"address":"富山県高岡市末広町1-7","place":"ウィング・ウィング高岡6Fキッチンサロン","lat":36.7424,"lon":137.015,"state":"closed","id":null},{"event_id":"81087","title":"浜のハッカソン#1","url":"https://atnd.org/events/81087","shortener_url":null,"started_at":"2016-09-09T19:00:00.000+09:00","ended_at":"2016-09-09T21:00:00.000+09:00","limit_number":10,"address":"神奈川県横浜市西区高島一丁目1番1号","place":"日産自動車グローバル本社","lat":35.463,"lon":139.626,"state":"closed","id":null},{"event_id":"81313","title":"Lampen videokamera versteckte Kamera","url":"https://atnd.org/events/81313","shortener_url":null,"started_at":"2016-09-08T09:00:00.000+09:00","ended_at":"2016-09-30T22:00:00.000+09:00","limit_number":null,"address":"","place":"","lat":null,"lon":null,"state":"closed","id":null},{"event_id":"81055","title":"第250回オフライン開発ミーティング","url":"https://atnd.org/events/81055","shortener_url":null,"started_at":"2016-09-04T10:00:00.000+09:00","ended_at":"2016-09-04T12:00:00.000+09:00","limit_number":null,"address":"東京都品川区大崎1-11-1","place":"ゲートシティ大崎B1アトリウムフリー座席","lat":35.6194,"lon":139.731,"state":"closed","id":null},{"event_id":"80199","title":"【沖縄/土曜】【Windows/初心者歓迎】Ruby/Swiftを基礎から学ぶ(懇親会付き)★","url":"https://atnd.org/events/80199","shortener_url":null,"started_at":"2016-09-03T14:00:00.000+09:00","ended_at":"2016-09-03T16:00:00.000+09:00","limit_number":5,"address":"〒901-2227 沖縄県宜野湾市宇地泊558-18","place":"宜野湾ベイサイド情報センター　Gwaveオフィス","lat":26.274,"lon":127.729,"state":"closed","id":null},{"event_id":"37205","title":"RNN camp #2","url":"https://connpass.com/event/37205/","shortener_url":null,"started_at":"2016-09-07T19:00:00.000+09:00","ended_at":"2016-09-07T22:00:00.000+09:00","limit_number":50,"address":"〒106-6126 東京都港区六本木 6-10-1(六本木ヒルズ森タワー)","place":"Google東京オフィス","lat":35.6604,"lon":139.729,"state":"active","id":null},{"event_id":"37274","title":"サーバー構築ハンズオン －セキュアなプロトコルも使ってみよう－ in 東京 #059","url":"https://svrkcho.connpass.com/event/37274/","shortener_url":null,"started_at":"2016-09-24T12:30:00.000+09:00","ended_at":"2016-09-24T18:00:00.000+09:00","limit_number":7,"address":"東京都渋谷区恵比寿1-18-5 アルカサル恵比寿201","place":"株式会社ウェブコミュニケーションズ","lat":35.6476,"lon":139.714,"state":"active","id":null},{"event_id":"29999","title":"Python mini hack-a-thon 夏山合宿 2016","url":"https://pyhack.connpass.com/event/29999/","shortener_url":null,"started_at":"2016-09-02T13:00:00.000+09:00","ended_at":"2016-09-04T14:00:00.000+09:00","limit_number":27,"address":"長野県須坂市大字仁礼峰の原高原3153-720","place":"ペンション マウンテンパパ","lat":36.5531,"lon":138.35,"state":"active","id":null},{"event_id":"81598","title":"2016年9月 COURRiER Japon DE 朝食会＠神戸","url":"https://atnd.org/events/81598","shortener_url":null,"started_at":"2016-09-22T09:30:00.000+09:00","ended_at":"2016-09-22T11:30:00.000+09:00","limit_number":12,"address":"兵庫県神戸市中央区北長狭通1-1-1","place":"タリーズコーヒー 阪急三宮サンキタ通り","lat":34.6925,"lon":135.191,"state":"closed","id":null},{"event_id":"79743","title":"会津大学競技プログラミング合宿2016","url":"https://atnd.org/events/79743","shortener_url":null,"started_at":"2016-09-17T13:00:00.000+09:00","ended_at":"2016-09-19T15:00:00.000+09:00","limit_number":50,"address":"","place":"会津大学","lat":null,"lon":null,"state":"closed","id":null},{"event_id":"81237","title":"第27回 Drupal さっぽろ Meetup（Drupal 勉強会＠おたる）","url":"https://atnd.org/events/81237","shortener_url":null,"started_at":"2016-09-10T13:30:00.000+09:00","ended_at":"2016-09-10T17:00:00.000+09:00","limit_number":20,"address":"小樽市色内2丁目13番5号","place":"小樽市民センター 5号室","lat":43.1997,"lon":140.998,"state":"closed","id":null},{"event_id":"78761","title":"競プロ部 BBQ合宿 2016","url":"https://atnd.org/events/78761","shortener_url":null,"started_at":"2016-09-09T14:00:00.000+09:00","ended_at":"2016-09-10T12:00:00.000+09:00","limit_number":7,"address":"山梨県南都留郡富士河口湖町河口2092","place":"河口湖カントリーコテージBan","lat":35.5316,"lon":138.764,"state":"closed","id":null},{"event_id":"81009","title":"ProcessingからJavaの道に踏み込む講座 [総コン夏合宿スペシャル]","url":"https://atnd.org/events/81009","shortener_url":null,"started_at":"2016-09-04T20:00:00.000+09:00","ended_at":"2016-09-04T21:30:00.000+09:00","limit_number":null,"address":"長野県上田市 菅平高原字菅平1278番292","place":"明治大学 菅平セミナーハウス","lat":36.5291,"lon":138.338,"state":"closed","id":null},{"event_id":"81008","title":"コマンドを使わないGitHub講座 [総コン夏合宿スペシャル]","url":"https://atnd.org/events/81008","shortener_url":null,"started_at":"2016-09-04T13:30:00.000+09:00","ended_at":"2016-09-04T15:00:00.000+09:00","limit_number":null,"address":"長野県上田市 菅平高原字菅平1278番292","place":"明治大学 菅平セミナーハウス","lat":36.5291,"lon":138.338,"state":"closed","id":null},{"event_id":"27689550190","title":"Sabio Online Info Session","url":"https://www.eventbrite.com/e/sabio-online-info-session-tickets-27689550190","shortener_url":null,"started_at":"2016-09-15T10:00:00.000+09:00","ended_at":"2022-12-20T10:00:00.000+09:00","limit_number":null,"address":null,"place":"online","lat":null,"lon":null,"state":"active","id":null}]