[{"event_id":"27278","title":"Hack U 東京工業大学 2016（事前説明会）","url":"https://cbec-titech.connpass.com/event/27278/","shortener_url":null,"started_at":"2016-04-18T16:50:00.000+09:00","ended_at":"2016-04-18T18:20:00.000+09:00","limit_number":60,"address":"東京都目黒区大岡山2-12-1","place":"東京工業大学 大岡山西9号館 W933","lat":35.6059,"lon":139.684,"state":"active","id":null},{"event_id":"30315","title":"UX JAM 8","url":"https://uxmilk.connpass.com/event/30315/","shortener_url":null,"started_at":"2016-04-27T10:30:00.000+09:00","ended_at":"2016-04-27T12:30:00.000+09:00","limit_number":155,"address":"東京都港区六本木4-1-4黒崎ビル4F","place":"株式会社Speee","lat":35.6655,"lon":139.736,"state":"active","id":null},{"event_id":"28571","title":"OSSコントリビュータになりたいハッカソン #1","url":"https://wannabecontributor.connpass.com/event/28571/","shortener_url":null,"started_at":"2016-04-16T13:00:00.000+09:00","ended_at":"2016-04-16T20:00:00.000+09:00","limit_number":20,"address":"東京都千代田区四番町6番 東急番町ビル","place":"株式会社オプト","lat":35.6892,"lon":139.736,"state":"active","id":null},{"event_id":"28982","title":"超人工生命ハッカソン","url":"https://lis.connpass.com/event/28982/","shortener_url":null,"started_at":"2016-04-09T10:00:00.000+09:00","ended_at":"2016-04-09T18:00:00.000+09:00","limit_number":185,"address":"中央区日本橋室町2-1-1 ","place":"日本橋三井タワー","lat":35.6868,"lon":139.772,"state":"active","id":null},{"event_id":"30219","title":"アイデアソン・ハッカソンLT大会","url":"https://hack-kansai.connpass.com/event/30219/","shortener_url":null,"started_at":"2016-04-27T10:00:00.000+09:00","ended_at":"2016-04-27T12:30:00.000+09:00","limit_number":58,"address":"大阪市北区茶屋町17番1号","place":"MBS本社1F ちゃやまちプラザ","lat":34.7085,"lon":135.5,"state":"active","id":null},{"event_id":"30860","title":"アニメと大阪日本橋をITでハックする「ShangriLa Meetup in DDT」","url":"https://akibalab.connpass.com/event/30860/","shortener_url":null,"started_at":"2016-04-28T09:00:00.000+09:00","ended_at":"2016-04-28T11:00:00.000+09:00","limit_number":5,"address":"大阪府大阪市浪速区日本橋3-4-10(ホテルヒラリーズ 1F)","place":"アンナカラーズコーヒー","lat":34.6614,"lon":135.506,"state":"active","id":null},{"event_id":"29876","title":"ヴォイニッチ手稿ハッカソン","url":"https://connpass.com/event/29876/","shortener_url":null,"started_at":"2016-04-24T11:00:00.000+09:00","ended_at":"2016-04-24T18:00:00.000+09:00","limit_number":10,"address":" 〒102-0073 東京都千代田区九段北1-3-6 セーキビル 7F","place":"ゲヒルン株式会社","lat":35.6962,"lon":139.751,"state":"active","id":null},{"event_id":"30355","title":"第26回Reactive Design Patterns読書会@西新宿","url":"https://readeffectiveakka.connpass.com/event/30355/","shortener_url":null,"started_at":"2016-04-21T19:00:00.000+09:00","ended_at":"2016-04-21T22:00:00.000+09:00","limit_number":6,"address":"東京都新宿区西新宿8-17-1(住友不動産新宿グランドタワー)","place":"TIS株式会社","lat":35.696,"lon":139.691,"state":"active","id":null},{"event_id":"29968","title":"第25回Reactive Design Patterns読書会@西新宿","url":"https://readeffectiveakka.connpass.com/event/29968/","shortener_url":null,"started_at":"2016-04-14T19:00:00.000+09:00","ended_at":"2016-04-14T22:00:00.000+09:00","limit_number":6,"address":"東京都新宿区西新宿8-17-1(住友不動産新宿グランドタワー)","place":"TIS株式会社","lat":35.696,"lon":139.691,"state":"active","id":null},{"event_id":"29590","title":"第24回Reactive Design Patterns読書会@西新宿","url":"https://readeffectiveakka.connpass.com/event/29590/","shortener_url":null,"started_at":"2016-04-07T19:00:00.000+09:00","ended_at":"2016-04-07T22:00:00.000+09:00","limit_number":6,"address":"東京都新宿区西新宿8-17-1(住友不動産新宿グランドタワー)","place":"TIS株式会社","lat":35.696,"lon":139.691,"state":"active","id":null},{"event_id":"30765","title":"PyCon JP メディアチームWeb制作ハッカソン 2016.04","url":"https://pyconjp-staff.connpass.com/event/30765/","shortener_url":null,"started_at":"2016-04-30T13:00:00.000+09:00","ended_at":"2016-04-30T18:00:00.000+09:00","limit_number":null,"address":"東京都渋谷区恵比寿１丁目１９−１５ ウノサワ東急ビル 3階","place":"アライドアーキテクツ","lat":35.6474,"lon":139.713,"state":"active","id":null},{"event_id":"28540","title":"【学生向け】【初心者歓迎】コスパ最高!?500円でプログラミングを学ぶ(お菓子付き)！","url":"https://morei.connpass.com/event/28540/","shortener_url":null,"started_at":"2016-04-27T11:00:00.000+09:00","ended_at":"2016-04-27T13:30:00.000+09:00","limit_number":10,"address":"東京都渋谷区渋谷1-2-5 アライブ美竹 9F受付・10F","place":"ユナイテッド株式会社","lat":35.6617,"lon":139.707,"state":"active","id":null},{"event_id":"29775","title":"MTL勉強会「UX Sketch」Meetup vol.11","url":"https://mtl.connpass.com/event/29775/","shortener_url":null,"started_at":"2016-04-28T10:00:00.000+09:00","ended_at":"2016-04-28T13:00:00.000+09:00","limit_number":107,"address":"東京都中央区銀座7-2-6 ヒューリック銀座７丁目第２ビル","place":"MTLcafe（ゼクシィ縁結び脇の外階段より地下へ）","lat":35.6708,"lon":139.761,"state":"active","id":null},{"event_id":"30363","title":"TouchDesigner Workshop in Osaka Vol.0","url":"https://sha.connpass.com/event/30363/","shortener_url":null,"started_at":"2016-04-23T01:30:00.000+09:00","ended_at":"2016-04-23T07:30:00.000+09:00","limit_number":18,"address":"大阪府大阪市北区大深町3−1 グランフロント大阪北館7F","place":"ナレッジサロン","lat":34.7053,"lon":135.495,"state":"active","id":null},{"event_id":"27404","title":"第5回サウンドゲームジャム","url":"https://effectorhack.connpass.com/event/27404/","shortener_url":null,"started_at":"2016-04-16T01:00:00.000+09:00","ended_at":"2016-04-17T11:00:00.000+09:00","limit_number":40,"address":"東京都渋谷区渋谷1-7-7(住友不動産青山通ビル13階)","place":"CRI・ミドルウェアC会議室","lat":35.6605,"lon":139.706,"state":"active","id":null},{"event_id":"28289","title":"【土曜/原宿】女性向けプログラミング講座でアプリの企画〜リリースまでの流れを一気に学ぼう♬","url":"https://morei.connpass.com/event/28289/","shortener_url":null,"started_at":"2016-04-16T05:00:00.000+09:00","ended_at":"2016-04-16T07:00:00.000+09:00","limit_number":5,"address":"東京都渋谷区神宮前6丁目4-1原宿八角館ビル6階","place":" BizPlatto（ビズプラット）","lat":35.6693,"lon":139.707,"state":"active","id":null},{"event_id":"29170","title":"Enterprise APIs Hack-Night #4","url":"https://eahn.connpass.com/event/29170/","shortener_url":null,"started_at":"2016-04-21T19:00:00.000+09:00","ended_at":"2016-04-21T21:30:00.000+09:00","limit_number":85,"address":"東京都港区海岸一丁目2番20号","place":"NTTコミュニケーションズ 汐留ビルディング11F","lat":35.6569,"lon":139.76,"state":"active","id":null},{"event_id":"28283","title":"【平日/渋谷】【お菓子付き】Swiftで動画自動再生アプリを作ってスキルアップ！","url":"https://morei.connpass.com/event/28283/","shortener_url":null,"started_at":"2016-04-27T11:00:00.000+09:00","ended_at":"2016-04-27T13:30:00.000+09:00","limit_number":5,"address":"東京都渋谷区渋谷1-2-5 アライブ美竹 9F受付・10F","place":"ユナイテッド株式会社","lat":35.6617,"lon":139.707,"state":"active","id":null},{"event_id":"28541","title":"【参加費:500円】【文系/Windows参加可】Rubyの基礎やSwiftの基礎を学ぼう★","url":"https://morei.connpass.com/event/28541/","shortener_url":null,"started_at":"2016-04-27T11:00:00.000+09:00","ended_at":"2016-04-27T13:30:00.000+09:00","limit_number":15,"address":"東京都渋谷区渋谷1-2-5 アライブ美竹 9F受付・10F","place":"ユナイテッド株式会社","lat":35.6617,"lon":139.707,"state":"active","id":null},{"event_id":"28282","title":"【参加費:500円】【渋谷/平日】【お菓子付き】Swiftで動画を自動再生するアプリを作ろう！","url":"https://morei.connpass.com/event/28282/","shortener_url":null,"started_at":"2016-04-27T11:00:00.000+09:00","ended_at":"2016-04-27T13:30:00.000+09:00","limit_number":10,"address":"東京都渋谷区渋谷1-2-5 アライブ美竹 9F受付・10F","place":"ユナイテッド株式会社","lat":35.6617,"lon":139.707,"state":"active","id":null},{"event_id":"29124","title":"インターン体験談発表会","url":"https://camphor.connpass.com/event/29124/","shortener_url":null,"started_at":"2016-04-09T16:00:00.000+09:00","ended_at":"2016-04-09T19:00:00.000+09:00","limit_number":20,"address":"京都府京都市左京区吉田牛ノ宮町１６","place":"CAMPHOR- HOUSE","lat":35.0249,"lon":135.777,"state":"active","id":null},{"event_id":"29938","title":"500 Startups with NIKKEI Startup X","url":"https://connpass.com/event/29938/","shortener_url":null,"started_at":"2016-04-16T13:30:00.000+09:00","ended_at":"2016-04-16T15:15:00.000+09:00","limit_number":null,"address":"東京都千代田区大手町1-3-7","place":"SPACE NIO","lat":35.6887,"lon":139.762,"state":"active","id":null},{"event_id":"29872","title":"流出データハッカソン","url":"https://connpass.com/event/29872/","shortener_url":null,"started_at":"2016-04-16T10:00:00.000+09:00","ended_at":"2016-04-16T18:00:00.000+09:00","limit_number":20,"address":"","place":"","lat":null,"lon":null,"state":"active","id":null},{"event_id":"28195","title":"[東京開催] 2016年4月度 DevOps ハッカソン","url":"https://devopsjp.connpass.com/event/28195/","shortener_url":null,"started_at":"2016-04-15T09:00:00.000+09:00","ended_at":"2016-04-16T17:00:00.000+09:00","limit_number":40,"address":"東京都 港区 港南 2-16-3  品川グランドセントラルタワー","place":"日本マイクロソフト株式会社セミナールーム","lat":35.6267,"lon":139.74,"state":"active","id":null},{"event_id":"28539","title":"「◯◯って儲かるの？」今回のテーマは：ハイテクをブレイクさせる『イノベーション』って儲かるの？","url":"https://bar-android-extended.connpass.com/event/28539/","shortener_url":null,"started_at":"2016-04-04T19:00:00.000+09:00","ended_at":"2016-04-04T21:00:00.000+09:00","limit_number":60,"address":"世田谷区北沢2-19-10","place":"下北沢 blue monday","lat":35.6611,"lon":139.667,"state":"active","id":null},{"event_id":"29262","title":"AITC女子：第１回データ分析勉強会","url":"https://aitcjoshi.connpass.com/event/29262/","shortener_url":null,"started_at":"2016-04-16T04:30:00.000+09:00","ended_at":"2016-04-16T09:00:00.000+09:00","limit_number":30,"address":"東京都中央区晴海1-8-10","place":"リコーITソリューションズ株式会社 大会議室「Blue Ocean」","lat":35.6564,"lon":139.782,"state":"active","id":null},{"event_id":"28293","title":"アニメと秋葉原をITでハックする「ShangirLa Meetup 第3回」","url":"https://akibalab.connpass.com/event/28293/","shortener_url":null,"started_at":"2016-04-09T07:00:00.000+09:00","ended_at":"2016-04-09T09:00:00.000+09:00","limit_number":12,"address":"東京都 台東区 秋葉原 1番1号 秋葉原ビジネスセンター","place":"AP秋葉原 1F 貸し会議室O","lat":35.7018,"lon":139.775,"state":"active","id":null},{"event_id":"28830","title":"4/9〜4/10【温泉ハッカソン】SPAJAM2016 東京A予選【最優秀賞はシリコンバレーツアー】","url":"https://spajam.connpass.com/event/28830/","shortener_url":null,"started_at":"2016-04-09T01:00:00.000+09:00","ended_at":"2016-04-10T12:00:00.000+09:00","limit_number":60,"address":"東京都渋谷区恵比寿４丁目２０−３","place":"（株）コロプラ","lat":35.6423,"lon":139.713,"state":"active","id":null},{"event_id":"28778","title":"【子供向け】【春休み特別企画】ITお仕事体験へGo！","url":"https://connpass.com/event/28778/","shortener_url":null,"started_at":"2016-04-02T13:15:00.000+09:00","ended_at":"2016-04-03T13:15:00.000+09:00","limit_number":10,"address":"東京都千代田区飯田橋3丁目10番10号","place":"KDDI","lat":35.7005,"lon":139.751,"state":"active","id":null},{"event_id":"28749","title":"【人工知能搭載アプリ開発】第1回・週末AIハッカソン【機械学習/ビッグデータ】 in 池袋","url":"https://connpass.com/event/28749/","shortener_url":null,"started_at":"2016-04-02T09:30:00.000+09:00","ended_at":"2016-04-02T16:30:00.000+09:00","limit_number":50,"address":"東京都豊島区東池袋1-20-10","place":"豊島区民センター　第4会議室","lat":35.7315,"lon":139.716,"state":"active","id":null},{"event_id":"28687","title":"【ハッカソン】週末アプリ開発【週末開発】 in 池袋","url":"https://connpass.com/event/28687/","shortener_url":null,"started_at":"2016-04-02T09:30:00.000+09:00","ended_at":"2016-04-02T16:30:00.000+09:00","limit_number":50,"address":"東京都豊島区東池袋1-20-10","place":"豊島区民センター　第4会議室","lat":35.7315,"lon":139.716,"state":"active","id":null},{"event_id":"76513","title":"青空シャッカソン #4 〜青空文庫のハック発表と入力ハッカソン〜","url":"https://atnd.org/events/76513","shortener_url":null,"started_at":"2016-04-25T10:00:00.000+09:00","ended_at":"2016-04-25T13:00:00.000+09:00","limit_number":10,"address":"東京都中央区日本橋2-7-1 東京日本橋タワー 27F(受付:7F)","place":"サイボウズ株式会社 東京オフィス","lat":35.6819,"lon":139.774,"state":"closed","id":null},{"event_id":"76859","title":"第235回オフライン開発ミーティング","url":"https://atnd.org/events/76859","shortener_url":null,"started_at":"2016-04-24T01:00:00.000+09:00","ended_at":"2016-04-24T03:00:00.000+09:00","limit_number":null,"address":"東京都品川区大崎1-11-1","place":"ゲートシティ大崎B1アトリウムフリー座席","lat":35.6194,"lon":139.731,"state":"closed","id":null},{"event_id":"75946","title":"【Swift】【土曜/銀座】【初心者歓迎】講師とテキストサポートで挫折せずにアプリを作ろう！","url":"https://atnd.org/events/75946","shortener_url":null,"started_at":"2016-04-23T05:00:00.000+09:00","ended_at":"2016-04-23T07:00:00.000+09:00","limit_number":10,"address":"〒104-0061 東京都中央区銀座1-14-9 銀座スワロービル 3F","place":"銀座レンタル和室 スワロービル","lat":35.6728,"lon":139.77,"state":"closed","id":null},{"event_id":"75940","title":"【Swift】【PCなし】【参加者女性のみ】土曜に原宿でアプリリリースについて学ぼう♬","url":"https://atnd.org/events/75940","shortener_url":null,"started_at":"2016-04-20T11:00:00.000+09:00","ended_at":"2016-04-20T13:30:00.000+09:00","limit_number":10,"address":"東京都渋谷区神宮前6-27-8 京セラ原宿ビル2F","place":"株式会社レアジョブ","lat":35.6665,"lon":139.703,"state":"closed","id":null},{"event_id":"76369","title":"UdacityでAndroidアプリ開発#2","url":"https://atnd.org/events/76369","shortener_url":null,"started_at":"2016-04-20T10:00:00.000+09:00","ended_at":"2016-04-20T12:00:00.000+09:00","limit_number":10,"address":"東京都台東区浅草橋5-4-5 ハシモトビル401","place":"Akiba code","lat":35.6995,"lon":139.781,"state":"closed","id":null},{"event_id":"75944","title":"【Swift】【参加対象女性のみ】日曜に八幡山でiPhoneアプリを作ろう！","url":"https://atnd.org/events/75944","shortener_url":null,"started_at":"2016-04-17T05:00:00.000+09:00","ended_at":"2016-04-17T07:00:00.000+09:00","limit_number":10,"address":"〒168-0074 東京杉並区上高井戸1-10-6","place":"八幡山レンタルスペース「Aterlier Mine」","lat":35.6722,"lon":139.616,"state":"closed","id":null},{"event_id":"76754","title":"第234回オフライン開発ミーティング","url":"https://atnd.org/events/76754","shortener_url":null,"started_at":"2016-04-17T01:00:00.000+09:00","ended_at":"2016-04-17T03:00:00.000+09:00","limit_number":null,"address":"東京都品川区大崎1-11-1","place":"ゲートシティ大崎B1アトリウムフリー座席","lat":35.6194,"lon":139.731,"state":"closed","id":null},{"event_id":"75939","title":"【Swift】【イースター特別企画】【初心者歓迎】【女性向け】アプリのリリース方法について学ぼう♬","url":"https://atnd.org/events/75939","shortener_url":null,"started_at":"2016-04-16T05:00:00.000+09:00","ended_at":"2016-04-16T08:00:00.000+09:00","limit_number":10,"address":"東京都渋谷区神宮前6丁目4-1原宿八角館ビル6階","place":" BizPlatto（ビズプラット）","lat":35.6693,"lon":139.707,"state":"closed","id":null},{"event_id":"76521","title":"完全燃焼LIFE","url":"https://atnd.org/events/76521","shortener_url":null,"started_at":"2016-04-15T10:00:00.000+09:00","ended_at":"2016-04-15T11:00:00.000+09:00","limit_number":50,"address":"大阪府西区北堀江4-2-7","place":"大阪市立西区民センター　第4会議室","lat":34.6747,"lon":135.486,"state":"closed","id":null},{"event_id":"76520","title":"完全燃焼LIFE","url":"https://atnd.org/events/76520","shortener_url":null,"started_at":"2016-04-14T10:00:00.000+09:00","ended_at":"2016-04-14T11:30:00.000+09:00","limit_number":50,"address":"大阪府西区北堀江4-2-7","place":"大阪市立西区民センター　第4会議室","lat":34.6747,"lon":135.486,"state":"closed","id":null},{"event_id":"76474","title":"第233回オフライン開発ミーティング","url":"https://atnd.org/events/76474","shortener_url":null,"started_at":"2016-04-10T01:00:00.000+09:00","ended_at":"2016-04-10T03:00:00.000+09:00","limit_number":null,"address":"東京都品川区大崎1-11-1","place":"ゲートシティ大崎B1アトリウムフリー座席","lat":35.6194,"lon":139.731,"state":"closed","id":null},{"event_id":"75914","title":"SPAJAM2016 (スマートファンアプリジャム2016)","url":"https://atnd.org/events/75914","shortener_url":null,"started_at":"2016-04-09T01:00:00.000+09:00","ended_at":"2016-06-12T14:30:00.000+09:00","limit_number":null,"address":"","place":"札幌・仙台・東京･東海・大阪・福岡","lat":null,"lon":null,"state":"closed","id":null},{"event_id":"76309","title":"UdacityでAndroidアプリ開発#1","url":"https://atnd.org/events/76309","shortener_url":null,"started_at":"2016-04-06T10:00:00.000+09:00","ended_at":"2016-04-06T12:00:00.000+09:00","limit_number":10,"address":"東京都台東区浅草橋5-4-5 ハシモトビル401","place":"Akiba code","lat":35.6995,"lon":139.781,"state":"closed","id":null},{"event_id":"76338","title":"第232回オフライン開発ミーティング","url":"https://atnd.org/events/76338","shortener_url":null,"started_at":"2016-04-03T01:00:00.000+09:00","ended_at":"2016-04-03T03:00:00.000+09:00","limit_number":null,"address":"東京都品川区大崎1-11-1","place":"ゲートシティ大崎B1アトリウムフリー座席","lat":35.6194,"lon":139.731,"state":"closed","id":null},{"event_id":"28182","title":"PyCon JP 2016 スタッフ合宿","url":"https://pyconjp-staff.connpass.com/event/28182/","shortener_url":null,"started_at":"2016-04-22T05:00:00.000+09:00","ended_at":"2016-04-24T03:00:00.000+09:00","limit_number":null,"address":"栃木県日光市所野1541-2371","place":"ペンションはじめのいっぽ","lat":36.7793,"lon":139.612,"state":"active","id":null},{"event_id":"25296","title":"もくもく温泉　開発合宿 #4","url":"https://mokumoku-onsen.connpass.com/event/25296/","shortener_url":null,"started_at":"2016-04-23T00:30:00.000+09:00","ended_at":"2016-04-24T09:00:00.000+09:00","limit_number":7,"address":"千葉県香取郡東庄町笹川い６２４","place":"土善旅館","lat":35.845,"lon":140.662,"state":"active","id":null},{"event_id":"28937","title":"サーバー構築ハンズオン －セキュアなプロトコルも使ってみよう－ in 東京 #052","url":"https://svrkcho.connpass.com/event/28937/","shortener_url":null,"started_at":"2016-04-16T03:30:00.000+09:00","ended_at":"2016-04-16T08:30:00.000+09:00","limit_number":20,"address":"大阪市中央区南本町3-3-23","place":"ラミ本町Emma (インペリアル船場ビル407号室)","lat":34.6825,"lon":135.502,"state":"active","id":null}]