[{"event_id":"35772","title":"オオサカプログラミングカフェ#1","url":"https://osakaprgcafe.connpass.com/event/35772/","shortener_url":null,"started_at":"2016-06-05T19:00:00.000+09:00","ended_at":"2016-06-06T01:00:00.000+09:00","limit_number":8,"address":"大阪市北区鶴野町1-5  関西大学梅田キャンパス2F","place":"スタートアップカフェ大阪","lat":34.7063,"lon":135.501,"state":"active","id":null},{"event_id":"33367","title":"京都テクデザもくもく会#3","url":"https://supporterz.connpass.com/event/33367/","shortener_url":null,"started_at":"2016-06-26T21:00:00.000+09:00","ended_at":"2016-06-27T05:00:00.000+09:00","limit_number":null,"address":"京都府京都市下京区立売東町1京都フコク生命四条柳馬場ビル２F","place":"サポーターズ京都オフィス","lat":35.004,"lon":135.764,"state":"active","id":null},{"event_id":"31573","title":"第7回大阪Jenkins勉強会","url":"https://connpass.com/event/31573/","shortener_url":null,"started_at":"2016-06-18T22:30:00.000+09:00","ended_at":"2016-06-19T02:30:00.000+09:00","limit_number":80,"address":"大阪府大阪市北区中之島3-2-18 (住友中之島ビル)","place":"楽天株式会社 大阪支社 8Fカフェテリア","lat":34.6933,"lon":135.495,"state":"active","id":null},{"event_id":"30229","title":"TdX講演会#03「チームとニコニコ学会βづくり」","url":"https://cbec-titech.connpass.com/event/30229/","shortener_url":null,"started_at":"2016-06-18T03:30:00.000+09:00","ended_at":"2016-06-18T05:00:00.000+09:00","limit_number":60,"address":"東京都目黒区大岡山2-12-1","place":"東京工業大学 大岡山西9号館 W933","lat":35.6059,"lon":139.684,"state":"active","id":null},{"event_id":"33938","title":"【学生/20代向け】無料でiPhoneアプリを作ろう(懇親会付き)！文系/体育会系大歓迎★","url":"https://morei.connpass.com/event/33938/","shortener_url":null,"started_at":"2016-06-21T00:00:00.000+09:00","ended_at":"2016-06-21T02:00:00.000+09:00","limit_number":10,"address":"東京都渋谷区神宮前6-27-8 エムズ原宿5F","place":"株式会社ホールハート","lat":35.6667,"lon":139.704,"state":"active","id":null},{"event_id":"33934","title":"【再・増枠】盛り上がってる！？「VR元年」中間決算！","url":"https://amana.connpass.com/event/33934/","shortener_url":null,"started_at":"2016-06-30T04:30:00.000+09:00","ended_at":"2016-06-30T07:30:00.000+09:00","limit_number":80,"address":"東京都品川区東品川2‐2‐43","place":"株式会社アマナ　天王洲オフィス　大会議室","lat":35.623,"lon":139.748,"state":"active","id":null},{"event_id":"33258","title":"TOKYO CS JAM #2","url":"https://csjam.connpass.com/event/33258/","shortener_url":null,"started_at":"2016-06-21T19:15:00.000+09:00","ended_at":"2016-06-21T21:45:00.000+09:00","limit_number":15,"address":"東京都港区六本木6-10-1（六本木ヒルズ森タワー18F）","place":"株式会社メルカリ","lat":35.6604,"lon":139.729,"state":"active","id":null},{"event_id":"34031","title":"【Drink/お菓子付き】【初心者歓迎】個別指導型のプログラミング講座でアプリ開発スタート！","url":"https://morei.connpass.com/event/34031/","shortener_url":null,"started_at":"2016-06-19T14:00:00.000+09:00","ended_at":"2016-06-19T16:00:00.000+09:00","limit_number":2,"address":"渋谷区神南1-20-7 川原ビル４階","place":"Connecting The Dots: 「渋谷」","lat":35.6618,"lon":139.7,"state":"active","id":null},{"event_id":"34033","title":"【Drink/お菓子付き】【初心者/Windows歓迎】Rubyの基礎を学ぼう!","url":"https://morei.connpass.com/event/34033/","shortener_url":null,"started_at":"2016-06-19T14:00:00.000+09:00","ended_at":"2016-06-19T16:00:00.000+09:00","limit_number":2,"address":"渋谷区神南1-20-7 川原ビル４階","place":"Connecting The Dots: 「渋谷」","lat":35.6618,"lon":139.7,"state":"active","id":null},{"event_id":"34030","title":"【Drink/お菓子付き】【初心者歓迎】Git+GitHub基礎をマスターしよう★","url":"https://morei.connpass.com/event/34030/","shortener_url":null,"started_at":"2016-06-19T14:00:00.000+09:00","ended_at":"2016-06-19T16:00:00.000+09:00","limit_number":2,"address":"渋谷区神南1-20-7 川原ビル４階","place":"Connecting The Dots","lat":35.6618,"lon":139.7,"state":"active","id":null},{"event_id":"32880","title":"KAUMO HACKATHON 〜学生No.1を決める2dayハッカソン~","url":"https://techsalon.connpass.com/event/32880/","shortener_url":null,"started_at":"2016-06-18T10:00:00.000+09:00","ended_at":"2016-06-19T21:00:00.000+09:00","limit_number":60,"address":"〒153-0064  目黒区下目黒2-13-10 RKビル7F","place":"カウモ株式会社本社","lat":35.6285,"lon":139.712,"state":"active","id":null},{"event_id":"33865","title":"【学生向け】無料でRuby/Swiftを学ぶ(懇親会付き)！Windows/初心者歓迎★","url":"https://morei.connpass.com/event/33865/","shortener_url":null,"started_at":"2016-06-21T19:30:00.000+09:00","ended_at":"2016-06-21T22:00:00.000+09:00","limit_number":15,"address":"東京都渋谷区神宮前6-27-8 エムズ原宿5F","place":"株式会社ホールハート","lat":35.6667,"lon":139.704,"state":"active","id":null},{"event_id":"32825","title":"【持ち物不要】【就活/転職活動者歓迎】現役Webエンジニアが1000円台で転職奮闘などを話します♪","url":"https://morei.connpass.com/event/32825/","shortener_url":null,"started_at":"2016-06-18T11:00:00.000+09:00","ended_at":"2016-06-18T12:00:00.000+09:00","limit_number":3,"address":"渋谷区神南1-20-7 川原ビル４階","place":"Connecting The Dots","lat":35.6618,"lon":139.7,"state":"active","id":null},{"event_id":"33420","title":"【BOTソン】ノンプログラミングでチャットボットを作ろう！ vol.1 @ 渋谷","url":"https://bottree.connpass.com/event/33420/","shortener_url":null,"started_at":"2016-06-19T22:00:00.000+09:00","ended_at":"2016-06-20T03:00:00.000+09:00","limit_number":35,"address":"〒150-0032 東京都渋谷区鶯谷町3−3 (サウスゲート渋谷ビル2階)","place":"Goodpatch Inc. ワークスペース","lat":35.6542,"lon":139.704,"state":"active","id":null},{"event_id":"32743","title":"【土曜/渋谷】【初心者/非エンジニア歓迎】個別指導型のプログラミング講座でアプリ開発スタート！","url":"https://morei.connpass.com/event/32743/","shortener_url":null,"started_at":"2016-06-18T14:00:00.000+09:00","ended_at":"2016-06-18T16:00:00.000+09:00","limit_number":2,"address":"渋谷区神南1-20-7 川原ビル４階","place":"Connecting The Dots: 「渋谷」","lat":35.6618,"lon":139.7,"state":"active","id":null},{"event_id":"33008","title":"ウマナリティクス #1","url":"https://umanalytics.connpass.com/event/33008/","shortener_url":null,"started_at":"2016-06-13T02:30:00.000+09:00","ended_at":"2016-06-13T06:00:00.000+09:00","limit_number":29,"address":"東京都港区高輪3-25-22(高輪カネオビル)","place":"ハロー貸会議室品川駅前RoomA(9階)","lat":35.6305,"lon":139.738,"state":"active","id":null},{"event_id":"32740","title":"【土曜/渋谷】【初心者/非エンジニア歓迎】個別指導型のプログラミング講座でアプリ開発スタート！","url":"https://morei.connpass.com/event/32740/","shortener_url":null,"started_at":"2016-06-11T14:00:00.000+09:00","ended_at":"2016-06-11T16:00:00.000+09:00","limit_number":2,"address":"渋谷区神南1-20-7 川原ビル４階","place":"Connecting The Dots: 「渋谷」","lat":35.6618,"lon":139.7,"state":"active","id":null},{"event_id":"33827","title":"SORABITO移転記念 Smalltalkハッカソン","url":"https://smalltalk.connpass.com/event/33827/","shortener_url":null,"started_at":"2016-06-11T19:00:00.000+09:00","ended_at":"2016-06-12T02:00:00.000+09:00","limit_number":null,"address":"東京都中央区日本橋茅場町1丁目9番2号 第一稲村ビル8階","place":"SORABITO株式会社","lat":35.68,"lon":139.779,"state":"active","id":null},{"event_id":"33678","title":"第13回エフェクターミニハッカソン","url":"https://effectorhack.connpass.com/event/33678/","shortener_url":null,"started_at":"2016-06-12T22:00:00.000+09:00","ended_at":"2016-06-13T02:00:00.000+09:00","limit_number":25,"address":"東京都渋谷区渋谷1-7-7(住友不動産青山通ビル13階)","place":"CRI・ミドルウェアC会議室","lat":35.6605,"lon":139.706,"state":"active","id":null},{"event_id":"32111","title":"teamLab Online Hackathon","url":"https://teamlab.connpass.com/event/32111/","shortener_url":null,"started_at":"2016-06-11T10:00:00.000+09:00","ended_at":"2016-06-11T19:00:00.000+09:00","limit_number":null,"address":"","place":"オンライン","lat":35.7043,"lon":139.757,"state":"active","id":null},{"event_id":"33272","title":"【渋谷/土曜】【文系/非エンジニア歓迎】あなたが学ぶべきプログラミングはこれだ!!","url":"https://morei.connpass.com/event/33272/","shortener_url":null,"started_at":"2016-06-11T11:00:00.000+09:00","ended_at":"2016-06-11T12:00:00.000+09:00","limit_number":1,"address":"渋谷区神南1-20-7 川原ビル４階","place":"Connecting The Dots","lat":35.6618,"lon":139.7,"state":"active","id":null},{"event_id":"32736","title":"【渋谷/土曜】【初心者歓迎】Git+GitHub+Unixコマンドの基礎をマスターしよう★","url":"https://morei.connpass.com/event/32736/","shortener_url":null,"started_at":"2016-06-18T14:00:00.000+09:00","ended_at":"2016-06-18T16:00:00.000+09:00","limit_number":2,"address":"渋谷区神南1-20-7 川原ビル４階","place":"Connecting The Dots","lat":35.6618,"lon":139.7,"state":"active","id":null},{"event_id":"33560","title":"Milkcocoa Hands on in Osaka","url":"https://sha.connpass.com/event/33560/","shortener_url":null,"started_at":"2016-06-19T13:00:00.000+09:00","ended_at":"2016-06-19T17:30:00.000+09:00","limit_number":20,"address":"大阪府大阪市北区大深町3−1 グランフロント大阪北館7F","place":"ナレッジサロン","lat":34.7053,"lon":135.495,"state":"active","id":null},{"event_id":"32959","title":"SENDAI CS JAM #2 -最高のチーム/組織づくり-","url":"https://csjam.connpass.com/event/32959/","shortener_url":null,"started_at":"2016-06-16T19:00:00.000+09:00","ended_at":"2016-06-16T21:30:00.000+09:00","limit_number":25,"address":"宮城県仙台市青葉区本町1-12-12 (GMビルディング 7F)","place":"株式会社メルカリ　仙台オフィス","lat":38.2665,"lon":140.878,"state":"active","id":null},{"event_id":"32738","title":"【渋谷/土曜】【初心者/Windows歓迎】コスパ最高!?2000円台でRubyの基礎を学ぼう♪","url":"https://morei.connpass.com/event/32738/","shortener_url":null,"started_at":"2016-06-18T14:00:00.000+09:00","ended_at":"2016-06-18T16:00:00.000+09:00","limit_number":2,"address":"渋谷区神南1-20-7 川原ビル４階","place":"Connecting The Dots: 「渋谷」","lat":35.6618,"lon":139.7,"state":"active","id":null},{"event_id":"33233","title":"京都テクデザもくもく会#2","url":"https://supporterz.connpass.com/event/33233/","shortener_url":null,"started_at":"2016-06-22T02:00:00.000+09:00","ended_at":"2016-06-22T06:00:00.000+09:00","limit_number":null,"address":"京都府京都市下京区立売東町1京都フコク生命四条柳馬場ビル２F","place":"サポーターズ京都オフィス","lat":35.004,"lon":135.764,"state":"active","id":null},{"event_id":"33330","title":"アニメをITでハックする「ShangriLa Meetup in Sapporo」","url":"https://akibalab.connpass.com/event/33330/","shortener_url":null,"started_at":"2016-06-17T19:30:00.000+09:00","ended_at":"2016-06-17T21:00:00.000+09:00","limit_number":5,"address":"スターバックスコーヒー 札幌南一条店","place":"スターバックスコーヒー 札幌南一条店","lat":42.9617,"lon":141.316,"state":"active","id":null},{"event_id":"32954","title":"【持ち物不要】現役WebエンジニアがSI→Webのキャリアチェンジをぶっちゃける！","url":"https://morei.connpass.com/event/32954/","shortener_url":null,"started_at":"2016-06-11T11:00:00.000+09:00","ended_at":"2016-06-11T12:00:00.000+09:00","limit_number":4,"address":"渋谷区神南1-20-7 川原ビル４階","place":"Connecting The Dots","lat":35.6618,"lon":139.7,"state":"active","id":null},{"event_id":"31840","title":"PyCon JP \"Meat\" UP","url":"https://pyconjp-staff.connpass.com/event/31840/","shortener_url":null,"started_at":"2016-06-05T04:00:00.000+09:00","ended_at":"2016-06-05T06:00:00.000+09:00","limit_number":40,"address":"東京都港区新橋3-8-8 リバティ８ １","place":"クイーン・オブ・チキンズ 新橋本店","lat":35.6655,"lon":139.755,"state":"active","id":null},{"event_id":"33230","title":"第31回Reactive Design Patterns読書会@西新宿","url":"https://readeffectiveakka.connpass.com/event/33230/","shortener_url":null,"started_at":"2016-06-24T04:00:00.000+09:00","ended_at":"2016-06-24T07:00:00.000+09:00","limit_number":8,"address":"東京都新宿区西新宿8-17-1(住友不動産新宿グランドタワー)","place":"TIS株式会社","lat":35.696,"lon":139.691,"state":"active","id":null},{"event_id":"32493","title":"京都テクデザもくもく会#️1","url":"https://supporterz.connpass.com/event/32493/","shortener_url":null,"started_at":"2016-06-03T02:00:00.000+09:00","ended_at":"2016-06-03T06:00:00.000+09:00","limit_number":null,"address":"京都府京都市下京区立売東町1京都フコク生命四条柳馬場ビル２F","place":"サポーターズ京都オフィス","lat":35.004,"lon":135.764,"state":"active","id":null},{"event_id":"32715","title":"初級中級者向けコンピュータビジョン勉強会　Vol.0","url":"https://cv-intermediate.connpass.com/event/32715/","shortener_url":null,"started_at":"2016-06-26T00:30:00.000+09:00","ended_at":"2016-06-26T03:00:00.000+09:00","limit_number":30,"address":"東京都渋谷区恵比寿南1-13-2","place":"【恵比寿】EBISU T.N.B. Studio","lat":35.6456,"lon":139.71,"state":"active","id":null},{"event_id":"32972","title":"AITC女子：データ分析勉強会第３回＆交流会","url":"https://aitcjoshi.connpass.com/event/32972/","shortener_url":null,"started_at":"2016-06-18T14:00:00.000+09:00","ended_at":"2016-06-18T18:00:00.000+09:00","limit_number":30,"address":"〒104-6014 東京都中央区晴海 1-8-10 トリトンスクエア タワーX 14F","place":"ウルシステムズ株式会社　会議室","lat":35.6564,"lon":139.782,"state":"active","id":null},{"event_id":"31817","title":"【学生限定】セイカハッカソン - Vol 01","url":"https://seika-hackathon.connpass.com/event/31817/","shortener_url":null,"started_at":"2016-06-04T09:30:00.000+09:00","ended_at":"2016-06-05T17:00:00.000+09:00","limit_number":30,"address":"〒606-8588　京都市左京区岩倉木野町137","place":"京都精華大学 対峰館 T-421","lat":35.0735,"lon":135.773,"state":"active","id":null},{"event_id":"32723","title":"【Mac初心者/マーケ担当/営業歓迎】Macを爆速に扱うコツを丁寧に分かりやすくお教えします♬","url":"https://morei.connpass.com/event/32723/","shortener_url":null,"started_at":"2016-06-11T11:00:00.000+09:00","ended_at":"2016-06-11T12:00:00.000+09:00","limit_number":4,"address":"渋谷区神南1-20-7 川原ビル４階","place":"Connecting The Dots","lat":35.6618,"lon":139.7,"state":"active","id":null},{"event_id":"32737","title":"【渋谷/土曜】【初心者/Windows歓迎】コスパ最高!?2000円台でRubyの基礎を学ぼう♬","url":"https://morei.connpass.com/event/32737/","shortener_url":null,"started_at":"2016-06-11T14:00:00.000+09:00","ended_at":"2016-06-11T16:00:00.000+09:00","limit_number":4,"address":"渋谷区神南1-20-7 川原ビル４階","place":"Connecting The Dots: 「渋谷」","lat":35.6618,"lon":139.7,"state":"active","id":null},{"event_id":"32883","title":"[東京開催] 2016年6月度 入門編DevOpsハッカソン","url":"https://devopsjp.connpass.com/event/32883/","shortener_url":null,"started_at":"2016-06-11T19:00:00.000+09:00","ended_at":"2016-06-13T02:00:00.000+09:00","limit_number":40,"address":"〒108-0075  東京都港区港南 2-16-3 品川グランドセントラルタワー","place":"日本マイクロソフト株式会社品川本社31F セミナールームD","lat":35.6267,"lon":139.74,"state":"active","id":null},{"event_id":"32886","title":"[東京開催] 2016年6月度 アドバンスドDevOpsハッカソン","url":"https://devopsjp.connpass.com/event/32886/","shortener_url":null,"started_at":"2016-06-18T19:00:00.000+09:00","ended_at":"2016-06-20T02:00:00.000+09:00","limit_number":40,"address":"〒108-0075  東京都港区港南 2-16-3 品川グランドセントラルタワー","place":"日本マイクロソフト株式会社品川本社31F セミナールームD","lat":35.6267,"lon":139.74,"state":"active","id":null},{"event_id":"32835","title":"第30回Reactive Design Patterns読書会@西新宿","url":"https://readeffectiveakka.connpass.com/event/32835/","shortener_url":null,"started_at":"2016-06-03T04:00:00.000+09:00","ended_at":"2016-06-03T07:00:00.000+09:00","limit_number":8,"address":"東京都新宿区西新宿8-17-1(住友不動産新宿グランドタワー)","place":"TIS株式会社","lat":35.696,"lon":139.691,"state":"active","id":null},{"event_id":"32735","title":"【渋谷/土曜】【初心者歓迎】Git+GitHub+Unixコマンドの基礎をマスターしよう★","url":"https://morei.connpass.com/event/32735/","shortener_url":null,"started_at":"2016-06-11T14:00:00.000+09:00","ended_at":"2016-06-11T16:00:00.000+09:00","limit_number":3,"address":"渋谷区神南1-20-7 川原ビル４階","place":"Connecting The Dots","lat":35.6618,"lon":139.7,"state":"active","id":null},{"event_id":"32607","title":"OSSコントリビュータになりたいハッカソン #2","url":"https://wannabecontributor.connpass.com/event/32607/","shortener_url":null,"started_at":"2016-06-25T22:00:00.000+09:00","ended_at":"2016-06-26T05:00:00.000+09:00","limit_number":20,"address":"東京都千代田区四番町6番 東急番町ビル","place":"株式会社オプト","lat":35.6892,"lon":139.736,"state":"active","id":null},{"event_id":"32595","title":"SPAJAM2016東京D予選(6/11~12)に一緒に出てくれる人募集","url":"https://connpass.com/event/32595/","shortener_url":null,"started_at":"2016-06-11T18:00:00.000+09:00","ended_at":"2016-06-13T04:00:00.000+09:00","limit_number":1,"address":"新宿","place":"株式会社gumi","lat":35.6938,"lon":139.704,"state":"active","id":null},{"event_id":"31653","title":"PyCon JP メディアチームWeb制作ハッカソン #3 2016.06","url":"https://pyconjp-staff.connpass.com/event/31653/","shortener_url":null,"started_at":"2016-06-04T22:00:00.000+09:00","ended_at":"2016-06-05T03:00:00.000+09:00","limit_number":null,"address":"東京都渋谷区千駄ヶ谷5-32-7 ","place":"ビープラウド会議室(野村不動産南新宿ビル4F)","lat":35.6864,"lon":139.704,"state":"active","id":null},{"event_id":"32335","title":"シゴトの悩みや課題・解決策を交換して、明日に活かすマネジメント・アイデアソン","url":"https://think-management.connpass.com/event/32335/","shortener_url":null,"started_at":"2016-06-19T09:30:00.000+09:00","ended_at":"2016-06-19T20:00:00.000+09:00","limit_number":32,"address":"東京都中央区銀座7-2-6(ヒューリック銀座７丁目第２ビル B1F)","place":"メディアテクノロジーラボ","lat":35.6708,"lon":139.761,"state":"active","id":null},{"event_id":"77962","title":"Ubuntu 16.04 LTSリリース記念オフラインミーティング16.06","url":"https://atnd.org/events/77962","shortener_url":null,"started_at":"2016-06-26T12:15:00.000+09:00","ended_at":"2016-06-26T17:00:00.000+09:00","limit_number":120,"address":"東京都港区六本木6-10-1 六本木ヒルズ森タワー","place":"グリー株式会社","lat":35.6641,"lon":139.729,"state":"closed","id":null},{"event_id":"78781","title":"第242回オフライン開発ミーティング","url":"https://atnd.org/events/78781","shortener_url":null,"started_at":"2016-06-26T10:00:00.000+09:00","ended_at":"2016-06-26T12:00:00.000+09:00","limit_number":null,"address":"東京都品川区大崎1-11-1","place":"ゲートシティ大崎B1アトリウムフリー座席","lat":35.6194,"lon":139.731,"state":"closed","id":null},{"event_id":"78627","title":"第241回オフライン開発ミーティング","url":"https://atnd.org/events/78627","shortener_url":null,"started_at":"2016-06-19T10:00:00.000+09:00","ended_at":"2016-06-19T12:00:00.000+09:00","limit_number":null,"address":"東京都品川区大崎1-11-1","place":"ゲートシティ大崎B1アトリウムフリー座席","lat":35.6194,"lon":139.731,"state":"closed","id":null},{"event_id":"78167","title":"KAUMO HACKATHON 〜学生１位の創造主を決めるハッカソン〜【ATND枠】","url":"https://atnd.org/events/78167","shortener_url":null,"started_at":"2016-06-18T10:00:00.000+09:00","ended_at":"2016-06-19T20:30:00.000+09:00","limit_number":10,"address":"目黒区下目黒2-13-10","place":"KAUMO本社　RKビル7F","lat":35.6286,"lon":139.712,"state":"closed","id":null},{"event_id":"77115","title":"DHL Tracking","url":"https://atnd.org/events/77115","shortener_url":null,"started_at":"2016-06-16T02:30:00.000+09:00","ended_at":"2016-06-23T01:00:00.000+09:00","limit_number":null,"address":"","place":"","lat":null,"lon":null,"state":"closed","id":null},{"event_id":"78401","title":"第240回オフライン開発ミーティング","url":"https://atnd.org/events/78401","shortener_url":null,"started_at":"2016-06-12T10:00:00.000+09:00","ended_at":"2016-06-12T12:00:00.000+09:00","limit_number":null,"address":"東京都品川区大崎1-11-1","place":"ゲートシティ大崎B1アトリウムフリー座席","lat":35.6194,"lon":139.731,"state":"closed","id":null},{"event_id":"76658","title":"女性限定！ベビー服とおしゃれについて考えよう　～形になる！子育てアイデアソン～","url":"https://atnd.org/events/76658","shortener_url":null,"started_at":"2016-06-08T10:00:00.000+09:00","ended_at":"2016-06-08T12:00:00.000+09:00","limit_number":50,"address":"目黒区緑が丘二丁目14番23号","place":"自由が丘・緑が丘文化会館（本館）","lat":35.6094,"lon":139.673,"state":"closed","id":null},{"event_id":"78123","title":"第239回オフライン開発ミーティング","url":"https://atnd.org/events/78123","shortener_url":null,"started_at":"2016-06-05T10:00:00.000+09:00","ended_at":"2016-06-05T12:00:00.000+09:00","limit_number":null,"address":"東京都品川区大崎1-11-1","place":"ゲートシティ大崎B1アトリウムフリー座席","lat":35.6194,"lon":139.731,"state":"closed","id":null},{"event_id":"33805","title":"第43回 名古屋CV・PRML勉強会","url":"https://nagoyacv.connpass.com/event/33805/","shortener_url":null,"started_at":"2016-06-18T13:30:00.000+09:00","ended_at":"2016-06-18T16:30:00.000+09:00","limit_number":null,"address":"名古屋市中区千代田5-14-22","place":"中部大学 名古屋キャンパス","lat":35.1582,"lon":136.919,"state":"active","id":null},{"event_id":"33191","title":"サーバー構築ハンズオン －セキュアなプロトコルも使ってみよう－ in 東京 #056","url":"https://svrkcho.connpass.com/event/33191/","shortener_url":null,"started_at":"2016-06-25T12:30:00.000+09:00","ended_at":"2016-06-25T18:00:00.000+09:00","limit_number":20,"address":"大阪市中央区南本町3-3-23","place":"ラミ本町Emma (インペリアル船場ビル407号室)","lat":34.6825,"lon":135.502,"state":"active","id":null},{"event_id":"78591","title":"未踏研究会#3","url":"https://atnd.org/events/78591","shortener_url":null,"started_at":"2016-06-28T19:00:00.000+09:00","ended_at":"2016-06-28T21:00:00.000+09:00","limit_number":40,"address":"東京都港区赤坂1丁目12−32","place":"アーク森ビル 3F TechShop Tokyo","lat":35.6671,"lon":139.74,"state":"closed","id":null},{"event_id":"78596","title":"起業家・個人ビジネスオーナーのための！フルマラソン完走３ステップセミナー","url":"https://atnd.org/events/78596","shortener_url":null,"started_at":"2016-06-25T19:00:00.000+09:00","ended_at":"2016-06-25T21:00:00.000+09:00","limit_number":15,"address":"東京都港区台場1丁目9−1","place":"ヒルトン東京お台場","lat":35.6264,"lon":139.771,"state":"closed","id":null}]