[{"event_id":"25058","title":"【crash.academy　採用・育成担当者向けIT人材セミナー】1/27（水）17：00～麹町","url":"https://crashacademy.connpass.com/event/25058/","shortener_url":null,"started_at":"2016-01-27T17:00:00.000+09:00","ended_at":"2016-01-27T18:30:00.000+09:00","limit_number":4,"address":"東京都千代田区麹町3-3-4 KDX麹町ビル3F","place":"アクセリア株式会社","lat":35.6838,"lon":139.739,"state":"active","id":null},{"event_id":"23941","title":"kintone Café 沖縄 Vol.4","url":"https://kintonecafe-okinawa.connpass.com/event/23941/","shortener_url":null,"started_at":"2016-01-08T13:00:00.000+09:00","ended_at":"2016-01-08T16:00:00.000+09:00","limit_number":60,"address":"沖縄県那覇市字小禄1831番地1","place":"産業支援センター 306号室","lat":26.2029,"lon":127.662,"state":"active","id":null},{"event_id":"25854","title":"第18回Reactive Design Patterns読書会@西新宿","url":"https://readeffectiveakka.connpass.com/event/25854/","shortener_url":null,"started_at":"2016-01-28T19:00:00.000+09:00","ended_at":"2016-01-28T22:00:00.000+09:00","limit_number":6,"address":"東京都新宿区西新宿8-17-1(住友不動産新宿グランドタワー)","place":"TIS株式会社","lat":35.696,"lon":139.691,"state":"active","id":null},{"event_id":"25192","title":"第17回Reactive Design Patterns読書会@西新宿","url":"https://readeffectiveakka.connpass.com/event/25192/","shortener_url":null,"started_at":"2016-01-21T19:00:00.000+09:00","ended_at":"2016-01-21T22:00:00.000+09:00","limit_number":6,"address":"東京都新宿区西新宿8-17-1(住友不動産新宿グランドタワー)","place":"TIS株式会社","lat":35.696,"lon":139.691,"state":"active","id":null},{"event_id":"24652","title":"第16回Reactive Design Patterns読書会@西新宿","url":"https://readeffectiveakka.connpass.com/event/24652/","shortener_url":null,"started_at":"2016-01-07T19:00:00.000+09:00","ended_at":"2016-01-07T22:00:00.000+09:00","limit_number":6,"address":"東京都新宿区西新宿8-17-1(住友不動産新宿グランドタワー)","place":"TIS株式会社","lat":35.696,"lon":139.691,"state":"active","id":null},{"event_id":"23731","title":"Osaka_GlobalGameJam(大規模ゲームハッカソン_大阪会場)","url":"https://connpass.com/event/23731/","shortener_url":null,"started_at":"2016-01-29T11:00:00.000+09:00","ended_at":"2016-01-31T12:00:00.000+09:00","limit_number":60,"address":"大阪市北区大深町3-1","place":"グランフロント大阪 北館 7F ナレッジサロン","lat":34.7053,"lon":135.495,"state":"active","id":null},{"event_id":"24022","title":"Global Game Jam 2016 ドワンゴ会場@東銀座","url":"https://connpass.com/event/24022/","shortener_url":null,"started_at":"2016-01-29T07:00:00.000+09:00","ended_at":"2016-01-31T11:00:00.000+09:00","limit_number":70,"address":"東京都中央区築地1-13-1","place":"ドワンゴセミナールーム（銀座松竹スクエア13F）","lat":35.6683,"lon":139.769,"state":"active","id":null},{"event_id":"23907","title":"【無料】【初心者歓迎】女性向けプログラミング講座で本格iPhoneアプリを作ってみよう♡","url":"https://morei.connpass.com/event/23907/","shortener_url":null,"started_at":"2016-01-28T10:45:00.000+09:00","ended_at":"2016-01-28T13:00:00.000+09:00","limit_number":20,"address":"〒169-8333　東京都新宿区北新宿2-21-1　新宿フロントタワー  18F","place":"富士通クラウドテクノロジーズ","lat":35.696,"lon":139.689,"state":"active","id":null},{"event_id":"25672","title":"AITCオープンラボ: 第1回 機械学習勉強会","url":"https://aitc-openlab.connpass.com/event/25672/","shortener_url":null,"started_at":"2016-01-25T19:30:00.000+09:00","ended_at":"2016-01-25T21:30:00.000+09:00","limit_number":50,"address":"東京都新宿区西新宿七丁目20-1 (住友不動産西新宿ビル24F)","place":"リッチメディア","lat":35.6944,"lon":139.696,"state":"active","id":null},{"event_id":"25872","title":"Gopher Gala in Japan","url":"https://connpass.com/event/25872/","shortener_url":null,"started_at":"2016-01-23T02:00:00.000+09:00","ended_at":"2016-01-24T11:00:00.000+09:00","limit_number":40,"address":"〒107-0062 東京都港区南青山2-27-25オリックス南青山ビル 5F","place":"株式会社エウレカ セミナースペース","lat":35.6694,"lon":139.717,"state":"active","id":null},{"event_id":"23962","title":"【女性向け】【初心者歓迎】スイーツとプログラミングを同時に楽しもう♡","url":"https://morei.connpass.com/event/23962/","shortener_url":null,"started_at":"2016-01-21T11:00:00.000+09:00","ended_at":"2016-01-21T13:30:00.000+09:00","limit_number":10,"address":"〒166-8565東京都杉並区高円寺北2-3-17","place":"株式会社ヴァル研究所","lat":35.7061,"lon":139.651,"state":"active","id":null},{"event_id":"24328","title":"UX JAM in SENDAI","url":"https://uxmilk.connpass.com/event/24328/","shortener_url":null,"started_at":"2016-01-15T10:30:00.000+09:00","ended_at":"2016-01-15T13:30:00.000+09:00","limit_number":30,"address":"宮城県仙台市青葉区一番町四丁目6番1号　(第一生命タワービル 8階)","place":"株式会社メンバーズ　ウェブガーデン仙台","lat":38.264,"lon":140.872,"state":"active","id":null},{"event_id":"25167","title":"Osaka_GlobalGameJam(大規模ゲームハッカソン_バンタンゲームアカデミー大阪会場)","url":"https://connpass.com/event/25167/","shortener_url":null,"started_at":"2016-01-29T11:00:00.000+09:00","ended_at":"2016-01-31T12:00:00.000+09:00","limit_number":50,"address":"大阪府大阪市中央区西心斎橋2-3-12","place":"バンタンゲームアカデミー大阪校","lat":34.6699,"lon":135.499,"state":"active","id":null},{"event_id":"24327","title":"UX JAM -NEW YEAR UX RESOLUTION-","url":"https://uxmilk.connpass.com/event/24327/","shortener_url":null,"started_at":"2016-01-08T10:30:00.000+09:00","ended_at":"2016-01-08T13:00:00.000+09:00","limit_number":50,"address":"東京都中央区晴海1-8-10晴海アイランド トリトンスクエアオフィスタワーX 37階","place":"株式会社メンバーズ　ラウンジスペース","lat":35.6597,"lon":139.785,"state":"active","id":null},{"event_id":"24651","title":"【女性向け】【初心者歓迎】黒い画面(ターミナル)を使ってみよう♡","url":"https://sweet-swift-easy.connpass.com/event/24651/","shortener_url":null,"started_at":"2016-01-09T01:30:00.000+09:00","ended_at":"2016-01-09T04:00:00.000+09:00","limit_number":3,"address":"","place":"","lat":null,"lon":null,"state":"active","id":null},{"event_id":"24649","title":"KidsVenture IchigoJamプログラミングスクール","url":"https://connpass.com/event/24649/","shortener_url":null,"started_at":"2016-01-11T04:00:00.000+09:00","ended_at":"2016-01-11T08:00:00.000+09:00","limit_number":10,"address":"札幌市豊平区中の島1条1丁目7-20（中の島コムスクエアビル1F）","place":"ビットスター株式会社","lat":43.0381,"lon":141.361,"state":"active","id":null},{"event_id":"23847","title":"[大阪開催] DevOps ハッカソン","url":"https://devopsjp.connpass.com/event/23847/","shortener_url":null,"started_at":"2016-01-23T09:00:00.000+09:00","ended_at":"2016-01-24T17:00:00.000+09:00","limit_number":20,"address":"大阪府大阪市福島区福島5丁目6-16 (ラグザタワー ノースオフィス 5F)","place":"日本マイクロソフト株式会社関西支店セミナールーム","lat":34.6972,"lon":135.488,"state":"active","id":null},{"event_id":"74366","title":"第224回オフライン開発ミーティング","url":"https://atnd.org/events/74366","shortener_url":null,"started_at":"2016-01-31T01:00:00.000+09:00","ended_at":"2016-01-31T03:00:00.000+09:00","limit_number":null,"address":"東京都品川区大崎1-11-1","place":"ゲートシティ大崎B1アトリウムフリー座席","lat":35.6194,"lon":139.731,"state":"closed","id":null},{"event_id":"73954","title":"2016 Global Game Jam 特別企画：UNREAL ENGINE ハンズオン勉強会","url":"https://atnd.org/events/73954","shortener_url":null,"started_at":"2016-01-27T10:00:00.000+09:00","ended_at":"2016-01-28T18:00:00.000+09:00","limit_number":20,"address":"東京都千代田区外神田2丁目14−10 第2電波ビル","place":"サードウェーブ本社","lat":35.7025,"lon":139.769,"state":"closed","id":null},{"event_id":"74314","title":" Packers and Movers India Shows Practical Execution of Entire Shifting Progression","url":"https://atnd.org/events/74314","shortener_url":null,"started_at":"2016-01-25T17:30:00.000+09:00","ended_at":"2016-03-30T19:00:00.000+09:00","limit_number":598,"address":"http://www.shiftingsolutions.in/packers-and-movers-jamnagar.html","place":"http://www.shiftingsolutions.in/packers-and-movers-jaipur.html     ","lat":22.4707,"lon":70.0577,"state":"closed","id":null},{"event_id":"73869","title":"奥ノ谷圭祐（短パン社長）× 斉藤恵一 トークライブ「KAKUGO」","url":"https://atnd.org/events/73869","shortener_url":null,"started_at":"2016-01-25T04:00:00.000+09:00","ended_at":"2016-01-25T08:00:00.000+09:00","limit_number":30,"address":"愛知県名古屋市中区栄2-7-1","place":"JAMMIN'(ジャミン)@名古屋","lat":35.1672,"lon":136.9,"state":"closed","id":null},{"event_id":"73868","title":"奥ノ谷圭祐（短パン社長）× 斉藤恵一 トークライブ「KAKUGO」","url":"https://atnd.org/events/73868","shortener_url":null,"started_at":"2016-01-25T04:00:00.000+09:00","ended_at":"2016-01-25T08:00:00.000+09:00","limit_number":30,"address":"","place":"JAMMIN'(ジャミン)@","lat":null,"lon":null,"state":"closed","id":null},{"event_id":"74224","title":"第223回オフライン開発ミーティング","url":"https://atnd.org/events/74224","shortener_url":null,"started_at":"2016-01-24T01:00:00.000+09:00","ended_at":"2016-01-24T03:00:00.000+09:00","limit_number":null,"address":"東京都品川区大崎1-11-1","place":"ゲートシティ大崎B1アトリウムフリー座席","lat":35.6194,"lon":139.731,"state":"closed","id":null},{"event_id":"73820","title":"【現役ベテランミュージシャン好きな方向け】Jammin'スペシャルセッション2016","url":"https://atnd.org/events/73820","shortener_url":null,"started_at":"2016-01-23T10:30:00.000+09:00","ended_at":"2016-01-25T23:59:59.000+09:00","limit_number":25,"address":"東京都目黒区柿の木坂1-30-19 グレース柿の木坂2F","place":"ジャズバー　ジャミン","lat":35.6189,"lon":139.676,"state":"closed","id":null},{"event_id":"73975","title":"第222回オフライン開発ミーティング","url":"https://atnd.org/events/73975","shortener_url":null,"started_at":"2016-01-17T01:00:00.000+09:00","ended_at":"2016-01-17T03:00:00.000+09:00","limit_number":null,"address":"東京都品川区大崎1-11-1","place":"ゲートシティ大崎B1アトリウムフリー座席","lat":35.6194,"lon":139.731,"state":"closed","id":null},{"event_id":"72880","title":"第２回 UNREAL ENGINE4 名古屋 Meetup!! #ue4studynagoya","url":"https://atnd.org/events/72880","shortener_url":null,"started_at":"2016-01-16T05:00:00.000+09:00","ended_at":"2016-01-16T08:00:00.000+09:00","limit_number":34,"address":"名古屋市中区錦1−15−8 アミティエ錦第一ビル6F","place":"SHAREBASE.INC","lat":35.1689,"lon":136.892,"state":"closed","id":null},{"event_id":"73230","title":"ハードウェア・組み込み系勉強会「Qemb」#04 ","url":"https://atnd.org/events/73230","shortener_url":null,"started_at":"2016-01-16T01:00:00.000+09:00","ended_at":"2016-01-16T03:00:00.000+09:00","limit_number":30,"address":"熊本市中央区二の丸1番1-1号","place":"桜の馬場 城彩苑 多目的交流室","lat":32.8038,"lon":130.703,"state":"closed","id":null},{"event_id":"73420","title":"【KidsVenture】 IchigoJamプログラミングスクール","url":"https://atnd.org/events/73420","shortener_url":null,"started_at":"2016-01-11T04:00:00.000+09:00","ended_at":"2016-01-11T08:00:00.000+09:00","limit_number":10,"address":"札幌市豊平区中の島1条1丁目7-20 中の島コムスクエアビル1F","place":"ビットスター株式会社","lat":43.0381,"lon":141.361,"state":"closed","id":null},{"event_id":"73741","title":"第221回オフライン開発ミーティング","url":"https://atnd.org/events/73741","shortener_url":null,"started_at":"2016-01-10T01:00:00.000+09:00","ended_at":"2016-01-10T03:00:00.000+09:00","limit_number":null,"address":"東京都品川区大崎1-11-1","place":"ゲートシティ大崎B1アトリウムフリー座席","lat":35.6194,"lon":139.731,"state":"closed","id":null},{"event_id":"25700","title":"IHANet meeting 14 @名古屋","url":"https://ihanet.connpass.com/event/25700/","shortener_url":null,"started_at":"2016-01-23T04:00:00.000+09:00","ended_at":"2016-01-23T22:00:00.000+09:00","limit_number":10,"address":"愛知県名古屋市中川区八熊2-15-10","place":"プチホテル ニューひふみ","lat":35.1417,"lon":136.89,"state":"active","id":null},{"event_id":"23569","title":"もくもく温泉 #3","url":"https://mokumoku-onsen.connpass.com/event/23569/","shortener_url":null,"started_at":"2016-01-09T00:30:00.000+09:00","ended_at":"2016-01-11T09:00:00.000+09:00","limit_number":17,"address":"千葉県香取郡東庄町笹川い６２４","place":"土善旅館","lat":35.845,"lon":140.662,"state":"active","id":null},{"event_id":"19902","title":"Python mini hack-a-thon 雪山合宿 2016","url":"https://pyhack.connpass.com/event/19902/","shortener_url":null,"started_at":"2016-01-22T04:00:00.000+09:00","ended_at":"2016-01-24T07:00:00.000+09:00","limit_number":25,"address":"長野県須坂市大字仁礼峰の原高原3153-720","place":"ペンション マウンテンパパ","lat":36.5531,"lon":138.35,"state":"active","id":null},{"event_id":"72653","title":"情報科学若手の会冬の陣2016 #wakate2016w","url":"https://atnd.org/events/72653","shortener_url":null,"started_at":"2016-01-23T05:00:00.000+09:00","ended_at":"2016-01-23T09:00:00.000+09:00","limit_number":50,"address":"東京都新宿区西新宿4-33-4 住友不動産西新宿ビル4号館 6F","place":"さくらインターネット株式会社 西新宿セミナールーム","lat":35.6867,"lon":139.689,"state":"closed","id":null},{"event_id":"73862","title":"個人の成長にフォーカスする FRI WinterCamp 2016 開催のお知らせ(2/19～21(東京))","url":"https://atnd.org/events/73862","shortener_url":null,"started_at":"2016-01-19T01:00:00.000+09:00","ended_at":"2016-02-21T10:00:00.000+09:00","limit_number":null,"address":"東京都渋谷区代々木神園町3−1","place":"代々木 国立オリンピック記念 青少年総合センター","lat":35.6747,"lon":139.693,"state":"closed","id":null},{"event_id":"19826938908","title":"Nashville Software School Info Session","url":"https://www.eventbrite.com/e/nashville-software-school-info-session-tickets-19826938908","shortener_url":null,"started_at":"2016-01-19T23:30:00.000+09:00","ended_at":"2021-12-16T01:30:00.000+09:00","limit_number":null,"address":null,"place":"online","lat":null,"lon":null,"state":"active","id":null}]