[{"event_id":"59956","title":"【サポーターズCoLab勉強会】エンジニアのためのブログ講座","url":"https://supporterz-seminar.connpass.com/event/59956/","shortener_url":null,"started_at":"2017-07-11T19:30:00.000+09:00","ended_at":"2017-07-11T21:00:00.000+09:00","limit_number":40,"address":"東京都渋谷区道玄坂1-9-5","place":"渋谷スクエアA","lat":35.6573,"lon":139.699,"state":"active","id":null},{"event_id":"58659","title":"IoTビジネス共創ラボ 第4回勉強会","url":"https://iotbizlabo.connpass.com/event/58659/","shortener_url":null,"started_at":"2017-07-03T07:30:00.000+09:00","ended_at":"2017-07-03T12:00:00.000+09:00","limit_number":290,"address":"東京都港区港南 2-16-3 　（品川グランドセントラルタワー ）","place":"日本マイクロソフト 品川本社 2F（受付裏手のセミナー受付までお越し下さい）","lat":35.6266,"lon":139.741,"state":"active","id":null},{"event_id":"57236","title":"例のカノジョ ハッカソン","url":"https://vrkanojo.connpass.com/event/57236/","shortener_url":"https://goo.gl/piinjk","started_at":"2017-07-09T08:00:00.000+09:00","ended_at":"2017-07-09T22:00:00.000+09:00","limit_number":65,"address":"","place":"都内某所","lat":null,"lon":null,"state":"active","id":null},{"event_id":"59868","title":"【サポーターズCoLab勉強会】エンジニアの事業との付き合い方","url":"https://supporterz-seminar.connpass.com/event/59868/","shortener_url":null,"started_at":"2017-07-04T19:30:00.000+09:00","ended_at":"2017-07-04T21:00:00.000+09:00","limit_number":20,"address":"東京都渋谷区道玄坂1-9-5","place":"渋谷スクエアA","lat":35.6573,"lon":139.699,"state":"active","id":null},{"event_id":"59797","title":"【サポーターズCoLab勉強会】WebエンジニアのためのMySQL入門","url":"https://supporterz-seminar.connpass.com/event/59797/","shortener_url":null,"started_at":"2017-07-06T19:30:00.000+09:00","ended_at":"2017-07-06T21:00:00.000+09:00","limit_number":20,"address":"東京都渋谷区道玄坂1-9-5","place":"渋谷スクエアA","lat":35.6573,"lon":139.699,"state":"active","id":null},{"event_id":"59798","title":"【サポーターズCoLab勉強会】エンジニアのためだけの英語入門","url":"https://supporterz-seminar.connpass.com/event/59798/","shortener_url":null,"started_at":"2017-07-07T19:30:00.000+09:00","ended_at":"2017-07-07T21:00:00.000+09:00","limit_number":20,"address":"東京都渋谷区道玄坂1-9-5","place":"渋谷スクエアA","lat":35.6573,"lon":139.699,"state":"active","id":null},{"event_id":"59611","title":"【勉強会】Rails×Vue.js Jqueryで実現されている事をVue.jsでやってみる","url":"https://supporterz-seminar.connpass.com/event/59611/","shortener_url":null,"started_at":"2017-07-05T19:30:00.000+09:00","ended_at":"2017-07-05T21:00:00.000+09:00","limit_number":20,"address":"東京都渋谷区道玄坂1-9-5","place":"渋谷スクエアA","lat":35.6573,"lon":139.699,"state":"active","id":null},{"event_id":"59668","title":"第1回Fukuoka Raspberry Pi JAM","url":"https://fukuras.connpass.com/event/59668/","shortener_url":"https://goo.gl/BJ6C9e","started_at":"2017-07-10T10:30:00.000+09:00","ended_at":"2017-07-10T12:30:00.000+09:00","limit_number":15,"address":"福岡県福岡市博多区博多駅東1-12-17 (オフィスニューガイア博多駅前3F)","place":"スタートアップカフェBASES","lat":33.5909,"lon":130.423,"state":"active","id":null},{"event_id":"59281","title":"【大阪】XRミーティング #5【AR/MR/SR/VR】","url":"https://osaka-driven-dev.connpass.com/event/59281/","shortener_url":null,"started_at":"2017-07-11T19:00:00.000+09:00","ended_at":"2017-07-11T21:30:00.000+09:00","limit_number":15,"address":"大阪市中央区本町4丁目7-7-303","place":"Kiiiya Hommachi","lat":34.6849,"lon":135.498,"state":"active","id":null},{"event_id":"57977","title":"親子で教育ハック！ R-Stack Hack Day 2017","url":"https://r-stack.connpass.com/event/57977/","shortener_url":null,"started_at":"2017-07-22T09:30:00.000+09:00","ended_at":"2017-07-22T21:30:00.000+09:00","limit_number":40,"address":"東京都品川区大崎1-2-1","place":"株式会社日立システムズ 本社","lat":35.6219,"lon":139.728,"state":"active","id":null},{"event_id":"58957","title":"こどもIT教室 Studuinoで車型ロボットを動かそう！","url":"https://r-stack.connpass.com/event/58957/","shortener_url":null,"started_at":"2017-07-22T10:00:00.000+09:00","ended_at":"2017-07-22T15:30:00.000+09:00","limit_number":20,"address":"東京都品川区大崎1-2-1","place":"株式会社日立システムズ 本社","lat":35.6219,"lon":139.728,"state":"active","id":null},{"event_id":"57779","title":"KORGのlittle Bitsを使って、みんなが楽しめる楽器を作ろう","url":"https://connpass.com/event/57779/","shortener_url":null,"started_at":"2017-07-01T00:00:00.000+09:00","ended_at":"2017-07-02T09:00:00.000+09:00","limit_number":20,"address":"京都市上京区福大明神町128","place":"KRP町家スタジオ","lat":35.0255,"lon":135.751,"state":"active","id":null},{"event_id":"57187","title":"例のカノジョ ハッカソン","url":"https://vrkanojo.connpass.com/event/57187/","shortener_url":"https://goo.gl/glT8Os","started_at":"2017-07-09T08:00:00.000+09:00","ended_at":"2017-07-09T22:00:00.000+09:00","limit_number":10,"address":"","place":"都内某所","lat":null,"lon":null,"state":"active","id":null},{"event_id":"60825","title":"【初開催】Startup Weekend 夕張","url":"https://swyubari.doorkeeper.jp/events/60825","shortener_url":null,"started_at":"2017-07-14T18:00:00.000+09:00","ended_at":"2017-07-16T21:00:00.000+09:00","limit_number":25,"address":"北海道夕張市本町５丁目５２番地","place":"ゆうばり共生型ファーム","lat":43.0544,"lon":141.974,"state":"active","id":null},{"event_id":"61412","title":"Code for Numazu 第13回定例（朝市だよ！全員集合）","url":"https://0168e91711e4c480d710c70399.doorkeeper.jp/events/61412","shortener_url":null,"started_at":"2017-07-01T08:30:00.000+09:00","ended_at":"2017-07-01T11:00:00.000+09:00","limit_number":10,"address":"静岡県沼津市町方町105 パリパリ食品","place":"","lat":35.0983,"lon":138.857,"state":"active","id":null},{"event_id":"61478","title":"高校生Rubyプログラミング教室　講師・アシスタント養成講座","url":"https://iwami-ict.doorkeeper.jp/events/61478","shortener_url":null,"started_at":"2017-07-01T00:00:00.000+09:00","ended_at":"2017-07-01T07:00:00.000+09:00","limit_number":15,"address":"島根県益田市元町11−26 市立市民学習センター","place":"益田市民学習センター 104号室","lat":34.6747,"lon":131.841,"state":"active","id":null},{"event_id":"61763","title":"Wikipedia Town in 沼津 #3　夏休み特別編（Wikipedia編集者向け）","url":"https://0168e91711e4c480d710c70399.doorkeeper.jp/events/61763","shortener_url":null,"started_at":"2017-07-27T00:45:00.000+09:00","ended_at":"2017-07-27T08:00:00.000+09:00","limit_number":15,"address":"静岡県沼津市大諏訪46−1 片浜小屋内運動場","place":"片浜地区センター","lat":35.1108,"lon":138.827,"state":"active","id":null},{"event_id":"61764","title":"Wikipedia Town 沼津 #3　夏休み特別編　地域の子供達と古墳を学ぼう！","url":"https://0168e91711e4c480d710c70399.doorkeeper.jp/events/61764","shortener_url":null,"started_at":"2017-07-27T00:45:00.000+09:00","ended_at":"2017-07-27T08:00:00.000+09:00","limit_number":20,"address":"静岡県沼津市大諏訪46−1 片浜小屋内運動場","place":"片浜地区センター","lat":35.1108,"lon":138.827,"state":"active","id":null},{"event_id":"61396","title":"Startup Weekend夕張 プレイベント #ハッカソンプロダクトのその後 と #非エンジニアのチームビルディング","url":"https://swyubari.doorkeeper.jp/events/61396","shortener_url":"https://goo.gl/Qnst2U","started_at":"2017-07-02T04:00:00.000+09:00","ended_at":"2017-07-02T07:00:00.000+09:00","limit_number":40,"address":"北海道札幌市中央区北1条西2丁目1−7 札幌市役所","place":"株式会社インフィニットループ　札幌本社","lat":43.0621,"lon":141.354,"state":"active","id":null},{"event_id":"88549","title":"Unity Ads ミートアップ #10 （大阪）","url":"https://atnd.org/events/88549","shortener_url":null,"started_at":"2017-07-01T08:30:00.000+09:00","ended_at":"2017-07-01T12:00:00.000+09:00","limit_number":40,"address":"大阪市中央区西心斎橋1-5-5 アーバンBLD心斎橋9階-C号","place":"LINE-SCHOOL　心斎橋セミナールーム","lat":34.6721,"lon":135.5,"state":"closed","id":null},{"event_id":"59790","title":"タピアアイデアソン vol.1「2020年の暮らしと学校を考える」","url":"https://mjirobotics.connpass.com/event/59790/","shortener_url":"https://goo.gl/A5cKNp","started_at":"2017-07-17T01:00:00.000+09:00","ended_at":"2017-07-17T11:00:00.000+09:00","limit_number":30,"address":"〒104-8282 東京都中央区新川2丁目4番7号","place":"株式会社内田洋行「ユビキタス協創広場 CANVAS」","lat":35.6762,"lon":139.78,"state":"active","id":null},{"event_id":"60087","title":"【サポーターズCoLab勉強会】実践Docker","url":"https://supporterz-seminar.connpass.com/event/60087/","shortener_url":null,"started_at":"2017-07-12T19:30:00.000+09:00","ended_at":"2017-07-12T21:00:00.000+09:00","limit_number":20,"address":"東京都渋谷区道玄坂1-9-5","place":"渋谷スクエアA","lat":35.6573,"lon":139.699,"state":"active","id":null},{"event_id":"60460","title":"CI\u0026T Hackathon for 2020 Olympics!","url":"https://ciandt-hackathon.connpass.com/event/60460/","shortener_url":"https://goo.gl/bYTjpm","started_at":"2017-07-15T00:30:00.000+09:00","ended_at":"2017-07-15T10:00:00.000+09:00","limit_number":20,"address":"東京都港区北青山2-7-26 (Landwork青山ビル 会場9階)","place":"CROSSCOOP青山セミナールーム","lat":35.6715,"lon":139.717,"state":"active","id":null},{"event_id":"58983","title":"第一回　PCNひろしま　こども向けプログラミング教室","url":"https://pcn-hiroshima.connpass.com/event/58983/","shortener_url":null,"started_at":"2017-07-30T04:00:00.000+09:00","ended_at":"2017-07-30T06:30:00.000+09:00","limit_number":12,"address":"広島市中区袋町６番３６号","place":"広島市まちづくり市民交流プラザ　会議室Ｃ","lat":34.3916,"lon":132.458,"state":"active","id":null},{"event_id":"60707","title":"生駒開催：子ども向けプログラミング道場（No.36）","url":"https://coderdojo-nara-ikoma.connpass.com/event/60707/","shortener_url":null,"started_at":"2017-07-01T13:00:00.000+09:00","ended_at":"2017-07-01T16:00:00.000+09:00","limit_number":10,"address":"奈良県生駒市元町1丁目7番6号","place":"市民活動推進センターららポート","lat":34.6919,"lon":135.698,"state":"active","id":null},{"event_id":"60052","title":"《ハッカソン》GameJam向けツールを作ろう！","url":"https://ioio.connpass.com/event/60052/","shortener_url":"https://goo.gl/XsqswF","started_at":"2017-07-17T04:00:00.000+09:00","ended_at":"2017-07-17T11:00:00.000+09:00","limit_number":20,"address":"東京都千代田区神田岩本町1-1(岩本町ビル7階)","place":"Ｗ+","lat":35.6962,"lon":139.775,"state":"active","id":null},{"event_id":"59893","title":"地域創生ハッカソン-精華町シティプロモーション-","url":"https://connpass.com/event/59893/","shortener_url":"https://goo.gl/NTMn1j","started_at":"2017-07-22T01:00:00.000+09:00","ended_at":"2017-07-23T10:30:00.000+09:00","limit_number":40,"address":"京都府相楽郡精華町光台1-7","place":"けいはんなプラザ","lat":34.7447,"lon":135.765,"state":"active","id":null},{"event_id":"60504","title":"おふろcafé × はじめてのハッカソン Vol.26〜おふろに入って優雅にリラックス〜","url":"https://hackathon.connpass.com/event/60504/","shortener_url":"https://goo.gl/Y84kAv","started_at":"2017-07-15T01:30:00.000+09:00","ended_at":"2017-07-15T12:30:00.000+09:00","limit_number":10,"address":"埼玉県熊谷市久保島939","place":"おふろcafé bivouac（ビバーク）","lat":36.171,"lon":139.345,"state":"active","id":null},{"event_id":"60241","title":"【エンジニア交流会】あのサービスはどうやって生まれたのか？","url":"https://gaiax.connpass.com/event/60241/","shortener_url":null,"started_at":"2017-07-11T19:30:00.000+09:00","ended_at":"2017-07-11T22:00:00.000+09:00","limit_number":42,"address":"東京都千代田区平河町2-5-3　Nagatacho GRID 地下1Fイベントスペース","place":"Nagatacho GRID Space0（地下1F）","lat":35.6798,"lon":139.74,"state":"active","id":null},{"event_id":"60403","title":"智恵の和勉強会","url":"https://connpass.com/event/60403/","shortener_url":null,"started_at":"2017-07-01T04:00:00.000+09:00","ended_at":"2017-07-01T08:00:00.000+09:00","limit_number":null,"address":"東京都港区港南 2-16-3 品川グランドセントラルタワー","place":"マイクロソフト品川本社","lat":35.6267,"lon":139.74,"state":"active","id":null},{"event_id":"60363","title":"【サポーターズCoLab交流会】14卒エンジニアが4年目の立ち位置を確かめる会【ピザ＆寿司あり】","url":"https://supporterz-seminar.connpass.com/event/60363/","shortener_url":null,"started_at":"2017-07-14T20:00:00.000+09:00","ended_at":"2017-07-14T22:00:00.000+09:00","limit_number":30,"address":"東京都渋谷区神泉町8-16 渋谷ファーストプレイス 8F","place":"渋谷ファーストプレイス","lat":35.6553,"lon":139.694,"state":"active","id":null},{"event_id":"59819","title":"We Are PureScripters! #1 ハンズオン","url":"https://weps.connpass.com/event/59819/","shortener_url":null,"started_at":"2017-07-18T19:30:00.000+09:00","ended_at":"2017-07-18T22:00:00.000+09:00","limit_number":30,"address":"東京都渋谷区道玄坂2-11-1 G-SQUARE 10F","place":"21Cafe","lat":35.6579,"lon":139.696,"state":"active","id":null},{"event_id":"60278","title":"【サポーターズCoLab勉強会】機械学習わからない人がチョットワカルになるまでの軌跡","url":"https://supporterz-seminar.connpass.com/event/60278/","shortener_url":null,"started_at":"2017-07-12T19:30:00.000+09:00","ended_at":"2017-07-12T21:00:00.000+09:00","limit_number":20,"address":"東京都渋谷区渋谷3-12-18","place":"渋谷南東急ビル2F","lat":35.6573,"lon":139.699,"state":"active","id":null},{"event_id":"60161","title":"Sota講習会 【Vstone Magicを始めよう】 Part 3（有料）","url":"https://sota.connpass.com/event/60161/","shortener_url":null,"started_at":"2017-07-07T19:00:00.000+09:00","ended_at":"2017-07-07T19:50:00.000+09:00","limit_number":4,"address":"東京都千代田区外神田1-9-9 内田ビル4F","place":"ヴイストン ロボットセンター秋葉原店","lat":35.6987,"lon":139.77,"state":"active","id":null},{"event_id":"89118","title":"【要事前決済】第7回ドロンソン「ドローン × 鉄道 ＝ 鉄道の未来」","url":"https://atnd.org/events/89118","shortener_url":null,"started_at":"2017-07-08T03:00:00.000+09:00","ended_at":"2017-07-08T08:00:00.000+09:00","limit_number":20,"address":"秋田県由利本荘市矢島町七日町羽坂","place":"由利高原鉄道　矢島駅","lat":39.2292,"lon":140.138,"state":"closed","id":null},{"event_id":"59971","title":"Dangerハッカソン #1","url":"https://testnight.connpass.com/event/59971/","shortener_url":"https://goo.gl/iRfZoE","started_at":"2017-07-31T10:00:00.000+09:00","ended_at":"2017-07-31T13:00:00.000+09:00","limit_number":30,"address":"東京都渋谷区渋谷2-21-1 ヒカリエ21F","place":"株式会社ディー・エヌ・エー 21F","lat":35.6591,"lon":139.704,"state":"active","id":null},{"event_id":"61039","title":"UX MILK Workstyle 07 feat. Members Group","url":"https://uxmilk.connpass.com/event/61039/","shortener_url":null,"started_at":"2017-07-13T10:30:00.000+09:00","ended_at":"2017-07-13T12:45:00.000+09:00","limit_number":210,"address":"東京都中央区晴海1-8-10晴海アイランド トリトンスクエアオフィスタワーX 37階","place":"株式会社メンバーズ　ラウンジスペース","lat":35.6597,"lon":139.785,"state":"active","id":null},{"event_id":"61061","title":"One JAPANハッカソン　各社人事・知財担当者向け説明会","url":"https://onejapanhackathon.connpass.com/event/61061/","shortener_url":"https://goo.gl/MfCQKg","started_at":"2017-07-07T10:00:00.000+09:00","ended_at":"2017-07-07T12:00:00.000+09:00","limit_number":80,"address":"神奈川県川崎市中原区上小田中４丁目１(富士通研究所)","place":"富士通研究所","lat":35.5828,"lon":139.64,"state":"active","id":null},{"event_id":"89259","title":"第279回 よちよちAndroid オフライン開発ミーティング in 大崎","url":"https://atnd.org/events/89259","shortener_url":null,"started_at":"2017-07-02T01:00:00.000+09:00","ended_at":"2017-07-02T03:00:00.000+09:00","limit_number":null,"address":"東京都品川区大崎1-11-1","place":"ゲートシティ大崎B1アトリウムフリー座席","lat":35.6194,"lon":139.731,"state":"closed","id":null},{"event_id":"89246","title":"第24回よちよちAndroid名古屋支部オフライン開発ミーティング","url":"https://atnd.org/events/89246","shortener_url":null,"started_at":"2017-07-02T00:00:00.000+09:00","ended_at":"2017-07-02T03:00:00.000+09:00","limit_number":null,"address":"名古屋市中区栄三丁目18番1号 ナディアパーク デザインセンタービル6階","place":"名古屋市市民活動推進センター","lat":35.1654,"lon":136.905,"state":"closed","id":null},{"event_id":"57561","title":"SORACOM Meetup 広島","url":"https://soracom-ug-hiroshima.connpass.com/event/57561/","shortener_url":null,"started_at":"2017-07-21T19:00:00.000+09:00","ended_at":"2017-07-21T21:00:00.000+09:00","limit_number":30,"address":"広島県広島市中区袋町６−３６","place":"広島市まちづくり市民交流プラザ 北棟研修室B","lat":34.3916,"lon":132.458,"state":"active","id":null},{"event_id":"60996","title":"ショッカソン2017　機材ワークショップ　超音波浮揚装置製作","url":"https://tmcn.connpass.com/event/60996/","shortener_url":"https://goo.gl/e3Vhk3","started_at":"2017-07-22T13:30:00.000+09:00","ended_at":"2017-07-22T20:00:00.000+09:00","limit_number":15,"address":"東京都世田谷区駒沢1-23-1","place":"駒澤大学","lat":35.6289,"lon":139.658,"state":"active","id":null},{"event_id":"61355","title":"南島原ITナイト＠東京Vol.3 「南島原ローカルITサービス創発塾」説明会＆トークセッション","url":"https://connpass.com/event/61355/","shortener_url":null,"started_at":"2017-07-18T10:00:00.000+09:00","ended_at":"2017-07-18T13:00:00.000+09:00","limit_number":40,"address":"東京都千代田区丸の内2-5-1 (丸の内二丁目ビル6F 611区)","place":"TIP*S（ティップス・中小企業基盤整備機構）","lat":35.68,"lon":139.763,"state":"active","id":null},{"event_id":"61424","title":"基礎から学べる最新CSS講座~スマホ向けwebページ構築のテクニックを学ぼう！~","url":"https://modelor-school.connpass.com/event/61424/","shortener_url":null,"started_at":"2017-07-14T19:30:00.000+09:00","ended_at":"2017-07-14T21:30:00.000+09:00","limit_number":12,"address":"京都市左京区田中下柳町7-2","place":"かぜのね","lat":35.0299,"lon":135.774,"state":"active","id":null},{"event_id":"61045","title":"GeoDev Meetup #8 - 地図データ可視化・アプリ作成もくもく会","url":"https://geodev.connpass.com/event/61045/","shortener_url":null,"started_at":"2017-07-19T19:00:00.000+09:00","ended_at":"2017-07-19T21:00:00.000+09:00","limit_number":25,"address":"東京都千代田区平河町2-7-1（塩崎ビル）","place":"ESRIジャパン（株）5Fセミナールーム","lat":35.6792,"lon":139.741,"state":"active","id":null},{"event_id":"61327","title":"第3回全脳アーキテクチャハッカソン説明会","url":"https://wbai.connpass.com/event/61327/","shortener_url":"https://goo.gl/mQQE8t","started_at":"2017-07-23T06:00:00.000+09:00","ended_at":"2017-07-23T07:30:00.000+09:00","limit_number":50,"address":"東京都文京区本郷5-24-5 角川本郷ビル6F","place":"φ cafe","lat":35.7092,"lon":139.761,"state":"active","id":null},{"event_id":"89374","title":"第25回よちよちAndroid名古屋支部オフライン開発ミーティング","url":"https://atnd.org/events/89374","shortener_url":null,"started_at":"2017-07-09T00:00:00.000+09:00","ended_at":"2017-07-09T03:00:00.000+09:00","limit_number":null,"address":"名古屋市中区栄三丁目18番1号 ナディアパーク デザインセンタービル6階","place":"名古屋市市民活動推進センター","lat":35.1654,"lon":136.905,"state":"closed","id":null},{"event_id":"89407","title":"第280回 よちよちAndroid オフライン開発ミーティング in 大崎","url":"https://atnd.org/events/89407","shortener_url":null,"started_at":"2017-07-09T01:00:00.000+09:00","ended_at":"2017-07-09T03:00:00.000+09:00","limit_number":null,"address":"東京都品川区大崎1-11-1","place":"ゲートシティ大崎B1アトリウムフリー座席","lat":35.6194,"lon":139.731,"state":"closed","id":null},{"event_id":"89433","title":"[未経験からAIエンジニアを目指す] 　人工知能入門講座　 [定員10名　限定 　　無料説明会]","url":"https://atnd.org/events/89433","shortener_url":null,"started_at":"2017-07-08T15:00:00.000+09:00","ended_at":"2017-07-08T17:00:00.000+09:00","limit_number":5,"address":"東京都渋谷区鶯谷町3−3 サウスゲート渋谷ビル","place":"\tStudy-AI事務局(渋谷駅7分)","lat":35.6542,"lon":139.704,"state":"closed","id":null},{"event_id":"61570","title":"Apitore WebAPIハンズオン Vol.3 ＠東京","url":"https://apitore.connpass.com/event/61570/","shortener_url":null,"started_at":"2017-07-24T19:15:00.000+09:00","ended_at":"2017-07-24T22:15:00.000+09:00","limit_number":12,"address":"東京都中央区京橋1-1-10 (西勘本店ビル5階)","place":"赤坂国際法律会計事務所","lat":35.679,"lon":139.771,"state":"active","id":null},{"event_id":"61245","title":"UX JAM 19","url":"https://uxmilk.connpass.com/event/61245/","shortener_url":"https://goo.gl/gEy71d","started_at":"2017-07-20T10:30:00.000+09:00","ended_at":"2017-07-20T13:00:00.000+09:00","limit_number":200,"address":"東京都渋谷区桜丘町26-1 セルリアンタワー (11階)","place":"シナジーカフェ GMO Yours","lat":35.6563,"lon":139.7,"state":"active","id":null},{"event_id":"61298","title":"SpaceApps Tokyo 2017 打ち上げLT大会","url":"https://spaceappsjapan.connpass.com/event/61298/","shortener_url":null,"started_at":"2017-07-13T19:00:00.000+09:00","ended_at":"2017-07-13T22:00:00.000+09:00","limit_number":30,"address":"東京都渋谷区宇田川町33-12 (J＋RビルサイドR 8F)","place":"Bar Jack","lat":35.661,"lon":139.697,"state":"active","id":null},{"event_id":"61770","title":"[未経験からAIエンジニアを目指す] 　人工知能入門講座　 [定員10名　限定]","url":"https://study-ai.connpass.com/event/61770/","shortener_url":null,"started_at":"2017-07-14T19:00:00.000+09:00","ended_at":"2017-07-14T21:00:00.000+09:00","limit_number":10,"address":"東京都新宿区西新宿７－１－７(新宿ダイカンプラザＡ館610号室)","place":"コモンズ新宿西口会議室","lat":35.6945,"lon":139.699,"state":"active","id":null},{"event_id":"61708","title":"PyHorse 2nd Lap！！","url":"https://pyhorse.connpass.com/event/61708/","shortener_url":null,"started_at":"2017-07-22T10:00:00.000+09:00","ended_at":"2017-07-22T17:00:00.000+09:00","limit_number":null,"address":"群馬県桐生市天神町１丁目５","place":"群馬大学桐生キャンパスプロジェクト棟p203","lat":36.4218,"lon":139.348,"state":"active","id":null},{"event_id":"61853","title":"ardino開発入門およびアイデアソン","url":"https://jagkumamoto.connpass.com/event/61853/","shortener_url":"https://goo.gl/Jc3dEM","started_at":"2017-07-17T04:30:00.000+09:00","ended_at":"2017-07-17T08:00:00.000+09:00","limit_number":null,"address":"熊本県熊本市中央区大江本町５－１","place":"熊本大学薬学部　　宮本記念館　１階　カンファレンスルーム","lat":32.7945,"lon":130.721,"state":"active","id":null},{"event_id":"61840","title":"Amazon Dash  Button ハッカソン","url":"https://connpass.com/event/61840/","shortener_url":"https://goo.gl/YYHxSb","started_at":"2017-07-23T13:00:00.000+09:00","ended_at":"2017-07-23T17:00:00.000+09:00","limit_number":6,"address":"東京都中央区日本橋人形町２丁目１５−１６","place":"株式会社Minato","lat":35.6847,"lon":139.786,"state":"active","id":null},{"event_id":"61316","title":"[秋葉原] 第9回 ゆるふわIoT電子工作入門","url":"https://weeyble-iot.connpass.com/event/61316/","shortener_url":null,"started_at":"2017-07-16T13:00:00.000+09:00","ended_at":"2017-07-16T18:00:00.000+09:00","limit_number":10,"address":"東京都千代田区神田須田町２丁目１９−２３ (野村第３ビル ４階)","place":"コワーキングスペース秋葉原Weeyble","lat":35.6966,"lon":139.772,"state":"active","id":null},{"event_id":"61062","title":"\u003c\u003cアイデアソン開催\u003e\u003eHEPT アイデアソン \u0026 ハッカソン 2017","url":"https://hept.connpass.com/event/61062/","shortener_url":"https://goo.gl/rD4w2e","started_at":"2017-07-29T00:30:00.000+09:00","ended_at":"2017-07-30T07:30:00.000+09:00","limit_number":30,"address":"静岡県浜松市中区城北3-5-1","place":"静岡大学情報学部","lat":34.7249,"lon":137.718,"state":"active","id":null},{"event_id":"61947","title":"はじめてでも絶対作れる！webデザイン入門講座","url":"https://modelor-school.connpass.com/event/61947/","shortener_url":null,"started_at":"2017-07-21T21:30:00.000+09:00","ended_at":"2017-07-21T22:00:00.000+09:00","limit_number":12,"address":"〒606-8204 京都市左京区田中下柳町7-2","place":"かぜのね","lat":35.0299,"lon":135.774,"state":"active","id":null},{"event_id":"62039","title":"ニートハッカソン","url":"https://connpass.com/event/62039/","shortener_url":"https://goo.gl/MLykZY","started_at":"2017-07-18T15:00:00.000+09:00","ended_at":"2017-07-18T18:00:00.000+09:00","limit_number":null,"address":"〒181-0013 東京都三鷹市下連雀3-22-15 2階","place":"Mitaka Cafe Hammock","lat":35.7005,"lon":139.562,"state":"active","id":null},{"event_id":"62182","title":"[未経験からAIエンジニアを目指す] 　人工知能入門講座　 [定員10名　限定]","url":"https://study-ai.connpass.com/event/62182/","shortener_url":null,"started_at":"2017-07-15T15:00:00.000+09:00","ended_at":"2017-07-15T16:00:00.000+09:00","limit_number":10,"address":"東京都中央区八重洲2丁目2 日本酒類販売新八重洲口ビル","place":"スペイシー会議室　セミナールームC","lat":35.6795,"lon":139.769,"state":"active","id":null},{"event_id":"62167","title":"JPHACKS2017スポンサー検討企業様向け開催説明会","url":"https://jphacks.connpass.com/event/62167/","shortener_url":null,"started_at":"2017-07-26T18:00:00.000+09:00","ended_at":"2017-07-26T19:30:00.000+09:00","limit_number":30,"address":"文京区本郷7-3-1","place":"東京大学工学部2号館 北棟 10F 電気系会議室5","lat":35.7121,"lon":139.763,"state":"active","id":null},{"event_id":"89587","title":"第281回 よちよちAndroid オフライン開発ミーティング in 大崎","url":"https://atnd.org/events/89587","shortener_url":null,"started_at":"2017-07-16T01:00:00.000+09:00","ended_at":"2017-07-16T03:00:00.000+09:00","limit_number":null,"address":"東京都品川区大崎1-11-1","place":"ゲートシティ大崎B1アトリウムフリー座席","lat":35.6194,"lon":139.731,"state":"closed","id":null},{"event_id":"62223","title":"TOKYO CS JAM #12 〜リクルート×メルカリ CSのホンネのところとホントのところ〜","url":"https://csjam.connpass.com/event/62223/","shortener_url":"https://goo.gl/Kn6bWW","started_at":"2017-07-26T10:00:00.000+09:00","ended_at":"2017-07-26T12:30:00.000+09:00","limit_number":40,"address":"東京都港区六本木6-10-1（六本木ヒルズ森タワー18F）","place":"株式会社メルカリ","lat":35.6604,"lon":139.729,"state":"active","id":null},{"event_id":"62398","title":"一緒に！グラレコ！初級編","url":"https://0168e91711e4c480d710c70399.doorkeeper.jp/events/62398","shortener_url":null,"started_at":"2017-07-25T13:30:00.000+09:00","ended_at":"2017-07-25T16:00:00.000+09:00","limit_number":12,"address":"静岡県沼津市日の出町1−31","place":"サンウェル沼津","lat":35.11,"lon":138.867,"state":"active","id":null},{"event_id":"61870","title":"【TwilioJP-UG 札幌 第7回】Twilio SIGNAL報告会2017 in 札幌","url":"https://twiliojp-ug.doorkeeper.jp/events/61870","shortener_url":null,"started_at":"2017-07-29T13:30:00.000+09:00","ended_at":"2017-07-29T17:30:00.000+09:00","limit_number":30,"address":"北海道札幌市中央区南1条西10丁目1 SDDビル","place":"システムデザイン開発株式会社 セミナールーム(2階)","lat":43.0573,"lon":141.343,"state":"active","id":null},{"event_id":"62421","title":"【第一弾】スタートアップの始め方（※SW大阪プレイベント）","url":"https://swosaka.doorkeeper.jp/events/62421","shortener_url":null,"started_at":"2017-07-29T13:00:00.000+09:00","ended_at":"2017-07-29T17:15:00.000+09:00","limit_number":20,"address":"大阪府大阪市北区鶴野町1 関西大学梅田キャンパス","place":"Startup Cafe Osaka","lat":34.7063,"lon":135.501,"state":"active","id":null},{"event_id":"62530","title":"優勝して台湾に行こう！４カ国同時開催のハッカソン『Asia Open Data Hackathon』【インプット＆アイデアソンin Tokyo】","url":"https://hackcamp.doorkeeper.jp/events/62530","shortener_url":"https://goo.gl/5GxTnQ","started_at":"2017-07-22T14:30:00.000+09:00","ended_at":"2017-07-22T19:00:00.000+09:00","limit_number":50,"address":"東京都千代田区霞が関1丁目4 桜田通り","place":"SENQ霞ヶ関","lat":35.6709,"lon":139.75,"state":"active","id":null},{"event_id":"62539","title":"優勝して台湾に行こう！４カ国同時開催のハッカソン『Asia Open Data Hackathon』【インプット＆アイデアソンin Osaka】","url":"https://hackcamp.doorkeeper.jp/events/62539","shortener_url":"https://goo.gl/kmU72b","started_at":"2017-07-22T18:00:00.000+09:00","ended_at":"2017-07-22T21:00:00.000+09:00","limit_number":30,"address":"大阪府大阪市阿倍野区阿倍野筋1丁目1−43","place":"あべのハルカス","lat":34.6459,"lon":135.514,"state":"active","id":null},{"event_id":"62707","title":"子供達がCoderDojoで利用するテキストの翻訳を一緒にしませんか？","url":"https://coderdojo-nishinomiya.doorkeeper.jp/events/62707","shortener_url":null,"started_at":"2017-07-15T14:00:00.000+09:00","ended_at":"2017-07-15T17:00:00.000+09:00","limit_number":5,"address":"大阪府大阪市浪速区難波中2丁目6−17","place":"コワーキングラボ「Co:Labo難波」","lat":34.6624,"lon":135.503,"state":"active","id":null},{"event_id":"62809","title":"【SWTokyo@東京理科大プレイベント 】学生起業家トークセッション","url":"https://swtokyo.doorkeeper.jp/events/62809","shortener_url":null,"started_at":"2017-07-19T19:00:00.000+09:00","ended_at":"2017-07-19T21:00:00.000+09:00","limit_number":40,"address":"東京都千代田区富士見1丁目11−2 東京理科大学神楽坂キャンパス富士見校舎","place":"東京理科大学　富士見校舎　404教室","lat":35.6964,"lon":139.746,"state":"active","id":null},{"event_id":"89609","title":"【残席わずか！無料セミナー】Shared Value実現のためのNGO/NPO連携と企業価値創出","url":"https://atnd.org/events/89609","shortener_url":null,"started_at":"2017-07-25T09:30:00.000+09:00","ended_at":"2017-07-25T11:30:00.000+09:00","limit_number":50,"address":"東京都中央区晴海1-8-10 晴海アイランドトリトンスクエアタワーX37階","place":"株式会社メンバーズ　","lat":35.6575,"lon":139.782,"state":"closed","id":null},{"event_id":"89465","title":"[未経験からAIエンジニアを目指す] 　人工知能入門講座　 [定員10名　限定 　　無料説明会]","url":"https://atnd.org/events/89465","shortener_url":null,"started_at":"2017-07-15T16:00:00.000+09:00","ended_at":"2017-07-15T17:00:00.000+09:00","limit_number":5,"address":"東京都中央区八重洲2丁目2−1 ダイヤ八重洲口ビル","place":"スペイシー会議室 セミナールームC (東京駅3分)","lat":35.6796,"lon":139.769,"state":"closed","id":null},{"event_id":"62361","title":"ショッカソン2017　機材ワークショップ　SPIDAR-S","url":"https://tmcn.connpass.com/event/62361/","shortener_url":"https://goo.gl/6wjJw9","started_at":"2017-07-20T19:00:00.000+09:00","ended_at":"2017-07-20T20:30:00.000+09:00","limit_number":20,"address":"東京都渋谷区 道玄坂 1-22-7道玄坂ピア１Ｆ ","place":"FabCafe tokyo","lat":35.6561,"lon":139.696,"state":"active","id":null},{"event_id":"62360","title":"ショッカソン2017　機材ワークショップ　H2L UnlimitedHand　ハッカソン","url":"https://tmcn.connpass.com/event/62360/","shortener_url":"https://goo.gl/aUn48P","started_at":"2017-07-29T13:00:00.000+09:00","ended_at":"2017-07-30T05:00:00.000+09:00","limit_number":15,"address":"東京都港区赤坂2丁目14-27 国際新赤坂ビル 東館15階","place":"株式会社スパイスボックス","lat":35.6722,"lon":139.737,"state":"active","id":null},{"event_id":"62359","title":"[未経験からAIエンジニアを目指す] 　人工知能入門講座　 [定員10名　限定]","url":"https://study-ai.connpass.com/event/62359/","shortener_url":null,"started_at":"2017-07-24T19:00:00.000+09:00","ended_at":"2017-07-24T20:00:00.000+09:00","limit_number":10,"address":"東京都渋谷区渋谷2-22-7 渋谷新生ビル402","place":"渋谷新生ビル4階　402中会議室Ｂ(渋谷駅前1分)","lat":35.6583,"lon":139.704,"state":"active","id":null},{"event_id":"62397","title":"電通大生限定！「機械学習」勉強会\u0026ハッカソンの説明会","url":"https://ueqareer.connpass.com/event/62397/","shortener_url":"https://goo.gl/Gpxpsf","started_at":"2017-07-21T18:00:00.000+09:00","ended_at":"2017-07-21T19:00:00.000+09:00","limit_number":null,"address":"","place":"電気通信大学西１１号館５F会議室","lat":null,"lon":null,"state":"active","id":null},{"event_id":"62389","title":"Sota講習会 【Vstone Magicを始めよう】 Part 3（有料）","url":"https://sota.connpass.com/event/62389/","shortener_url":null,"started_at":"2017-07-21T19:00:00.000+09:00","ended_at":"2017-07-21T19:50:00.000+09:00","limit_number":4,"address":"東京都千代田区外神田1-9-9 内田ビル4F","place":"ヴイストン ロボットセンター秋葉原店","lat":35.6987,"lon":139.77,"state":"active","id":null},{"event_id":"62516","title":"第一回　PCNひろしま　こども向けプログラミング教室【見学枠】","url":"https://pcn-hiroshima.connpass.com/event/62516/","shortener_url":null,"started_at":"2017-07-30T04:00:00.000+09:00","ended_at":"2017-07-30T06:30:00.000+09:00","limit_number":5,"address":"広島市中区袋町６番３６号","place":"広島市まちづくり市民交流プラザ　会議室Ｃ","lat":34.3916,"lon":132.458,"state":"active","id":null},{"event_id":"89694","title":"第26回よちよちAndroid名古屋支部オフライン開発ミーティング","url":"https://atnd.org/events/89694","shortener_url":null,"started_at":"2017-07-23T00:00:00.000+09:00","ended_at":"2017-07-23T03:00:00.000+09:00","limit_number":null,"address":"名古屋市中区栄三丁目18番1号 ナディアパーク デザインセンタービル6階","place":"名古屋市市民活動推進センター","lat":35.1654,"lon":136.905,"state":"closed","id":null},{"event_id":"62620","title":"【東京・大阪開催】速習ディープラーニング基礎講座 [説明会]","url":"https://study-ai.connpass.com/event/62620/","shortener_url":null,"started_at":"2017-07-29T19:00:00.000+09:00","ended_at":"2017-07-29T20:00:00.000+09:00","limit_number":5,"address":"東京都中央区八重洲2丁目2 日本酒類販売新八重洲口ビル","place":"スペイシー会議室　セミナールームC","lat":35.6795,"lon":139.769,"state":"active","id":null},{"event_id":"62602","title":"リトルビッツ もくもく会 Vol.02","url":"https://littlebitsllc.connpass.com/event/62602/","shortener_url":null,"started_at":"2017-07-30T13:00:00.000+09:00","ended_at":"2017-07-30T23:00:00.000+09:00","limit_number":4,"address":"埼玉県新座市栗原5-7-2 ","place":"Hanareひばりヶ丘","lat":35.7563,"lon":139.549,"state":"active","id":null},{"event_id":"62603","title":"リトルビッツ もくもく会 Vol.02 Day1","url":"https://littlebitsllc.connpass.com/event/62603/","shortener_url":null,"started_at":"2017-07-29T13:00:00.000+09:00","ended_at":"2017-07-29T23:00:00.000+09:00","limit_number":10,"address":"埼玉県新座市栗原5-7-2 ","place":"Hanareひばりヶ丘","lat":35.7563,"lon":139.549,"state":"active","id":null},{"event_id":"62601","title":"リトルビッツ もくもく会 Vol.01 Day2","url":"https://littlebitsllc.connpass.com/event/62601/","shortener_url":null,"started_at":"2017-07-23T13:00:00.000+09:00","ended_at":"2017-07-23T23:00:00.000+09:00","limit_number":4,"address":"埼玉県新座市栗原5-7-2 ","place":"Hanareひばりヶ丘","lat":35.7563,"lon":139.549,"state":"active","id":null},{"event_id":"62600","title":"リトルビッツ もくもく会 Vol.01 Day1","url":"https://littlebitsllc.connpass.com/event/62600/","shortener_url":null,"started_at":"2017-07-22T13:00:00.000+09:00","ended_at":"2017-07-22T23:00:00.000+09:00","limit_number":10,"address":"埼玉県新座市栗原5-7-2 ","place":"Hanareひばりヶ丘","lat":35.7563,"lon":139.549,"state":"active","id":null},{"event_id":"89716","title":"\t[1日で]ディープラーニングの基礎を取得 [説明会]","url":"https://atnd.org/events/89716","shortener_url":null,"started_at":"2017-07-29T19:00:00.000+09:00","ended_at":"2017-07-29T20:00:00.000+09:00","limit_number":5,"address":"東京都中央区八重洲2丁目2−1 ダイヤ八重洲口ビル","place":"スペイシー会議室 セミナールームC(東京駅3分) ","lat":35.6796,"lon":139.769,"state":"closed","id":null},{"event_id":"89721","title":"エターナルラヴ1Dayレッスン","url":"https://atnd.org/events/89721","shortener_url":null,"started_at":"2017-07-27T10:00:00.000+09:00","ended_at":"2017-07-27T17:00:00.000+09:00","limit_number":6,"address":"宮城県仙台市青葉区国分町3丁目10−32 中居堂","place":"JAM: Johzenji Atelier Meets","lat":38.2681,"lon":140.868,"state":"closed","id":null},{"event_id":"89720","title":"エターナルラヴ1Dayレッスン","url":"https://atnd.org/events/89720","shortener_url":null,"started_at":"2017-07-23T10:00:00.000+09:00","ended_at":"2017-07-23T17:00:00.000+09:00","limit_number":6,"address":"宮城県仙台市青葉区国分町3丁目10−32 中居堂","place":"JAM: Johzenji Atelier Meets","lat":38.2681,"lon":140.868,"state":"closed","id":null},{"event_id":"89703","title":"天職実現! 1Dayセミナー","url":"https://atnd.org/events/89703","shortener_url":null,"started_at":"2017-07-22T10:00:00.000+09:00","ended_at":"2017-07-22T17:00:00.000+09:00","limit_number":6,"address":"宮城県仙台市青葉区国分町3丁目10−32 中居堂","place":"JAM: Johzenji Atelier Meets","lat":38.2681,"lon":140.868,"state":"closed","id":null},{"event_id":"62653","title":"[未経験からAIエンジニアを目指す] 　人工知能入門講座　 [定員10名　限定]","url":"https://study-ai.connpass.com/event/62653/","shortener_url":null,"started_at":"2017-07-29T19:00:00.000+09:00","ended_at":"2017-07-29T20:00:00.000+09:00","limit_number":10,"address":"東京都新宿区新宿5丁目11－13博雅ビル４階403号","place":"スペイシー会議室","lat":35.6933,"lon":139.707,"state":"active","id":null},{"event_id":"89740","title":"[未経験からAIエンジニアを目指す] 　人工知能入門講座　 [定員10名　限定 　　無料説明会]","url":"https://atnd.org/events/89740","shortener_url":null,"started_at":"2017-07-29T19:00:00.000+09:00","ended_at":"2017-07-29T20:00:00.000+09:00","limit_number":5,"address":"東京都中央区八重洲2丁目2−1 ダイヤ八重洲口ビル","place":"スペイシー会議室 セミナールームC (東京駅3分)","lat":35.6796,"lon":139.769,"state":"closed","id":null},{"event_id":"62740","title":"Kaggleデータ分析ハッカソン by Team AI 7/30(日)","url":"https://teamai.connpass.com/event/62740/","shortener_url":"https://goo.gl/pKiznT","started_at":"2017-07-30T14:00:00.000+09:00","ended_at":"2017-07-30T16:00:00.000+09:00","limit_number":8,"address":"","place":"Online","lat":35.6618,"lon":139.696,"state":"active","id":null},{"event_id":"62251","title":" Kaggleデータ分析ハッカソン by Team AI 7/23(日)","url":"https://teamai.connpass.com/event/62251/","shortener_url":"https://goo.gl/cESFdo","started_at":"2017-07-23T14:00:00.000+09:00","ended_at":"2017-07-23T16:00:00.000+09:00","limit_number":10,"address":"","place":"Online","lat":35.6618,"lon":139.696,"state":"active","id":null},{"event_id":"62765","title":"最終説明会！！[未経験からAIエンジニアを目指す] 　人工知能入門講座　 [定員10名　限定]","url":"https://study-ai.connpass.com/event/62765/","shortener_url":null,"started_at":"2017-07-31T19:00:00.000+09:00","ended_at":"2017-07-31T20:00:00.000+09:00","limit_number":10,"address":"東京都新宿区西新宿７－１－７(新宿ダイカンプラザＡ館610号室)","place":"コモンズ新宿西口会議室","lat":35.6945,"lon":139.699,"state":"active","id":null},{"event_id":"89741","title":"最終説明会！！[未経験からAIエンジニアを目指す] 　人工知能入門講座　 [定員10名　限定 　　無料説明会]","url":"https://atnd.org/events/89741","shortener_url":null,"started_at":"2017-07-31T19:00:00.000+09:00","ended_at":"2017-07-31T20:00:00.000+09:00","limit_number":5,"address":"東京都新宿区西新宿7丁目1−7 新宿ダイカンプラザA館","place":"コモンズ新宿西口会議室 ","lat":35.6945,"lon":139.699,"state":"closed","id":null},{"event_id":"57690","title":"集まれSwift好き！Swift愛好会 vol21","url":"https://love-swift.connpass.com/event/57690/","shortener_url":null,"started_at":"2017-07-24T19:00:00.000+09:00","ended_at":"2017-07-24T22:00:00.000+09:00","limit_number":76,"address":"東京都渋谷区渋谷2-21-1  渋谷ヒカリエ17F ","place":"レバレジーズ株式会社","lat":35.6589,"lon":139.703,"state":"active","id":null},{"event_id":"89847","title":"第27回よちよちAndroid名古屋支部オフライン開発ミーティング","url":"https://atnd.org/events/89847","shortener_url":null,"started_at":"2017-07-30T00:00:00.000+09:00","ended_at":"2017-07-30T03:00:00.000+09:00","limit_number":null,"address":"名古屋市中区栄三丁目18番1号 ナディアパーク デザインセンタービル6階","place":"名古屋市市民活動推進センター","lat":35.1654,"lon":136.905,"state":"closed","id":null},{"event_id":"89854","title":"［親子体験イベント］ソビーゴ体験イベント（7/29） 自分でロボットを”作る”、”動かす”。夏休み本格自由研究!!","url":"https://atnd.org/events/89854","shortener_url":null,"started_at":"2017-07-29T01:00:00.000+09:00","ended_at":"2017-07-29T06:00:00.000+09:00","limit_number":10,"address":"東京都中央区京橋2-5-18 京橋創生館7階","place":"D-Studio｜夢エデュケーション 京橋キャンパス","lat":35.6763,"lon":139.77,"state":"closed","id":null},{"event_id":"62331","title":"いわみくと MeetUp！vol.19 （いわみICT協議会定例会 ）","url":"https://iwami-ict.doorkeeper.jp/events/62331","shortener_url":null,"started_at":"2017-07-28T18:30:00.000+09:00","ended_at":"2017-07-28T20:00:00.000+09:00","limit_number":null,"address":"島根県浜田市相生町1391−8 ゆめマート浜田","place":"いわみぷらっと会議室","lat":34.8981,"lon":132.091,"state":"active","id":null},{"event_id":"63279","title":"RAID THE FRIDGE: Future","url":"https://kickstart.doorkeeper.jp/events/63279","shortener_url":null,"started_at":"2017-07-27T19:30:00.000+09:00","ended_at":"2017-07-28T00:00:00.000+09:00","limit_number":285,"address":"","place":"Kickstart Investment/Workspace","lat":14.5593,"lon":121.03,"state":"active","id":null},{"event_id":"89915","title":"第282回 よちよちAndroid オフライン開発ミーティング in 大崎","url":"https://atnd.org/events/89915","shortener_url":null,"started_at":"2017-07-30T01:00:00.000+09:00","ended_at":"2017-07-30T03:00:00.000+09:00","limit_number":null,"address":"東京都品川区大崎1-11-1","place":"ゲートシティ大崎B1アトリウムフリー座席","lat":35.6194,"lon":139.731,"state":"closed","id":null},{"event_id":"63311","title":"ISUCON模試第1回 @ギークハウス沖縄","url":"https://geekhouse-okinawa.connpass.com/event/63311/","shortener_url":null,"started_at":"2017-07-30T00:00:00.000+09:00","ended_at":"2017-07-30T10:00:00.000+09:00","limit_number":15,"address":"沖縄県沖縄市中央1-16-9 ギークハウス沖縄","place":"ギークハウス沖縄","lat":26.3371,"lon":127.8,"state":"active","id":null},{"event_id":"62559","title":"リモートワークミートアップ！","url":"https://remotework.connpass.com/event/62559/","shortener_url":null,"started_at":"2017-07-26T10:00:00.000+09:00","ended_at":"2017-07-26T12:00:00.000+09:00","limit_number":30,"address":"大阪市北区大深町4-20 グランフロント大阪 タワー A21階","place":"オカムラ KiZuKi LABO","lat":34.7044,"lon":135.494,"state":"active","id":null},{"event_id":"60916","title":"IHANet meeting 17 @福島合宿","url":"https://ihanet.connpass.com/event/60916/","shortener_url":null,"started_at":"2017-07-28T09:00:00.000+09:00","ended_at":"2017-07-30T04:00:00.000+09:00","limit_number":5,"address":"福島県耶麻郡猪苗代町沼尻山2855","place":"猪苗代湖・磐梯高原 しゃくなげ平貸別荘","lat":37.6167,"lon":140.214,"state":"active","id":null},{"event_id":"60713","title":"ぷち開発合宿 #9","url":"https://ydp.connpass.com/event/60713/","shortener_url":null,"started_at":"2017-07-09T00:00:00.000+09:00","ended_at":"2017-07-09T01:45:00.000+09:00","limit_number":4,"address":"大手町駅(E2出口)","place":"大手町","lat":35.6835,"lon":139.763,"state":"active","id":null},{"event_id":"60717","title":"ぷち開発合宿 #13","url":"https://ydp.connpass.com/event/60717/","shortener_url":null,"started_at":"2017-07-23T00:00:00.000+09:00","ended_at":"2017-07-23T02:30:00.000+09:00","limit_number":4,"address":"大手町駅(E2出口)","place":"大手町","lat":35.6835,"lon":139.763,"state":"active","id":null},{"event_id":"60716","title":"ぷち開発合宿 #12","url":"https://ydp.connpass.com/event/60716/","shortener_url":null,"started_at":"2017-07-22T00:00:00.000+09:00","ended_at":"2017-07-22T03:00:00.000+09:00","limit_number":4,"address":"大手町駅(E2出口)","place":"大手町","lat":35.6835,"lon":139.763,"state":"active","id":null},{"event_id":"60715","title":"ぷち開発合宿 #11","url":"https://ydp.connpass.com/event/60715/","shortener_url":null,"started_at":"2017-07-16T00:00:00.000+09:00","ended_at":"2017-07-16T03:00:00.000+09:00","limit_number":4,"address":"大手町駅(E2出口)","place":"大手町","lat":35.6835,"lon":139.763,"state":"active","id":null},{"event_id":"60714","title":"ぷち開発合宿 #10","url":"https://ydp.connpass.com/event/60714/","shortener_url":null,"started_at":"2017-07-15T00:00:00.000+09:00","ended_at":"2017-07-15T03:00:00.000+09:00","limit_number":4,"address":"大手町駅(E2出口)","place":"大手町","lat":35.6835,"lon":139.763,"state":"active","id":null},{"event_id":"60712","title":"ぷち開発合宿 #8","url":"https://ydp.connpass.com/event/60712/","shortener_url":null,"started_at":"2017-07-08T00:00:00.000+09:00","ended_at":"2017-07-08T03:00:00.000+09:00","limit_number":4,"address":"大手町駅(E2出口)","place":"大手町","lat":35.6835,"lon":139.763,"state":"active","id":null},{"event_id":"60711","title":"ぷち開発合宿 #7","url":"https://ydp.connpass.com/event/60711/","shortener_url":null,"started_at":"2017-07-02T00:00:00.000+09:00","ended_at":"2017-07-02T03:00:00.000+09:00","limit_number":4,"address":"大手町駅(E2出口)","place":"大手町","lat":35.6835,"lon":139.763,"state":"active","id":null},{"event_id":"60710","title":"ぷち開発合宿 #6","url":"https://ydp.connpass.com/event/60710/","shortener_url":null,"started_at":"2017-07-01T00:00:00.000+09:00","ended_at":"2017-07-01T03:00:00.000+09:00","limit_number":4,"address":"大手町駅(E2出口)","place":"大手町","lat":35.6835,"lon":139.763,"state":"active","id":null},{"event_id":"89718","title":"日本Androidの会秋葉原支部ロボット部　第61回勉強会　～秘密結社の秘密活動～","url":"https://atnd.org/events/89718","shortener_url":null,"started_at":"2017-07-23T04:00:00.000+09:00","ended_at":"2017-07-23T08:00:00.000+09:00","limit_number":8,"address":"東京都足立区西保木間","place":"秘密結社オープンフォース　秘密基地","lat":35.7975,"lon":139.799,"state":"closed","id":null}]