[{"event_id":"55260","title":"春のSmalltalk初心者向けのハッカソン | 第99回Smalltalk勉強会","url":"https://smalltalk.connpass.com/event/55260/","shortener_url":null,"started_at":"2017-04-26T19:00:00.000+09:00","ended_at":"2017-04-26T21:00:00.000+09:00","limit_number":null,"address":"東京都中央区日本橋茅場町1丁目9番2号 第一稲村ビル8階","place":"SORABITO株式会社","lat":35.68,"lon":139.779,"state":"active","id":null},{"event_id":"53082","title":"NASA Space Apps Challenge 2017 in Ube","url":"https://connpass.com/event/53082/","shortener_url":null,"started_at":"2017-04-29T09:00:00.000+09:00","ended_at":"2017-04-30T17:00:00.000+09:00","limit_number":50,"address":"山口県宇部市松山町１丁目１２－１","place":"宇部市勤労青少年会館","lat":33.948,"lon":131.252,"state":"active","id":null},{"event_id":"53799","title":"【東京会場】Space apps Challenge Tokyo 2017","url":"https://spaceappsjapan.connpass.com/event/53799/","shortener_url":null,"started_at":"2017-04-29T09:00:00.000+09:00","ended_at":"2017-04-30T19:00:00.000+09:00","limit_number":80,"address":"東京都千代田区丸の内2-1-1 明治安田生命ビル TOKYO創業ステーション１F ","place":"Startup Hub Tokyo","lat":35.6792,"lon":139.762,"state":"active","id":null},{"event_id":"54206","title":"Space Apps Challenge Tsukuba 2017","url":"https://spaceappsjapan.connpass.com/event/54206/","shortener_url":null,"started_at":"2017-04-29T09:00:00.000+09:00","ended_at":"2017-04-30T17:00:00.000+09:00","limit_number":30,"address":"茨城県つくば市千現2−1−1","place":"JAXA筑波宇宙センター大会議室","lat":36.067,"lon":140.128,"state":"active","id":null},{"event_id":"55139","title":"UX JAM 16","url":"https://uxmilk.connpass.com/event/55139/","shortener_url":null,"started_at":"2017-04-26T10:30:00.000+09:00","ended_at":"2017-04-26T13:00:00.000+09:00","limit_number":220,"address":"〒150-8510 東京都渋谷区渋谷2-21-1 (渋谷ヒカリエ 34F)","place":"KDDI株式会社","lat":35.659,"lon":139.703,"state":"active","id":null},{"event_id":"56009","title":"毎週土曜日「IoTもくもく会」（山口県周南市）","url":"https://column.connpass.com/event/56009/","shortener_url":null,"started_at":"2017-04-01T18:00:00.000+09:00","ended_at":"2017-04-01T20:00:00.000+09:00","limit_number":8,"address":"山口県周南市若宮町１丁目２１","place":"コワーキングスペース「カラム」","lat":34.0527,"lon":131.808,"state":"active","id":null},{"event_id":"55222","title":"作戦会議#0","url":"https://onejapanhackathon.connpass.com/event/55222/","shortener_url":null,"started_at":"2017-04-24T10:00:00.000+09:00","ended_at":"2017-04-24T11:30:00.000+09:00","limit_number":null,"address":"神奈川県川崎市中原区上小田中４丁目１(富士通研究所)","place":"富士通研究所","lat":35.5828,"lon":139.64,"state":"active","id":null},{"event_id":"55782","title":"半年でAIを活用した試作品を作ろう！AI入門講座5月開講説明会【定員10名】","url":"https://connpass.com/event/55782/","shortener_url":null,"started_at":"2017-04-27T19:30:00.000+09:00","ended_at":"2017-04-27T21:00:00.000+09:00","limit_number":null,"address":"東京都渋谷区代々木2-7-6　GSハイム佐藤ビル302 床屋さんの入口横のEVで３Fへお越しください。","place":"新宿GSハイム(佐藤ビル  JR「新宿」南口　徒歩3分 都営新宿線/都営大江戸線/京王新線「新宿」駅A1出口　徒歩1分)","lat":35.6879,"lon":139.699,"state":"active","id":null},{"event_id":"55204","title":"第2回 水曜ワトソン カフェ Meetup","url":"https://w2cafe.connpass.com/event/55204/","shortener_url":null,"started_at":"2017-04-26T19:00:00.000+09:00","ended_at":"2017-04-26T21:00:00.000+09:00","limit_number":30,"address":"東京都渋谷区道玄坂2-11-1 G-SQUARE 10階","place":"21cafe","lat":35.6579,"lon":139.696,"state":"active","id":null},{"event_id":"55173","title":"【残り僅か】IoTとオープンデータはじめのいっぽ＆課題解決型アイデアソン","url":"https://opda.connpass.com/event/55173/","shortener_url":null,"started_at":"2017-04-27T09:00:00.000+09:00","ended_at":"2017-04-27T12:30:00.000+09:00","limit_number":30,"address":"東京都港区虎ノ門一丁目23番1号 虎ノ門ヒルズ森タワー22階","place":"NHNテコラス","lat":35.6668,"lon":139.749,"state":"active","id":null},{"event_id":"54858","title":"【学生限定】Web初心者勉強会 OthloEvent#12","url":"https://othlotech.connpass.com/event/54858/","shortener_url":null,"started_at":"2017-04-23T13:00:00.000+09:00","ended_at":"2017-04-23T17:00:00.000+09:00","limit_number":30,"address":"愛知県名古屋市中村区名駅3丁目18-5 (モンマートビル5階)","place":"ベースキャンプ名古屋","lat":35.1728,"lon":136.887,"state":"active","id":null},{"event_id":"55343","title":"TouchDesigner User Meeting [Touch in Kansai] vol.2","url":"https://sha.connpass.com/event/55343/","shortener_url":null,"started_at":"2017-04-23T01:00:00.000+09:00","ended_at":"2017-04-23T09:00:00.000+09:00","limit_number":18,"address":"大阪府大阪市北区大深町3−1 グランフロント大阪北館7F","place":"ナレッジサロン","lat":34.7053,"lon":135.495,"state":"active","id":null},{"event_id":"54827","title":"人工知能ハッカソン in パラフト株式会社 「強化学習」当日hack形式に変更！ドタ参歓迎！","url":"https://aichatbot.connpass.com/event/54827/","shortener_url":null,"started_at":"2017-04-22T13:00:00.000+09:00","ended_at":"2017-04-22T17:00:00.000+09:00","limit_number":20,"address":"東京都渋谷区渋谷3−27−15","place":"パラフト株式会社","lat":35.6561,"lon":139.705,"state":"active","id":null},{"event_id":"54484","title":"AITCシニア技術者勉強会 「一からはじめるIoT 第五回～ワークショップ(1)」","url":"https://aitc-senior.connpass.com/event/54484/","shortener_url":null,"started_at":"2017-04-22T05:00:00.000+09:00","ended_at":"2017-04-22T09:00:00.000+09:00","limit_number":30,"address":"東京都中央区晴海1-8-10 晴海アイランド （トリトンスクエア オフィスタワーＸ 14階）","place":"ウルシステムズ株式会社","lat":35.6564,"lon":139.782,"state":"active","id":null},{"event_id":"54895","title":"【女性向け】【無料】初心者歓迎!スイーツを食べてプログラミングを学ぼう！","url":"https://morei.connpass.com/event/54895/","shortener_url":null,"started_at":"2017-04-20T10:15:00.000+09:00","ended_at":"2017-04-20T12:30:00.000+09:00","limit_number":10,"address":"東京都新宿区北新宿2-21-1　新宿フロントタワー","place":"富士通クラウドテクノロジーズ","lat":35.696,"lon":139.689,"state":"active","id":null},{"event_id":"54872","title":"第3回 UnlimitedHandハッカソン@秋葉原","url":"https://unlimitedhand.connpass.com/event/54872/","shortener_url":null,"started_at":"2017-04-22T13:00:00.000+09:00","ended_at":"2017-04-22T17:00:00.000+09:00","limit_number":10,"address":"東京都渋谷区桜丘町29-25 渋谷パールホーム703","place":"渋谷パールホーム703","lat":35.7011,"lon":139.777,"state":"active","id":null},{"event_id":"52813","title":"PPUG Meetup #1 -今更聞けないPayPal入門-","url":"https://ppug.connpass.com/event/52813/","shortener_url":null,"started_at":"2017-04-05T19:00:00.000+09:00","ended_at":"2017-04-05T22:00:00.000+09:00","limit_number":78,"address":"東京都港区北青山3-5-12 （青山クリスタルビルB2）","place":"TRUNK","lat":35.6666,"lon":139.713,"state":"active","id":null},{"event_id":"55561","title":"強くなるロボティック・ゲームプレイヤーの作り方勉強会「3章 強化学習 後半」","url":"https://kikaigakushuu.connpass.com/event/55561/","shortener_url":null,"started_at":"2017-04-25T20:00:00.000+09:00","ended_at":"2017-04-25T22:00:00.000+09:00","limit_number":30,"address":"東京都千代田区神田須田町２丁目１９−２３  (野村第３ビル４階)","place":"コワーキングスペース秋葉原 Weeyble（ウィーブル)","lat":35.6966,"lon":139.772,"state":"active","id":null},{"event_id":"55121","title":"強くなるロボティック・ゲームプレイヤーの作り方勉強会「3章 強化学習 前半」","url":"https://kikaigakushuu.connpass.com/event/55121/","shortener_url":null,"started_at":"2017-04-18T20:00:00.000+09:00","ended_at":"2017-04-18T22:00:00.000+09:00","limit_number":32,"address":"東京都千代田区神田須田町２丁目１９−２３  (野村第３ビル４階)","place":"コワーキングスペース秋葉原 Weeyble（ウィーブル)","lat":35.6966,"lon":139.772,"state":"active","id":null},{"event_id":"53559","title":"[大阪会場]Space Apps Challenge Osaka 2017","url":"https://spaceappsjapan.connpass.com/event/53559/","shortener_url":null,"started_at":"2017-04-29T09:30:00.000+09:00","ended_at":"2017-04-30T20:00:00.000+09:00","limit_number":50,"address":"大阪府大阪市北区鶴野町1番5号","place":"関西大学梅田キャンパス\"KANDAI Me RISE\"","lat":34.7077,"lon":135.501,"state":"active","id":null},{"event_id":"54767","title":"【サポーターズCoLab勉強会】エンジニアからデザイナーにお願いしたいこと","url":"https://supporterz-seminar.connpass.com/event/54767/","shortener_url":null,"started_at":"2017-04-25T20:00:00.000+09:00","ended_at":"2017-04-25T21:30:00.000+09:00","limit_number":20,"address":"東京都渋谷区道玄坂1-9-5","place":"渋谷スクエアA 10F","lat":35.6573,"lon":139.699,"state":"active","id":null},{"event_id":"54085","title":"Programmable Network Processor Ideathon","url":"https://ool.connpass.com/event/54085/","shortener_url":null,"started_at":"2017-04-21T00:30:00.000+09:00","ended_at":"2017-04-21T07:30:00.000+09:00","limit_number":180,"address":"沖縄県うるま市字兼箇段61番地1 沖縄情報通信センター","place":"沖縄オープンラボラトリ","lat":26.3762,"lon":127.834,"state":"active","id":null},{"event_id":"53425","title":"テーマ「機械学習xサウンド」「第16回エフェクターミニハッカソン」","url":"https://effectorhack.connpass.com/event/53425/","shortener_url":null,"started_at":"2017-04-15T13:00:00.000+09:00","ended_at":"2017-04-15T18:00:00.000+09:00","limit_number":40,"address":"東京都渋谷区渋谷1-7-7(住友不動産青山通ビル13階)","place":"CRI・ミドルウェアC会議室","lat":35.6605,"lon":139.706,"state":"active","id":null},{"event_id":"53277","title":"Women Techmakers Kyoto 2017 - IWD","url":"https://wtmkyoto.connpass.com/event/53277/","shortener_url":null,"started_at":"2017-04-15T13:00:00.000+09:00","ended_at":"2017-04-15T18:00:00.000+09:00","limit_number":36,"address":"大阪府大阪市淀川区 大阪府大阪市淀川区西中島5-12-12","place":"Motex","lat":34.7293,"lon":135.499,"state":"active","id":null},{"event_id":"53652","title":"GeoDev Meetup #5 - 地図データ可視化・アプリ作成もくもく会","url":"https://geodev.connpass.com/event/53652/","shortener_url":null,"started_at":"2017-04-14T19:00:00.000+09:00","ended_at":"2017-04-14T21:00:00.000+09:00","limit_number":18,"address":"東京都千代田区平河町2-7-1（塩崎ビル）","place":"ESRIジャパン（株）5Fセミナールーム","lat":35.6792,"lon":139.741,"state":"active","id":null},{"event_id":"55292","title":"【E2D3】データビジュアライゼーションを楽しむ会 vol. 3！","url":"https://e2d3.connpass.com/event/55292/","shortener_url":null,"started_at":"2017-04-15T13:00:00.000+09:00","ended_at":"2017-04-15T18:00:00.000+09:00","limit_number":null,"address":"東京都渋谷区宇田川町20-17 NOF渋谷公園通りビル 8F","place":"TECH PLAY","lat":35.661,"lon":139.7,"state":"active","id":null},{"event_id":"54773","title":"【サポーターズCoLab交流会】17卒エンジニア、一ヶ月目おつかれミートアップ","url":"https://supporterz-seminar.connpass.com/event/54773/","shortener_url":null,"started_at":"2017-04-28T20:00:00.000+09:00","ended_at":"2017-04-28T22:00:00.000+09:00","limit_number":80,"address":"東京都渋谷区神泉町8-16 渋谷ファーストプレイス 8F","place":"渋谷ファーストプレイス","lat":35.6553,"lon":139.694,"state":"active","id":null},{"event_id":"54991","title":"【平日】駒沢コワーキングスペース開放Week【4月14日】","url":"https://connpass.com/event/54991/","shortener_url":null,"started_at":"2017-04-14T10:00:00.000+09:00","ended_at":"2017-04-14T19:00:00.000+09:00","limit_number":15,"address":"東京都世田谷区駒沢2-33-7","place":"JamHouse天照","lat":35.6348,"lon":139.659,"state":"active","id":null},{"event_id":"53105","title":"2時間で学ぶ React ハンズオン in Osaka Vol.2","url":"https://sha.connpass.com/event/53105/","shortener_url":null,"started_at":"2017-04-14T10:00:00.000+09:00","ended_at":"2017-04-14T12:00:00.000+09:00","limit_number":50,"address":"大阪府大阪市 北区大深町3番1号 グランフロント大阪 ナレッジキャピタルタワー C7階","place":"大阪イノベーションハブ","lat":34.7043,"lon":135.495,"state":"active","id":null},{"event_id":"55094","title":"PyCon JP hack-a-thon #10 2017.04","url":"https://pyconjp-staff.connpass.com/event/55094/","shortener_url":null,"started_at":"2017-04-30T13:00:00.000+09:00","ended_at":"2017-04-30T18:00:00.000+09:00","limit_number":null,"address":"東京都港区北青山3丁目3番7号 第一青山ビル3階","place":"SQUEEZE Inc.","lat":35.6729,"lon":139.724,"state":"active","id":null},{"event_id":"54990","title":"【平日】駒沢コワーキングスペース開放Week【4月13日】","url":"https://connpass.com/event/54990/","shortener_url":null,"started_at":"2017-04-13T10:00:00.000+09:00","ended_at":"2017-04-13T19:00:00.000+09:00","limit_number":15,"address":"東京都世田谷区駒沢2-33-7","place":"JamHouse天照","lat":35.6348,"lon":139.659,"state":"active","id":null},{"event_id":"54989","title":"【平日】駒沢コワーキングスペース開放Week【4月12日】","url":"https://connpass.com/event/54989/","shortener_url":null,"started_at":"2017-04-12T10:00:00.000+09:00","ended_at":"2017-04-12T19:00:00.000+09:00","limit_number":15,"address":"東京都世田谷区駒沢2-33-7","place":"JamHouse天照","lat":35.6348,"lon":139.659,"state":"active","id":null},{"event_id":"54771","title":"【サポーターズCoLab勉強会】初心者でもわかるサウンドプログラミング","url":"https://supporterz-seminar.connpass.com/event/54771/","shortener_url":null,"started_at":"2017-04-26T19:30:00.000+09:00","ended_at":"2017-04-26T21:00:00.000+09:00","limit_number":70,"address":"東京都渋谷区道玄坂1-9-5","place":"渋谷スクエアA 10F","lat":35.6573,"lon":139.699,"state":"active","id":null},{"event_id":"54768","title":"【サポーターズCoLab勉強会】開発者のためのWebセキュリティ入門","url":"https://supporterz-seminar.connpass.com/event/54768/","shortener_url":null,"started_at":"2017-04-26T19:30:00.000+09:00","ended_at":"2017-04-26T21:00:00.000+09:00","limit_number":40,"address":"東京都渋谷区道玄坂1-9-5","place":"渋谷スクエアA 10F","lat":35.6573,"lon":139.699,"state":"active","id":null},{"event_id":"54634","title":"強くなるロボティック・ゲームプレイヤーの作り方勉強会「１章２章」","url":"https://kikaigakushuu.connpass.com/event/54634/","shortener_url":null,"started_at":"2017-04-11T20:00:00.000+09:00","ended_at":"2017-04-11T22:00:00.000+09:00","limit_number":35,"address":"東京都千代田区神田須田町２丁目１９−２３  (野村第３ビル４階)","place":"コワーキングスペース秋葉原 Weeyble（ウィーブル)","lat":35.6966,"lon":139.772,"state":"active","id":null},{"event_id":"53132","title":"IoT縛りの勉強会\u0010! IoTLT vol.26 @ 日本オラクル","url":"https://iotlt.connpass.com/event/53132/","shortener_url":null,"started_at":"2017-04-10T19:00:00.000+09:00","ended_at":"2017-04-10T22:00:00.000+09:00","limit_number":353,"address":"東京都港区北青山2-5-8 (オラクル青山センター 13F)","place":"日本オラクル株式会社 本社","lat":35.6712,"lon":139.719,"state":"active","id":null},{"event_id":"54309","title":"【サポーターズCoLab勉強会】React.js を用いた最新フロントエンド開発の現場","url":"https://supporterz-seminar.connpass.com/event/54309/","shortener_url":null,"started_at":"2017-04-18T19:30:00.000+09:00","ended_at":"2017-04-18T21:00:00.000+09:00","limit_number":null,"address":"東京都渋谷区道玄坂1-9-5","place":"渋谷スクエアA 10F","lat":35.6573,"lon":139.699,"state":"active","id":null},{"event_id":"54830","title":"【検証用ダミーイベント】NASA Space Apps Challenge 東京ハッカソン本番","url":"https://spaceappsjapan.connpass.com/event/54830/","shortener_url":null,"started_at":"2017-04-29T11:00:00.000+09:00","ended_at":"2017-04-30T18:00:00.000+09:00","limit_number":null,"address":"","place":"","lat":null,"lon":null,"state":"active","id":null},{"event_id":"54982","title":"Space Apps Challenge 2017【Boston会場とのコラボチーム】","url":"https://spaceappsjapan.connpass.com/event/54982/","shortener_url":null,"started_at":"2017-04-29T09:00:00.000+09:00","ended_at":"2017-04-30T23:00:00.000+09:00","limit_number":15,"address":"","place":"","lat":null,"lon":null,"state":"active","id":null},{"event_id":"54984","title":"【平日】駒沢コワーキングスペース開放Week【4月10日】","url":"https://connpass.com/event/54984/","shortener_url":null,"started_at":"2017-04-10T10:00:00.000+09:00","ended_at":"2017-04-10T19:00:00.000+09:00","limit_number":15,"address":"東京都世田谷区駒沢2-33-7","place":"JamHouse天照","lat":35.6348,"lon":139.659,"state":"active","id":null},{"event_id":"54987","title":"【平日】駒沢コワーキングスペース開放Week【4月11日】","url":"https://connpass.com/event/54987/","shortener_url":null,"started_at":"2017-04-11T10:00:00.000+09:00","ended_at":"2017-04-11T19:00:00.000+09:00","limit_number":15,"address":"東京都世田谷区駒沢2-33-7","place":"JamHouse天照","lat":35.6348,"lon":139.659,"state":"active","id":null},{"event_id":"52190","title":"【名古屋】HoloLensスタートダッシュ！","url":"https://osaka-driven-dev.connpass.com/event/52190/","shortener_url":null,"started_at":"2017-04-09T15:00:00.000+09:00","ended_at":"2017-04-09T18:00:00.000+09:00","limit_number":15,"address":"名古屋市中村区名駅2丁目35番22号 メビウス名古屋ビル2階","place":"株式会社Misoca セミナースペース","lat":35.1744,"lon":136.882,"state":"active","id":null},{"event_id":"54636","title":"Apitore WebAPIハンズオン Vol.2 ＠渋谷","url":"https://apitore.connpass.com/event/54636/","shortener_url":null,"started_at":"2017-04-25T19:00:00.000+09:00","ended_at":"2017-04-25T22:00:00.000+09:00","limit_number":13,"address":"東京都渋谷区桜丘9-18 （タカシマ桜丘マンション501号室）","place":"レンタルスペース マリブ","lat":35.655,"lon":139.702,"state":"active","id":null},{"event_id":"54873","title":"IHANet Hackathon@新宿 #8 懇親会の部","url":"https://ihanet.connpass.com/event/54873/","shortener_url":null,"started_at":"2017-04-08T09:00:00.000+09:00","ended_at":"2017-04-08T11:00:00.000+09:00","limit_number":46,"address":"東京都新宿区西新宿3-20-2 東京オペラシティータワー45F","place":"Juniper様会議室","lat":35.683,"lon":139.687,"state":"active","id":null},{"event_id":"54834","title":"AI x WebAPI もくもく会 Vol.1 ＠渋谷","url":"https://apitore.connpass.com/event/54834/","shortener_url":null,"started_at":"2017-04-22T10:30:00.000+09:00","ended_at":"2017-04-22T12:30:00.000+09:00","limit_number":9,"address":"東京都 渋谷区 宇田川町35-4 （オークビレッジ502 ）","place":"レンタルスペース モルディブ","lat":35.6614,"lon":139.697,"state":"active","id":null},{"event_id":"54896","title":"【第三回】最新CSSを使って美しいデザインをWEB上に作ろう！~ページを構成する技術と考え方~","url":"https://modelor-school.connpass.com/event/54896/","shortener_url":null,"started_at":"2017-04-28T19:30:00.000+09:00","ended_at":"2017-04-28T21:30:00.000+09:00","limit_number":12,"address":"京都市左京区田中下柳町7-2","place":"かぜのね","lat":35.0299,"lon":135.774,"state":"active","id":null},{"event_id":"49404","title":"IHANet Hackathon@新宿 \u0026 peering day #8","url":"https://ihanet.connpass.com/event/49404/","shortener_url":null,"started_at":"2017-04-08T04:00:00.000+09:00","ended_at":"2017-04-08T10:00:00.000+09:00","limit_number":75,"address":"東京都新宿区西新宿3-20-2 東京オペラシティータワー45F","place":"Juniper様会議室","lat":35.683,"lon":139.687,"state":"active","id":null},{"event_id":"54752","title":"【サポーターズCoLab勉強会】Vue.js からはじめる JS フレームワーク（ハンズオン形式）","url":"https://supporterz-seminar.connpass.com/event/54752/","shortener_url":null,"started_at":"2017-04-24T19:30:00.000+09:00","ended_at":"2017-04-24T21:00:00.000+09:00","limit_number":20,"address":"東京都渋谷区道玄坂1-9-5","place":"渋谷スクエアA 10F","lat":35.6573,"lon":139.699,"state":"active","id":null},{"event_id":"54094","title":"第2回 UnlimitedHandハッカソン@秋葉原","url":"https://unlimitedhand.connpass.com/event/54094/","shortener_url":null,"started_at":"2017-04-08T13:00:00.000+09:00","ended_at":"2017-04-08T18:00:00.000+09:00","limit_number":8,"address":"東京都千代田区外神田2-2-17　共同ビル万世8階85号室","place":"\tワーカーズ倶楽部 秋葉原・御茶ノ水","lat":35.6996,"lon":139.768,"state":"active","id":null},{"event_id":"53846","title":"4/5(水)19:30-  #SVWAVE × IVS Launch Pad プレイベント","url":"https://svmeetup.connpass.com/event/53846/","shortener_url":null,"started_at":"2017-04-05T19:30:00.000+09:00","ended_at":"2017-04-05T21:00:00.000+09:00","limit_number":90,"address":"東京都渋谷区円山町28-3","place":"株式会社 Branding Engineer","lat":35.6559,"lon":139.695,"state":"active","id":null},{"event_id":"52566","title":"Tokyo HoloLens ハッカソン Vol.1","url":"https://hololens.connpass.com/event/52566/","shortener_url":null,"started_at":"2017-04-08T01:00:00.000+09:00","ended_at":"2017-04-09T08:00:00.000+09:00","limit_number":14,"address":"東京都港区港南 2-16-3","place":"日本マイクロソフト株式会社セミナールーム","lat":35.6266,"lon":139.741,"state":"active","id":null},{"event_id":"54413","title":"【京都】第3回プロに教わる！はじめてのwebデザイン講座  ~ 簡単なページをデザインしてみる ~","url":"https://modelor-school.connpass.com/event/54413/","shortener_url":null,"started_at":"2017-04-21T19:30:00.000+09:00","ended_at":"2017-04-21T22:00:00.000+09:00","limit_number":12,"address":"京都市左京区田中下柳町7-2","place":"かぜのね","lat":35.0299,"lon":135.774,"state":"active","id":null},{"event_id":"54745","title":"【サポーターズCoLab勉強会】COBOL開発の辛み","url":"https://supporterz-seminar.connpass.com/event/54745/","shortener_url":null,"started_at":"2017-04-19T19:30:00.000+09:00","ended_at":"2017-04-19T21:30:00.000+09:00","limit_number":null,"address":"東京都渋谷区道玄坂1-9-5","place":"渋谷スクエアA 10F","lat":35.6573,"lon":139.699,"state":"active","id":null},{"event_id":"54744","title":"【サポーターズCoLab勉強会】サーバーレスアプリケーションのすすめ","url":"https://supporterz-seminar.connpass.com/event/54744/","shortener_url":null,"started_at":"2017-04-19T19:30:00.000+09:00","ended_at":"2017-04-19T21:30:00.000+09:00","limit_number":null,"address":"東京都渋谷区道玄坂1-9-5","place":"渋谷スクエアA 10F","lat":35.6573,"lon":139.699,"state":"active","id":null},{"event_id":"53606","title":"【サポーターズCoLab勉強会】エンジニアの事業との付き合い方","url":"https://supporterz-seminar.connpass.com/event/53606/","shortener_url":null,"started_at":"2017-04-06T19:30:00.000+09:00","ended_at":"2017-04-06T21:00:00.000+09:00","limit_number":20,"address":"東京都渋谷区道玄坂1-9-5","place":"渋谷スクエアA 10F","lat":35.6573,"lon":139.699,"state":"active","id":null},{"event_id":"52131","title":"【サポーターズCoLab勉強会】ライブラリから始めるKotlin・Rx・DI入門","url":"https://supporterz-seminar.connpass.com/event/52131/","shortener_url":null,"started_at":"2017-04-12T19:30:00.000+09:00","ended_at":"2017-04-12T21:00:00.000+09:00","limit_number":20,"address":"東京都渋谷区道玄坂1-9-5","place":"渋谷スクエアA 10F","lat":35.6573,"lon":139.699,"state":"active","id":null},{"event_id":"52898","title":"【サポーターズCoLab勉強会】COBOL開発の辛み","url":"https://supporterz-seminar.connpass.com/event/52898/","shortener_url":null,"started_at":"2017-04-19T19:30:00.000+09:00","ended_at":"2017-04-19T21:00:00.000+09:00","limit_number":30,"address":"東京都渋谷区道玄坂1-9-5","place":"渋谷スクエアA 10F","lat":35.6573,"lon":139.699,"state":"active","id":null},{"event_id":"53308","title":"【サポーターズCoLab勉強会】LINEを使ったチャットボット入門(ハンズオン)","url":"https://supporterz-seminar.connpass.com/event/53308/","shortener_url":null,"started_at":"2017-04-10T19:30:00.000+09:00","ended_at":"2017-04-10T21:00:00.000+09:00","limit_number":50,"address":"東京都渋谷区道玄坂1-9-5","place":"渋谷スクエアA 10F","lat":35.6573,"lon":139.699,"state":"active","id":null},{"event_id":"54678","title":"【サポーターズCoLab勉強会】Unityゲームプログラミングの基礎","url":"https://supporterz-seminar.connpass.com/event/54678/","shortener_url":null,"started_at":"2017-04-17T20:00:00.000+09:00","ended_at":"2017-04-17T21:30:00.000+09:00","limit_number":null,"address":"東京都渋谷区道玄坂1-9-5","place":"渋谷スクエアA 10F","lat":35.6573,"lon":139.699,"state":"active","id":null},{"event_id":"54679","title":"【サポーターズCoLab勉強会】webpackで快適javascript生活","url":"https://supporterz-seminar.connpass.com/event/54679/","shortener_url":null,"started_at":"2017-04-18T19:30:00.000+09:00","ended_at":"2017-04-18T21:30:00.000+09:00","limit_number":null,"address":"東京都渋谷区道玄坂1-9-5","place":"渋谷スクエアA 10F","lat":35.6573,"lon":139.699,"state":"active","id":null},{"event_id":"54546","title":"【サポーターズCoLab勉強会】Docker入門","url":"https://supporterz-seminar.connpass.com/event/54546/","shortener_url":null,"started_at":"2017-04-24T19:30:00.000+09:00","ended_at":"2017-04-24T21:00:00.000+09:00","limit_number":70,"address":"東京都渋谷区神泉町8-16","place":"サポーターズオフィス","lat":35.6553,"lon":139.694,"state":"active","id":null},{"event_id":"53791","title":"Space Apps Challenge Tokyo 2017 Input Day","url":"https://spaceappsjapan.connpass.com/event/53791/","shortener_url":null,"started_at":"2017-04-09T13:00:00.000+09:00","ended_at":"2017-04-09T18:30:00.000+09:00","limit_number":60,"address":"東京都千代田区紀尾井町1-3 東京ガーデンテラス17F","place":"ヤフー株式会社「LODGE」","lat":35.6795,"lon":139.737,"state":"active","id":null},{"event_id":"53016","title":"Cogbot Hackathon #1","url":"https://cogbot.connpass.com/event/53016/","shortener_url":null,"started_at":"2017-04-08T01:00:00.000+09:00","ended_at":"2017-04-09T14:00:00.000+09:00","limit_number":52,"address":"東京都港区港南 2-16-3 (品川グランドセントラルタワー 31階)","place":"日本マイクロソフト株式会社","lat":35.6266,"lon":139.741,"state":"active","id":null},{"event_id":"51764","title":"【千葉開発合宿】デザイナーも参加できる開発合宿〜はじめてのハッカソンVol.23","url":"https://hackathon.connpass.com/event/51764/","shortener_url":null,"started_at":"2017-04-08T04:00:00.000+09:00","ended_at":"2017-04-09T07:00:00.000+09:00","limit_number":30,"address":"千葉県富津市金谷3870","place":"千葉県南房総の金谷ワークプレイス「まるも」","lat":35.1665,"lon":139.824,"state":"active","id":null},{"event_id":"54118","title":"強化学習勉強会「OpenAI Gym入門」","url":"https://kikaigakushuu.connpass.com/event/54118/","shortener_url":null,"started_at":"2017-04-04T20:00:00.000+09:00","ended_at":"2017-04-04T22:00:00.000+09:00","limit_number":46,"address":"東京都千代田区神田須田町２丁目１９−２３  (野村第３ビル４階)","place":"コワーキングスペース秋葉原 Weeyble（ウィーブル)","lat":35.6966,"lon":139.772,"state":"active","id":null},{"event_id":"52932","title":"医療とテクノロジーの未来","url":"https://mspjp.connpass.com/event/52932/","shortener_url":null,"started_at":"2017-04-01T04:30:00.000+09:00","ended_at":"2017-04-01T11:00:00.000+09:00","limit_number":17,"address":"〒108-0075 東京都港区港南2−16−3 品川グランドセントラルタワー","place":"日本マイクロソフト株式会社 品川オフィス","lat":35.6267,"lon":139.74,"state":"active","id":null},{"event_id":"54343","title":"[秋葉原] 第6回 ゆるふわIoT電子工作入門","url":"https://weeyble-iot.connpass.com/event/54343/","shortener_url":null,"started_at":"2017-04-09T13:00:00.000+09:00","ended_at":"2017-04-09T18:00:00.000+09:00","limit_number":15,"address":"東京都千代田区神田須田町２丁目１９−２３ (野村第３ビル ４階)","place":"コワーキングスペース秋葉原Weeyble","lat":35.6966,"lon":139.772,"state":"active","id":null},{"event_id":"54463","title":"ロボットハッカソン！","url":"https://halake.connpass.com/event/54463/","shortener_url":null,"started_at":"2017-04-16T13:00:00.000+09:00","ended_at":"2017-04-16T18:00:00.000+09:00","limit_number":13,"address":"埼玉県越谷市レイクタウン8-11-1(レイクタウンオークラビル4F)","place":"コワーキングスペースHaLake","lat":35.8757,"lon":139.823,"state":"active","id":null},{"event_id":"53858","title":"【増席】Innovative Global Tech Trend","url":"https://abeja-innovation-meetup.connpass.com/event/53858/","shortener_url":null,"started_at":"2017-04-04T19:30:00.000+09:00","ended_at":"2017-04-04T21:30:00.000+09:00","limit_number":34,"address":"港区白金1-17-3 (NBFプラチナタワー10F)","place":"株式会社ABEJA","lat":35.6653,"lon":139.744,"state":"active","id":null},{"event_id":"54061","title":"[秋葉原] 機械学習系API勉強会","url":"https://kikaigakushuu.connpass.com/event/54061/","shortener_url":null,"started_at":"2017-04-02T13:00:00.000+09:00","ended_at":"2017-04-02T17:00:00.000+09:00","limit_number":32,"address":"東京都千代田区神田須田町２丁目１９−２３  (野村第３ビル４階)","place":"コワーキングスペース秋葉原 Weeyble（ウィーブル)","lat":35.6966,"lon":139.772,"state":"active","id":null},{"event_id":"53992","title":"毎週土曜日「IoTもくもく会」（山口県周南市）","url":"https://column.connpass.com/event/53992/","shortener_url":null,"started_at":"2017-04-01T18:00:00.000+09:00","ended_at":"2017-04-01T20:00:00.000+09:00","limit_number":8,"address":"山口県周南市若宮町１丁目２１","place":"コワーキングスペース「カラム」","lat":34.0527,"lon":131.808,"state":"active","id":null},{"event_id":"53977","title":"なにわPerl（なにわPerl#12）","url":"https://naniwaperl.connpass.com/event/53977/","shortener_url":null,"started_at":"2017-04-22T15:00:00.000+09:00","ended_at":"2017-04-22T17:00:00.000+09:00","limit_number":8,"address":"大阪府大阪市北区大深町3−1 グランフロント大阪 北館7F ","place":"グランフロント大阪ナレッジサロン","lat":34.7053,"lon":135.495,"state":"active","id":null},{"event_id":"53512","title":"Sota講習会 【Vstone Magicを始めよう】 Part 3","url":"https://sota.connpass.com/event/53512/","shortener_url":null,"started_at":"2017-04-21T19:00:00.000+09:00","ended_at":"2017-04-21T19:50:00.000+09:00","limit_number":4,"address":"東京都千代田区外神田1-9-9 内田ビル4F","place":"ヴイストン ロボットセンター秋葉原店","lat":35.6987,"lon":139.77,"state":"active","id":null},{"event_id":"51402","title":"【女性限定！】 ラズパイ × Bluemix IoTハンズオンセミナー","url":"https://bmxug.connpass.com/event/51402/","shortener_url":null,"started_at":"2017-04-11T09:30:00.000+09:00","ended_at":"2017-04-11T12:00:00.000+09:00","limit_number":48,"address":"福岡県福岡市中央区大名2-6-11","place":"FUKUOKA groth next","lat":33.589,"lon":130.395,"state":"active","id":null},{"event_id":"52977","title":"【クラッピーチャレンジ】クラッパソン2017","url":"https://100kuma.connpass.com/event/52977/","shortener_url":null,"started_at":"2017-04-15T13:00:00.000+09:00","ended_at":"2017-04-15T18:00:00.000+09:00","limit_number":20,"address":"熊本市中央区世安町172","place":"びぷれす","lat":32.7895,"lon":130.69,"state":"active","id":null},{"event_id":"87596","title":"第17回よちよちAndroid名古屋支部オフライン開発ミーティング","url":"https://atnd.org/events/87596","shortener_url":null,"started_at":"2017-04-30T00:00:00.000+09:00","ended_at":"2017-04-30T03:00:00.000+09:00","limit_number":null,"address":"名古屋市中区栄三丁目18番1号 ナディアパーク デザインセンタービル6階","place":"名古屋市市民活動推進センター","lat":35.1654,"lon":136.905,"state":"closed","id":null},{"event_id":"87013","title":"【本日開催】【 ヒカ☆ラボ 】IoT未経験のWebエンジニアに贈る！いつもの開発言語で始めるIoT～JavaScript, Python, ブラウザAPIとかの話題～","url":"https://atnd.org/events/87013","shortener_url":null,"started_at":"2017-04-27T10:30:00.000+09:00","ended_at":"2017-04-27T13:00:00.000+09:00","limit_number":60,"address":"東京都渋谷区渋谷2-21-1","place":"レバレジーズ本社（ 渋谷ヒカリエ 17F ）","lat":35.659,"lon":139.703,"state":"closed","id":null},{"event_id":"87305","title":"数学と人工知能。たったこれだけ、人工知能ビジネスの試作品を作る為に最低限必要な数学の分野とは。","url":"https://atnd.org/events/87305","shortener_url":null,"started_at":"2017-04-23T13:30:00.000+09:00","ended_at":"2017-04-23T16:00:00.000+09:00","limit_number":30,"address":"東京都新宿区西新宿7丁目5−25","place":"株式会社セラク内　会議室　※当日はリリカラショールームとの間の通路から通用口にお越しください","lat":35.6974,"lon":139.699,"state":"closed","id":null},{"event_id":"87379","title":"第272回オフライン開発ミーティング","url":"https://atnd.org/events/87379","shortener_url":null,"started_at":"2017-04-23T01:00:00.000+09:00","ended_at":"2017-04-25T23:59:59.000+09:00","limit_number":null,"address":"東京都品川区大崎1-11-1","place":"ゲートシティ大崎B1アトリウムフリー座席","lat":35.6194,"lon":139.731,"state":"closed","id":null},{"event_id":"87429","title":"第16回よちよちAndroid名古屋支部オフライン開発ミーティング","url":"https://atnd.org/events/87429","shortener_url":null,"started_at":"2017-04-23T00:00:00.000+09:00","ended_at":"2017-04-23T03:00:00.000+09:00","limit_number":null,"address":"名古屋市中区栄三丁目18番1号 ナディアパーク デザインセンタービル6階","place":"名古屋市市民活動推進センター","lat":35.1654,"lon":136.905,"state":"closed","id":null},{"event_id":"87129","title":"【満席】ギー福寺ゲームジャム!","url":"https://atnd.org/events/87129","shortener_url":null,"started_at":"2017-04-22T01:00:00.000+09:00","ended_at":"2017-04-23T11:00:00.000+09:00","limit_number":7,"address":"京都府京都市伏見区深草車阪町20-33","place":"ギークハウス京都東福寺","lat":34.9744,"lon":135.778,"state":"closed","id":null},{"event_id":"87276","title":"第15回よちよちAndroid名古屋支部オフライン開発ミーティング","url":"https://atnd.org/events/87276","shortener_url":null,"started_at":"2017-04-16T01:00:00.000+09:00","ended_at":"2017-04-16T03:00:00.000+09:00","limit_number":null,"address":"愛知県名古屋市中村区名駅3丁目18-5 モンマートビル5階","place":"ベースキャンプ名古屋","lat":35.1728,"lon":136.887,"state":"closed","id":null},{"event_id":"87212","title":"第271回オフライン開発ミーティング","url":"https://atnd.org/events/87212","shortener_url":null,"started_at":"2017-04-16T01:00:00.000+09:00","ended_at":"2017-04-16T03:00:00.000+09:00","limit_number":null,"address":"東京都品川区大崎1-11-1","place":"ゲートシティ大崎B1アトリウムフリー座席","lat":35.6194,"lon":139.731,"state":"closed","id":null},{"event_id":"87156","title":"第14回：4月15日（土）UE4よちよち勉強会\u003cUnreal Engine 4\u003e@HDE(渋谷)","url":"https://atnd.org/events/87156","shortener_url":null,"started_at":"2017-04-15T02:00:00.000+09:00","ended_at":"2017-04-15T08:00:00.000+09:00","limit_number":12,"address":"東京都渋谷区南平台町16番28号","place":"グラスシティ渋谷10F","lat":35.655,"lon":139.695,"state":"closed","id":null},{"event_id":"84908","title":"all state board results information 2017","url":"https://atnd.org/events/84908","shortener_url":null,"started_at":"2017-04-12T03:30:00.000+09:00","ended_at":"2018-04-11T15:30:00.000+09:00","limit_number":2321321,"address":"hyderabad","place":"manabaid result","lat":17.385,"lon":78.4867,"state":"closed","id":null},{"event_id":"87091","title":"第14回よちよちAndroid名古屋支部オフライン開発ミーティング","url":"https://atnd.org/events/87091","shortener_url":null,"started_at":"2017-04-09T01:00:00.000+09:00","ended_at":"2017-04-09T03:00:00.000+09:00","limit_number":null,"address":"愛知県名古屋市中村区名駅3丁目18-5 モンマートビル5階","place":"ベースキャンプ名古屋","lat":35.1728,"lon":136.887,"state":"closed","id":null},{"event_id":"86932","title":"第270回オフライン開発ミーティング","url":"https://atnd.org/events/86932","shortener_url":null,"started_at":"2017-04-02T01:00:00.000+09:00","ended_at":"2017-04-04T23:59:59.000+09:00","limit_number":null,"address":"東京都品川区大崎1-11-1","place":"ゲートシティ大崎B1アトリウムフリー座席","lat":35.6194,"lon":139.731,"state":"closed","id":null},{"event_id":"86917","title":"第13回よちよちAndroid名古屋支部オフライン開発ミーティング","url":"https://atnd.org/events/86917","shortener_url":null,"started_at":"2017-04-02T01:00:00.000+09:00","ended_at":"2017-04-02T03:00:00.000+09:00","limit_number":null,"address":"愛知県名古屋市中村区名駅3丁目18-5 モンマートビル5階","place":"ベースキャンプ名古屋","lat":35.1728,"lon":136.887,"state":"closed","id":null},{"event_id":"47481","title":"Go合宿2017","url":"https://go-beginners.connpass.com/event/47481/","shortener_url":null,"started_at":"2017-04-22T03:00:00.000+09:00","ended_at":"2017-04-23T06:00:00.000+09:00","limit_number":27,"address":"千葉県香取郡東庄町笹川い６２４","place":"土善旅館","lat":35.845,"lon":140.662,"state":"active","id":null},{"event_id":"250167","title":"東京ヴェルディ＆日テレ・ベレーザ育成支援クラブ「緑の未来」2017","url":"http://midorinomirai2017.peatix.com","shortener_url":null,"started_at":"2017-04-07T10:00:00.000+09:00","ended_at":"2017-04-09T23:59:59.000+09:00","limit_number":null,"address":"東京都稲城市矢野口4015-1","place":"東京ヴェルディ","lat":35.632,"lon":139.517,"state":"active","id":null},{"event_id":"54723","title":"運営会議#0","url":"https://onejapanhackathon.connpass.com/event/54723/","shortener_url":null,"started_at":"2017-04-06T09:30:00.000+09:00","ended_at":"2017-04-06T13:00:00.000+09:00","limit_number":10,"address":"","place":"","lat":null,"lon":null,"state":"active","id":null},{"event_id":"33189097484","title":"Creative Third Thursdays","url":"https://www.eventbrite.com/e/creative-third-thursdays-tickets-33189097484","shortener_url":null,"started_at":"2017-04-20T23:00:00.000+09:00","ended_at":"2021-12-17T01:30:00.000+09:00","limit_number":null,"address":null,"place":"online","lat":null,"lon":null,"state":"active","id":null}]