[{"event_id":"48529","title":"RESAS静岡ハッカソン","url":"https://connpass.com/event/48529/","shortener_url":null,"started_at":"2017-01-28T01:00:00.000+09:00","ended_at":"2017-01-29T09:00:00.000+09:00","limit_number":50,"address":"静岡県静岡市葵区追手町４−１６","place":"公益財団法人 静岡観光コンベンション協会","lat":34.9766,"lon":138.385,"state":"active","id":null},{"event_id":"48223","title":"トップエンジニアが解説！急成長スタートアップのシステムの裏側とAWS等最新技術活用事例","url":"https://abeja-innovation-meetup.connpass.com/event/48223/","shortener_url":null,"started_at":"2017-01-26T19:30:00.000+09:00","ended_at":"2017-01-26T22:00:00.000+09:00","limit_number":50,"address":"東京都港区虎ノ門4-1-20(田中山ビル10階)","place":"ABEJA Openspace","lat":35.6653,"lon":139.744,"state":"active","id":null},{"event_id":"48695","title":"オオサカプログラミングカフェ#7","url":"https://osakaprgcafe.connpass.com/event/48695/","shortener_url":null,"started_at":"2017-01-22T10:00:00.000+09:00","ended_at":"2017-01-22T16:00:00.000+09:00","limit_number":8,"address":"大阪市西区北堀江1-18-17 ","place":"モトバヤシビル2F","lat":34.6747,"lon":135.495,"state":"active","id":null},{"event_id":"46412","title":"電子デバイスGlobal Game Jam 2017","url":"https://ioio.connpass.com/event/46412/","shortener_url":null,"started_at":"2017-01-20T09:00:00.000+09:00","ended_at":"2017-01-22T11:00:00.000+09:00","limit_number":null,"address":"東京都千代田区 神田東松下町45番地（神田金子ビル 2階）","place":"アスラテック株式会社","lat":35.6944,"lon":139.773,"state":"active","id":null},{"event_id":"47922","title":"【増枠】UX JAM 14 -NEW YEAR SPECIAL-","url":"https://uxmilk.connpass.com/event/47922/","shortener_url":null,"started_at":"2017-01-26T10:30:00.000+09:00","ended_at":"2017-01-26T13:00:00.000+09:00","limit_number":150,"address":"東京都港区六本木3-2-1(住友不動産六本木グランドタワー24階)","place":"合同会社DMM.com","lat":35.6647,"lon":139.738,"state":"active","id":null},{"event_id":"48266","title":"【賞金15万円!!】ツイキャスハッカソン","url":"https://connpass.com/event/48266/","shortener_url":null,"started_at":"2017-01-28T01:00:00.000+09:00","ended_at":"2017-01-28T12:00:00.000+09:00","limit_number":60,"address":"東京都港区六本木 6-3-1","place":"六本木ヒルズクロスポイント 5F (FreakOutオフィス内)","lat":35.6609,"lon":139.728,"state":"active","id":null},{"event_id":"48971","title":"宮城・福島合同IT県人会 in 東京","url":"https://connpass.com/event/48971/","shortener_url":null,"started_at":"2017-01-26T19:00:00.000+09:00","ended_at":"2017-01-26T22:00:00.000+09:00","limit_number":40,"address":"東京都千代田区丸の内2-5-1","place":"TIP*S （丸の内二丁目ビル 6F）","lat":35.68,"lon":139.763,"state":"active","id":null},{"event_id":"48715","title":"京都テクデザもくもく会#4","url":"https://supporterz.connpass.com/event/48715/","shortener_url":null,"started_at":"2017-01-25T14:00:00.000+09:00","ended_at":"2017-01-25T20:00:00.000+09:00","limit_number":null,"address":"京都府京都市下京区立売東町1京都フコク生命四条柳馬場ビル２F","place":"サポーターズ京都オフィス","lat":35.004,"lon":135.764,"state":"active","id":null},{"event_id":"49057","title":"TOKYO CS JAM #9 〜メルカリCS 2017キックオフ！〜","url":"https://csjam.connpass.com/event/49057/","shortener_url":null,"started_at":"2017-01-24T10:15:00.000+09:00","ended_at":"2017-01-24T12:45:00.000+09:00","limit_number":40,"address":"東京都港区六本木6-10-1（六本木ヒルズ森タワー18F）","place":"株式会社メルカリ","lat":35.6604,"lon":139.729,"state":"active","id":null},{"event_id":"46616","title":"Osaka_GlobalGameJam2017(大規模ゲームハッカソン_大阪会場)","url":"https://connpass.com/event/46616/","shortener_url":null,"started_at":"2017-01-20T11:00:00.000+09:00","ended_at":"2017-01-22T12:00:00.000+09:00","limit_number":25,"address":"大阪府大東市寺川3−2−5, エステート野崎605号室","place":"いちごぽんずのサークルハウス","lat":34.7116,"lon":135.639,"state":"active","id":null},{"event_id":"46639","title":"新年★4年目記念！お酒を飲みながらのはじめてのハッカソンVol.21","url":"https://hackathon.connpass.com/event/46639/","shortener_url":null,"started_at":"2017-01-22T01:30:00.000+09:00","ended_at":"2017-01-22T12:00:00.000+09:00","limit_number":30,"address":"東京都新宿区新宿6-27-30 新宿イーストサイドスクエア13階","place":"NHN テコラス株式会社","lat":35.6967,"lon":139.709,"state":"active","id":null},{"event_id":"48543","title":"【優勝賞金1000万】LINE BOT AWARDS 公式ハッカソン@東京","url":"https://linedev.connpass.com/event/48543/","shortener_url":null,"started_at":"2017-01-21T01:00:00.000+09:00","ended_at":"2017-01-22T11:00:00.000+09:00","limit_number":75,"address":"京都中央区銀座7-2-6　ヒューリック銀座7丁目第2ビル B1F","place":"MediaTechnologyLab","lat":35.6708,"lon":139.761,"state":"active","id":null},{"event_id":"47700","title":"第１６回伊勢IT交流会","url":"https://iseit.connpass.com/event/47700/","shortener_url":null,"started_at":"2017-01-21T15:00:00.000+09:00","ended_at":"2017-01-21T17:00:00.000+09:00","limit_number":15,"address":"三重県伊勢市本町16-2","place":"伊勢市観光協会風餐亭１Ｆ","lat":34.4892,"lon":136.705,"state":"active","id":null},{"event_id":"47058","title":"GlobalGameJam2017 NAGOYA in ドラス","url":"https://dorasugj.connpass.com/event/47058/","shortener_url":null,"started_at":"2017-01-20T20:00:00.000+09:00","ended_at":"2017-01-22T18:00:00.000+09:00","limit_number":12,"address":"名古屋市中区栄2-9-3 伏見第一ビル3F","place":"株式会社ドラス","lat":35.1669,"lon":136.898,"state":"active","id":null},{"event_id":"47177","title":"公共交通に関する講演会＆アイデアソン","url":"https://ipublishing.connpass.com/event/47177/","shortener_url":null,"started_at":"2017-01-21T04:30:00.000+09:00","ended_at":"2017-01-21T08:00:00.000+09:00","limit_number":30,"address":"石川県能美市旭台2丁目1番地","place":"石川ハイテク交流センター","lat":36.4458,"lon":136.59,"state":"active","id":null},{"event_id":"48240","title":"第三回 帰ってきたhojiroLT","url":"https://hojiro-lt.connpass.com/event/48240/","shortener_url":null,"started_at":"2017-01-21T17:00:00.000+09:00","ended_at":"2017-01-21T19:00:00.000+09:00","limit_number":35,"address":"東京都足立区千住旭町５","place":"東京電機大学 千住キャンパス 1号館4階 演習室","lat":35.7481,"lon":139.806,"state":"active","id":null},{"event_id":"48953","title":"第1回ガチ人生会議+コンサル@ギークハウス名古屋","url":"https://connpass.com/event/48953/","shortener_url":null,"started_at":"2017-01-20T10:30:00.000+09:00","ended_at":"2017-01-20T13:30:00.000+09:00","limit_number":15,"address":"名古屋市中村区太閤1-14-5","place":"ギークハウス名古屋","lat":35.1646,"lon":136.883,"state":"active","id":null},{"event_id":"46652","title":"GGJ2017 Musashisakai Tokyo","url":"https://connpass.com/event/46652/","shortener_url":null,"started_at":"2017-01-20T10:00:00.000+09:00","ended_at":"2017-01-22T08:00:00.000+09:00","limit_number":12,"address":"東京都武蔵野市境2-2-18 (MHビル3F)","place":"コワーキングスペース「ぴこす」","lat":35.7041,"lon":139.544,"state":"active","id":null},{"event_id":"47414","title":"第一回Mercハッカソン","url":"https://merc.connpass.com/event/47414/","shortener_url":null,"started_at":"2017-01-22T10:00:00.000+09:00","ended_at":"2017-01-22T19:00:00.000+09:00","limit_number":20,"address":"アクセルマーク株式会社, 〒164-0012 東京都中野区 本町1丁目32−2 ハーモニータワーF17","place":"アクセルマークオフィスF17","lat":35.6961,"lon":139.683,"state":"active","id":null},{"event_id":"48562","title":"[初心者歓迎]第2回 CodePBL 説明会","url":"https://ueqareer.connpass.com/event/48562/","shortener_url":null,"started_at":"2017-01-24T17:00:00.000+09:00","ended_at":"2017-02-09T18:00:00.000+09:00","limit_number":null,"address":"182-8585 東京都調布市調布ケ丘1-5-1 電気通信大学","place":"電気通信大学","lat":35.6557,"lon":139.544,"state":"active","id":null},{"event_id":"46617","title":"NEM4","url":"https://nem.connpass.com/event/46617/","shortener_url":null,"started_at":"2017-01-14T09:00:00.000+09:00","ended_at":"2017-01-14T10:30:00.000+09:00","limit_number":20,"address":"新潟県新潟市中央区笹口1丁目1番地 プラーカ１","place":"ときめいと","lat":37.9111,"lon":139.064,"state":"active","id":null},{"event_id":"47150","title":"農業AIハッカソン","url":"https://tfug-tokyo.connpass.com/event/47150/","shortener_url":null,"started_at":"2017-01-14T01:00:00.000+09:00","ended_at":"2017-01-15T09:00:00.000+09:00","limit_number":50,"address":"東京都新宿区西新宿7-5-25 西新宿(木村屋ビル)","place":"株式会社セラク","lat":35.6974,"lon":139.699,"state":"active","id":null},{"event_id":"48911","title":"Sota講習会 【Vstone Magicを始めよう】 Part 3","url":"https://sota.connpass.com/event/48911/","shortener_url":null,"started_at":"2017-01-27T19:00:00.000+09:00","ended_at":"2017-01-27T19:50:00.000+09:00","limit_number":4,"address":"東京都千代田区外神田1-9-9 内田ビル4F","place":"ヴイストン ロボットセンター秋葉原店","lat":35.6987,"lon":139.77,"state":"active","id":null},{"event_id":"47074","title":"名古屋でVRハッカソンをやるためのUE4 勉強会【1限目：初心者OK！ハンズオン】","url":"https://nagogebu.connpass.com/event/47074/","shortener_url":null,"started_at":"2017-01-15T03:45:00.000+09:00","ended_at":"2017-01-15T09:00:00.000+09:00","limit_number":15,"address":"愛知県 名古屋市 愛知県名古屋市中村区名駅四丁目15番地15号 名古屋綜合市場ビル","place":"フィーバー柳橋","lat":35.1697,"lon":136.888,"state":"active","id":null},{"event_id":"45888","title":"OthloEvent #9 [学生限定Xamarinハンズオン]","url":"https://othlotech.connpass.com/event/45888/","shortener_url":null,"started_at":"2017-01-15T11:00:00.000+09:00","ended_at":"2017-01-15T18:30:00.000+09:00","limit_number":25,"address":"名古屋市中村区名駅2丁目35番22号(メビウス名古屋ビル2階)","place":"株式会社Misoca セミナールーム","lat":35.1744,"lon":136.882,"state":"active","id":null},{"event_id":"48376","title":"[秋葉原] 第2回 ゆるふわIoT電子工作入門","url":"https://weeyble-iot.connpass.com/event/48376/","shortener_url":null,"started_at":"2017-01-15T13:00:00.000+09:00","ended_at":"2017-01-15T18:00:00.000+09:00","limit_number":14,"address":"東京都千代田区神田須田町２丁目１９−２３ (野村第３ビル ４階)","place":"コワーキングスペース秋葉原Weeyble","lat":35.6966,"lon":139.772,"state":"active","id":null},{"event_id":"47718","title":"広島版IoT縛りの勉強会\u0010! IoTLT広島 Vol.5","url":"https://iotlt.connpass.com/event/47718/","shortener_url":null,"started_at":"2017-01-13T19:00:00.000+09:00","ended_at":"2017-01-13T20:30:00.000+09:00","limit_number":25,"address":"広島県広島市中区八丁堀7-11","place":"広島YMCA国際文化センター 本館会議室 408","lat":34.3965,"lon":132.462,"state":"active","id":null},{"event_id":"47725","title":"【第2回】人工知能ハッカソン inカラフル・ボード「今回のテーマ：optimizer」【定","url":"https://aichatbot.connpass.com/event/47725/","shortener_url":null,"started_at":"2017-01-28T13:00:00.000+09:00","ended_at":"2017-01-28T17:00:00.000+09:00","limit_number":20,"address":"渋谷区渋谷一丁目-8-7 第27SYビル 3F-B","place":"カラフル・ボード株式会社","lat":35.6603,"lon":139.705,"state":"active","id":null},{"event_id":"47577","title":"バッカソン2017","url":"https://backathon.connpass.com/event/47577/","shortener_url":null,"started_at":"2017-01-14T01:00:00.000+09:00","ended_at":"2017-01-15T12:00:00.000+09:00","limit_number":70,"address":"福岡県福岡市中央区大名1-8-6 HCC BLD.","place":"株式会社ヌーラボ","lat":33.5866,"lon":130.392,"state":"active","id":null},{"event_id":"47618","title":"【迫る！GGJ】第2回オトナのUnity入門@未来会議室","url":"https://otona.connpass.com/event/47618/","shortener_url":null,"started_at":"2017-01-11T10:00:00.000+09:00","ended_at":"2017-01-11T12:00:00.000+09:00","limit_number":25,"address":"熊本県熊本市 中央区下通１丁目１２−２７","place":"未来会議室","lat":32.7998,"lon":130.708,"state":"active","id":null},{"event_id":"46100","title":"小高ハッカソン！","url":"https://connpass.com/event/46100/","shortener_url":null,"started_at":"2017-01-13T17:00:00.000+09:00","ended_at":"2017-01-15T16:00:00.000+09:00","limit_number":null,"address":"福島県南相馬市小高区東町1-40","place":"双葉屋旅館","lat":37.5628,"lon":140.995,"state":"active","id":null},{"event_id":"47160","title":"OthloTech x 楽天 [学生エンジニア飲み会!!]","url":"https://othlotech.connpass.com/event/47160/","shortener_url":null,"started_at":"2017-01-18T18:30:00.000+09:00","ended_at":"2017-01-18T20:30:00.000+09:00","limit_number":25,"address":"愛知県名古屋市中区錦3-10-29","place":"エンソウ　ニシキ","lat":35.1716,"lon":136.902,"state":"active","id":null},{"event_id":"46892","title":"\u003c18卒対象\u003e【アトラエ】次世代の事業創造者を育成する1dayプログラム『Create』","url":"https://connpass.com/event/46892/","shortener_url":null,"started_at":"2017-01-15T01:00:00.000+09:00","ended_at":"2017-01-15T12:30:00.000+09:00","limit_number":7,"address":"東京都港区三田1-10-4(麻布十番日新ビル2F)","place":"アトラエ　オフィス","lat":35.6549,"lon":139.738,"state":"active","id":null},{"event_id":"48516","title":"【無料】【WindowsもMacもOK】初心者歓迎!スイーツを食べてプログラミングを学ぼう!","url":"https://morei.connpass.com/event/48516/","shortener_url":null,"started_at":"2017-01-24T10:00:00.000+09:00","ended_at":"2017-01-24T12:15:00.000+09:00","limit_number":10,"address":"〒169-8333　東京都新宿区北新宿2-21-1　新宿フロントタワー  18F","place":"富士通クラウドテクノロジーズ","lat":35.696,"lon":139.689,"state":"active","id":null},{"event_id":"48194","title":"Drink Meetup with Mercari in Fukuoka (CS)","url":"https://mercari.connpass.com/event/48194/","shortener_url":null,"started_at":"2017-01-16T09:45:00.000+09:00","ended_at":"2017-01-16T12:00:00.000+09:00","limit_number":10,"address":"福岡県福岡市博多区祇園町8-13 (第一プリンスビル 1F・2F)","place":"The Company","lat":33.5912,"lon":130.411,"state":"active","id":null},{"event_id":"48238","title":"アーバンデータチャレンジ2016 in 石川 Vol.5 ハッカソン","url":"https://cfk.connpass.com/event/48238/","shortener_url":null,"started_at":"2017-01-22T10:30:00.000+09:00","ended_at":"2017-01-22T17:00:00.000+09:00","limit_number":null,"address":"石川県金沢市武蔵町14番31号","place":"ITビジネスプラザ武蔵","lat":36.5713,"lon":136.655,"state":"active","id":null},{"event_id":"45789","title":"PyCon JP hack-a-thon #7 2017.01","url":"https://pyconjp-staff.connpass.com/event/45789/","shortener_url":null,"started_at":"2017-01-07T13:00:00.000+09:00","ended_at":"2017-01-07T18:00:00.000+09:00","limit_number":null,"address":"東京都東京都渋谷区 恵比寿1-19-15 ウノサワ東急ビル3階","place":"アライドアーキテクツ株式会社","lat":35.6474,"lon":139.713,"state":"active","id":null},{"event_id":"47354","title":"事前勉強会【GlobalGameJam2017 in Osaka】バンタンゲームアカデミー大阪会場","url":"https://connpass.com/event/47354/","shortener_url":null,"started_at":"2017-01-15T04:30:00.000+09:00","ended_at":"2017-01-15T09:00:00.000+09:00","limit_number":25,"address":"大阪府大阪市西心斎橋2-3-12","place":"バンタンゲームアカデミー大阪校","lat":34.6699,"lon":135.5,"state":"active","id":null},{"event_id":"47749","title":"楽器を作ろうハッカソン #1","url":"https://insthackersnewbies.connpass.com/event/47749/","shortener_url":null,"started_at":"2017-01-04T13:00:00.000+09:00","ended_at":"2017-01-04T18:00:00.000+09:00","limit_number":20,"address":"東京都台東区浅草橋5-20-8 CSタワー7階","place":"株式会社ISAO","lat":35.7014,"lon":139.781,"state":"active","id":null},{"event_id":"47735","title":"バージョン管理ツール勉強会　バージョン管理（Github）でゲームジャム（ハッカソン）攻略！！","url":"https://nagogebu.connpass.com/event/47735/","shortener_url":null,"started_at":"2017-01-14T04:00:00.000+09:00","ended_at":"2017-01-14T06:30:00.000+09:00","limit_number":15,"address":"愛知県 名古屋市 愛知県名古屋市中村区名駅四丁目15番地15号 名古屋綜合市場ビル","place":"フィーバー柳橋","lat":35.1697,"lon":136.888,"state":"active","id":null},{"event_id":"47761","title":"アイマスハッカソン振り返り 170107","url":"https://imas.connpass.com/event/47761/","shortener_url":null,"started_at":"2017-01-07T16:00:00.000+09:00","ended_at":"2017-01-07T18:00:00.000+09:00","limit_number":null,"address":"東京都千代田区紀尾井町1-3 (17F)","place":"LODGE","lat":35.6808,"lon":139.734,"state":"active","id":null},{"event_id":"47459","title":"【100円ショップでモノづくり】ヒャッカソン熊本#002","url":"https://100kuma.connpass.com/event/47459/","shortener_url":null,"started_at":"2017-01-21T13:00:00.000+09:00","ended_at":"2017-01-21T21:00:00.000+09:00","limit_number":20,"address":"熊本市中央区世安町172","place":"びぷれす","lat":32.7895,"lon":130.69,"state":"active","id":null},{"event_id":"47432","title":"Sota講習会 【Vstone Magicを始めよう】 Part 3","url":"https://sota.connpass.com/event/47432/","shortener_url":null,"started_at":"2017-01-13T19:00:00.000+09:00","ended_at":"2017-01-13T19:50:00.000+09:00","limit_number":4,"address":"東京都千代田区外神田1-9-9 内田ビル4F","place":"ヴイストン ロボットセンター秋葉原店","lat":35.6987,"lon":139.77,"state":"active","id":null},{"event_id":"46543","title":"【学生限定】セイカハッカソン - Vol 02","url":"https://seika-hackathon.connpass.com/event/46543/","shortener_url":null,"started_at":"2017-01-14T10:00:00.000+09:00","ended_at":"2017-01-15T17:00:00.000+09:00","limit_number":20,"address":"京都府京都市左京区岩倉木野町137","place":"京都精華大学","lat":35.0735,"lon":135.773,"state":"active","id":null},{"event_id":"85482","title":"第4回名古屋支部オフライン開発ミーティング","url":"https://atnd.org/events/85482","shortener_url":null,"started_at":"2017-01-29T01:00:00.000+09:00","ended_at":"2017-01-29T03:00:00.000+09:00","limit_number":null,"address":"愛知県名古屋市中村区名駅3丁目18-5 モンマートビル5階","place":"ベースキャンプ名古屋","lat":35.1728,"lon":136.887,"state":"closed","id":null},{"event_id":"85186","title":"【賞金15万円!!】ツイキャスハッカソン 〜 IoT, VR, 人工知能 なんでもアリ!! 〜","url":"https://atnd.org/events/85186","shortener_url":null,"started_at":"2017-01-28T01:00:00.000+09:00","ended_at":"2017-01-28T12:00:00.000+09:00","limit_number":25,"address":"東京都港区六本木 6-3-1","place":"六本木ヒルズクロスポイント 5F (FreakOutオフィス内)","lat":35.6609,"lon":139.728,"state":"closed","id":null},{"event_id":"85408","title":"ジャマーの感知範囲","url":"https://atnd.org/events/85408","shortener_url":null,"started_at":"2017-01-25T00:30:00.000+09:00","ended_at":"2018-01-08T15:30:00.000+09:00","limit_number":500,"address":"","place":"","lat":null,"lon":null,"state":"closed","id":null},{"event_id":"84836","title":"第2回ドロンソン 「ドローン×農業＝ワクワク農業」@秋田市交流館au","url":"https://atnd.org/events/84836","shortener_url":null,"started_at":"2017-01-21T04:00:00.000+09:00","ended_at":"2017-01-21T07:30:00.000+09:00","limit_number":30,"address":"秋田県秋田市中通一丁目4番1号","place":"秋田市にぎわい交流館AU（あう）","lat":39.7175,"lon":140.122,"state":"closed","id":null},{"event_id":"84614","title":"Global Game Jam®︎ 2017 at ビサイド","url":"https://atnd.org/events/84614","shortener_url":null,"started_at":"2017-01-20T09:00:00.000+09:00","ended_at":"2017-01-22T10:00:00.000+09:00","limit_number":24,"address":"東京都立川市曙町1-21-1","place":"株式会社ビサイド","lat":35.6997,"lon":139.407,"state":"closed","id":null},{"event_id":"84271","title":"Global Game Jam 2017 ギークハウス京都東福寺","url":"https://atnd.org/events/84271","shortener_url":null,"started_at":"2017-01-20T09:00:00.000+09:00","ended_at":"2017-01-22T10:00:00.000+09:00","limit_number":8,"address":"京都府京都市伏見区深草車阪町20-33","place":"ギークハウス京都東福寺","lat":34.9744,"lon":135.778,"state":"closed","id":null},{"event_id":"83884","title":"Global Game Jam 2017 熊本会場","url":"https://atnd.org/events/83884","shortener_url":null,"started_at":"2017-01-20T08:00:00.000+09:00","ended_at":"2017-01-22T12:00:00.000+09:00","limit_number":null,"address":"熊本県熊本市中央区鍛冶屋町17番地ゼログラビル","place":"株式会社 ゼログラフィックス社　ゼログラビル","lat":32.7966,"lon":130.7,"state":"closed","id":null},{"event_id":"83862","title":"Global Game Jam 2016 熊本会場","url":"https://atnd.org/events/83862","shortener_url":null,"started_at":"2017-01-20T08:00:00.000+09:00","ended_at":"2017-01-22T12:00:00.000+09:00","limit_number":null,"address":"熊本県熊本市中央区鍛冶屋町17番地ゼログラビル","place":"株式会社 ゼログラフィックス社　ゼログラビル","lat":32.797,"lon":130.699,"state":"closed","id":null},{"event_id":"84698","title":"【Unity初心者向け】Global Game Jam直前！2D見下ろし型アクションアドヴェンチャーゲーム(風)を作ってUnityを学ぶ","url":"https://atnd.org/events/84698","shortener_url":null,"started_at":"2017-01-15T05:00:00.000+09:00","ended_at":"2017-01-15T09:00:00.000+09:00","limit_number":8,"address":"京都府京都市伏見区深草車阪町20-33","place":"ギークハウス京都東福寺","lat":34.9744,"lon":135.778,"state":"closed","id":null},{"event_id":"84115","title":"0歳からのハッピーコンサート meets JAZZ","url":"https://atnd.org/events/84115","shortener_url":null,"started_at":"2017-01-14T01:30:00.000+09:00","ended_at":"2017-01-14T02:30:00.000+09:00","limit_number":100,"address":"東京都東京都小金井市本町6-14-45 1階  ","place":"小金井宮地楽器ホール　小ホール","lat":35.7002,"lon":139.506,"state":"closed","id":null},{"event_id":"84282","title":"GGJ直前！PlayCanvas × PhotonでマルチプレイWebGLゲームを作っちゃおう！","url":"https://atnd.org/events/84282","shortener_url":null,"started_at":"2017-01-11T10:30:00.000+09:00","ended_at":"2017-01-11T12:30:00.000+09:00","limit_number":15,"address":"東京都渋谷区桜丘町26-1","place":"セルリアンタワー11F","lat":35.6565,"lon":139.699,"state":"closed","id":null},{"event_id":"84846","title":"All India State's Results 2017","url":"https://atnd.org/events/84846","shortener_url":null,"started_at":"2017-01-05T16:00:00.000+09:00","ended_at":"2019-01-05T16:00:00.000+09:00","limit_number":null,"address":"","place":"","lat":null,"lon":null,"state":"closed","id":null},{"event_id":"84773","title":"Bahubali 2 Revelaed Why Kattapa Killed Bahubali on 28 April 2017","url":"https://atnd.org/events/84773","shortener_url":null,"started_at":"2017-01-02T15:30:00.000+09:00","ended_at":"2017-01-02T17:30:00.000+09:00","limit_number":null,"address":"","place":"","lat":null,"lon":null,"state":"closed","id":null},{"event_id":"43864","title":"Python mini hack-a-thon 雪山合宿 2017","url":"https://pyhack.connpass.com/event/43864/","shortener_url":null,"started_at":"2017-01-20T04:00:00.000+09:00","ended_at":"2017-01-22T06:00:00.000+09:00","limit_number":25,"address":"長野県須坂市大字仁礼峰の原高原3153-720","place":"ペンション マウンテンパパ","lat":36.5531,"lon":138.35,"state":"active","id":null},{"event_id":"43335","title":"第3回 実践的IT教育シンポジウム rePiT 2017 in 大阪","url":"https://repit.connpass.com/event/43335/","shortener_url":null,"started_at":"2017-01-26T00:30:00.000+09:00","ended_at":"2017-01-26T06:30:00.000+09:00","limit_number":null,"address":"大阪府吹田市山田丘１−１","place":"大阪大学（吹田キャンパス） コンベンションセンター","lat":34.8187,"lon":135.524,"state":"active","id":null},{"event_id":"48889","title":"IHANet meeting 16 @金沢合宿","url":"https://ihanet.connpass.com/event/48889/","shortener_url":null,"started_at":"2017-01-21T04:00:00.000+09:00","ended_at":"2017-01-21T22:00:00.000+09:00","limit_number":10,"address":"石川県金沢市駅西本町1-10-18","place":"カオサン金沢ファミリーホステル","lat":36.5808,"lon":136.64,"state":"active","id":null},{"event_id":"36139","title":"【新潟】もくもく温泉　開発合宿 #7【学生歓迎】","url":"https://mokumoku-onsen.connpass.com/event/36139/","shortener_url":null,"started_at":"2017-01-07T06:00:00.000+09:00","ended_at":"2017-01-09T09:30:00.000+09:00","limit_number":31,"address":"新潟県南魚沼市宮１７―４","place":"五十沢温泉ゆもとかん","lat":37.0588,"lon":138.927,"state":"active","id":null}]