[{"event_id":"59960","title":"きらきらアイロンビーズでIchigoJam","url":"https://connpass.com/event/59960/","shortener_url":"https://goo.gl/mCdXSC","started_at":"2017-08-27T22:00:00.000+09:00","ended_at":"2017-08-28T01:00:00.000+09:00","limit_number":10,"address":"〒605-8501　京都市東山区今熊野北日吉町35","place":"京都女子大学","lat":34.9886,"lon":135.78,"state":"active","id":null},{"event_id":"59669","title":"ROS Japan UG #12 Raspberry Pi Mouseハッカソン","url":"https://rosjp.connpass.com/event/59669/","shortener_url":"https://goo.gl/L45a55","started_at":"2017-08-19T22:00:00.000+09:00","ended_at":"2017-08-20T03:00:00.000+09:00","limit_number":25,"address":"東京都中央区日本橋堀留町1-8-12 さくら堀留ビル 7F","place":"GROOVE X","lat":35.6874,"lon":139.781,"state":"active","id":null},{"event_id":"88748","title":"魔改造ゲームジャム with UE4","url":"https://atnd.org/events/88748","shortener_url":"https://goo.gl/2hN4V3","started_at":"2017-08-05T10:00:00.000+09:00","ended_at":"2017-08-06T21:30:00.000+09:00","limit_number":24,"address":"〒105-0004 東京都港区新橋1-12-9","place":"新橋ツクモ.デジタルライフ館","lat":35.6676,"lon":139.759,"state":"closed","id":null},{"event_id":"60436","title":"夏休み半田付け講習会","url":"https://osscons-embedded.connpass.com/event/60436/","shortener_url":null,"started_at":"2017-08-26T23:00:00.000+09:00","ended_at":"2017-08-27T02:30:00.000+09:00","limit_number":6,"address":"東京都 中央区 日本橋大伝馬町 6-7　(住長第2ビル)","place":"組込みシステム技術協会","lat":35.6897,"lon":139.779,"state":"active","id":null},{"event_id":"59561","title":"福島GameJam 2017 in Hiroshima","url":"https://hirouni.connpass.com/event/59561/","shortener_url":"https://goo.gl/LUNsRp","started_at":"2017-08-19T09:00:00.000+09:00","ended_at":"2017-08-20T21:00:00.000+09:00","limit_number":null,"address":"広島市中区大手町2丁目2-13 （ザ・ガーデンプレイス紙屋町）","place":"デジタルものづくりスペース　デジハコ","lat":34.393,"lon":132.456,"state":"active","id":null},{"event_id":"60804","title":"SUMMER JIMAN JAM 2017","url":"https://dstn.connpass.com/event/60804/","shortener_url":"https://goo.gl/GRuChj","started_at":"2017-08-18T18:30:00.000+09:00","ended_at":"2017-08-18T21:30:00.000+09:00","limit_number":45,"address":"東京都中央区日本橋2-7-1(東京日本橋タワー 27階)","place":"サイボウズ株式会社 東京オフィス","lat":35.6819,"lon":139.774,"state":"active","id":null},{"event_id":"61025","title":"第1回 One JAPANハッカソン","url":"https://onejapanhackathon.connpass.com/event/61025/","shortener_url":"https://goo.gl/oqWTS8","started_at":"2017-08-04T09:00:00.000+09:00","ended_at":"2017-08-04T18:00:00.000+09:00","limit_number":78,"address":"神奈川県川崎市中原区上小田中４丁目１(富士通研究所)","place":"富士通研究所","lat":35.5828,"lon":139.64,"state":"active","id":null},{"event_id":"89177","title":"【8/6(日)】出張ヒストリア！ UE4勉強会2017","url":"https://atnd.org/events/89177","shortener_url":null,"started_at":"2017-08-06T21:30:00.000+09:00","ended_at":"2017-08-07T03:10:00.000+09:00","limit_number":200,"address":"東京都大田区西蒲田5丁目23−22 東京工科大学附属日本語学校","place":" 日本工学院専門学校 蒲田キャンパス 31005教室","lat":35.5646,"lon":139.715,"state":"closed","id":null},{"event_id":"60977","title":"【iOSハンズオン】OthloEvent@フェンリル #17","url":"https://othlotech.connpass.com/event/60977/","shortener_url":null,"started_at":"2017-08-05T22:00:00.000+09:00","ended_at":"2017-08-06T04:00:00.000+09:00","limit_number":20,"address":"愛知県名古屋市中村区名駅3丁目18-5 (モンマートビル5階)","place":"ベースキャンプ名古屋","lat":35.1728,"lon":136.887,"state":"active","id":null},{"event_id":"61418","title":"【IoT / 自動運転】モビリティー市場を創るエンジニア達の挑戦 @ソフトバンク株式会社","url":"https://forkwell.connpass.com/event/61418/","shortener_url":null,"started_at":"2017-08-04T04:40:00.000+09:00","ended_at":"2017-08-04T06:55:00.000+09:00","limit_number":75,"address":"東京都港区東新橋1-9-1 (東京汐留ビルディング25F)","place":"ソフトバンク株式会社","lat":35.6632,"lon":139.761,"state":"active","id":null},{"event_id":"61182","title":"オープンデータハッカソン～Asia Opendata Hackathon じゃんとこい魚津 ～","url":"https://code4toyama.connpass.com/event/61182/","shortener_url":"https://goo.gl/qyorSg","started_at":"2017-08-05T10:00:00.000+09:00","ended_at":"2017-08-06T20:00:00.000+09:00","limit_number":8,"address":"魚津市真成寺町3-3","place":"真成寺会館","lat":36.8166,"lon":137.397,"state":"active","id":null},{"event_id":"60674","title":"2017年度豊橋３大学連携まちづくりハッカソン【申し込み締切りました】","url":"https://connpass.com/event/60674/","shortener_url":"https://goo.gl/C2ke58","started_at":"2017-08-10T10:00:00.000+09:00","ended_at":"2017-08-11T18:00:00.000+09:00","limit_number":50,"address":"〒441-8522 愛知県豊橋市町畑町１−１","place":"愛知大学","lat":34.7404,"lon":137.387,"state":"active","id":null},{"event_id":"62118","title":"ショッカソン2017","url":"https://tmcn.connpass.com/event/62118/","shortener_url":"https://goo.gl/YRGWLu","started_at":"2017-08-26T10:00:00.000+09:00","ended_at":"2017-08-27T18:00:00.000+09:00","limit_number":68,"address":"東京都渋谷区 道玄坂 1-22-7道玄坂ピア10Ｆ ","place":"fab cafe MTRL","lat":35.6561,"lon":139.696,"state":"active","id":null},{"event_id":"61532","title":"第2回 伊那市 LoRaWAN ハッカソン","url":"https://uhuru.connpass.com/event/61532/","shortener_url":"https://goo.gl/3KfybX","started_at":"2017-08-26T13:00:00.000+09:00","ended_at":"2017-08-27T17:30:00.000+09:00","limit_number":55,"address":"長野県伊那市狐島 狐島4291","place":"JA上伊那 本所","lat":35.8356,"lon":137.964,"state":"active","id":null},{"event_id":"61538","title":"電子デバイス 福島 Game Jam 2017","url":"https://ioio.connpass.com/event/61538/","shortener_url":"https://goo.gl/75v6de","started_at":"2017-08-19T09:00:00.000+09:00","ended_at":"2017-08-20T18:00:00.000+09:00","limit_number":null,"address":"東京都千代田区 神田東松下町45番地（神田金子ビル 2階）","place":"アスラテック株式会社","lat":35.6944,"lon":139.773,"state":"active","id":null},{"event_id":"61838","title":"Nihonbashi.js #2 fix typo!【満員につき増枠しました！】","url":"https://nihonbashi-js.connpass.com/event/61838/","shortener_url":null,"started_at":"2017-08-11T04:00:00.000+09:00","ended_at":"2017-08-11T06:50:00.000+09:00","limit_number":41,"address":" 東京都中央区八丁堀２－１２－７　（ユニデンビル３Ｆ）","place":"株式会社揚羽　Cafeスペース","lat":35.6769,"lon":139.776,"state":"active","id":null},{"event_id":"61665","title":"福島ゲームジャム2017【岡山会場】","url":"https://okauni.connpass.com/event/61665/","shortener_url":"https://goo.gl/NKUZSE","started_at":"2017-08-19T09:00:00.000+09:00","ended_at":"2017-08-20T20:00:00.000+09:00","limit_number":null,"address":"〒716-0007 岡山県高梁市奥万田町３７５２−１","place":"機微国際大学 国際交流会館","lat":34.7959,"lon":133.623,"state":"active","id":null},{"event_id":"61569","title":"第２回 Startup Weekend わかやま","url":"https://swwakayama.doorkeeper.jp/events/61569","shortener_url":null,"started_at":"2017-08-11T03:00:00.000+09:00","ended_at":"2017-08-13T06:00:00.000+09:00","limit_number":30,"address":"和歌山県和歌山市十二番丁9 リヴァージュ十二番丁ビル","place":"LUIDA","lat":34.2323,"lon":135.172,"state":"active","id":null},{"event_id":"62323","title":"Startup Weekend Tokyo @ 東京理科大  20170818-0820","url":"https://swtokyo.doorkeeper.jp/events/62323","shortener_url":null,"started_at":"2017-08-19T03:30:00.000+09:00","ended_at":"2017-08-21T06:30:00.000+09:00","limit_number":40,"address":"東京都千代田区富士見1丁目11−2 東京理科大学神楽坂キャンパス富士見校舎","place":"東京理科大 神楽坂キャンパス 富士見校舎 ","lat":35.6965,"lon":139.746,"state":"active","id":null},{"event_id":"62617","title":"Startup Weekend Tokyo :: Micro Edition #1","url":"https://swtokyo.doorkeeper.jp/events/62617","shortener_url":null,"started_at":"2017-08-05T03:30:00.000+09:00","ended_at":"2017-08-07T06:30:00.000+09:00","limit_number":9,"address":"東京都新宿区高田馬場1丁目27−2","place":"Green Room in CASE-Shinjuku","lat":35.7122,"lon":139.705,"state":"active","id":null},{"event_id":"89602","title":"AIを手軽に活用・ワンランク上の業務自動化を実現するワークショップ  ","url":"https://atnd.org/events/89602","shortener_url":"https://goo.gl/hZzXLt","started_at":"2017-08-25T15:00:00.000+09:00","ended_at":"2017-08-25T18:00:00.000+09:00","limit_number":30,"address":"東京都品川区大井1-47-1 NTビル1F","place":"インフォテリア株式会社セミナールーム","lat":35.6053,"lon":139.733,"state":"closed","id":null},{"event_id":"62066","title":"福島GameJam2017 愛媛会場","url":"https://connpass.com/event/62066/","shortener_url":"https://goo.gl/3rtqDR","started_at":"2017-08-19T09:00:00.000+09:00","ended_at":"2017-08-20T18:00:00.000+09:00","limit_number":25,"address":"愛媛県松山市柳井町３丁目３−３１","place":"河原電子ビジネス専門学校","lat":33.8343,"lon":132.766,"state":"active","id":null},{"event_id":"61235","title":"嶺南地域観光アイデアソン～若狭湾エリア、丸ごと満喫！～","url":"https://fukui-data-challenge.connpass.com/event/61235/","shortener_url":"https://goo.gl/Mqqhfo","started_at":"2017-08-05T11:00:00.000+09:00","ended_at":"2017-08-05T16:00:00.000+09:00","limit_number":30,"address":"福井県敦賀市鉄輪町1丁目1-19","place":"敦賀駅交流施設オルパーク　多目的室・休憩室（敦賀駅2階）","lat":35.645,"lon":136.076,"state":"active","id":null},{"event_id":"89675","title":"福島 GameJam 2017 at ビサイド","url":"https://atnd.org/events/89675","shortener_url":"https://goo.gl/H4xcYc","started_at":"2017-08-19T10:00:00.000+09:00","ended_at":"2017-08-20T17:00:00.000+09:00","limit_number":25,"address":"東京都立川市曙町1-21-1 ユニゾ立川ビル1F","place":"株式会社ビサイド","lat":35.6997,"lon":139.407,"state":"closed","id":null},{"event_id":"62555","title":"データ分析AIアイディアソン (エアークローゼット with Team AI)","url":"https://connpass.com/event/62555/","shortener_url":"https://goo.gl/rNNpm8","started_at":"2017-08-05T14:00:00.000+09:00","ended_at":"2017-08-05T16:30:00.000+09:00","limit_number":25,"address":"","place":"Online","lat":35.6618,"lon":139.696,"state":"active","id":null},{"event_id":"62513","title":"第1回魔窟ハッカソン in 新宿","url":"https://connpass.com/event/62513/","shortener_url":"https://goo.gl/ckpHK1","started_at":"2017-08-07T21:00:00.000+09:00","ended_at":"2017-08-10T03:00:00.000+09:00","limit_number":116433,"address":"新宿","place":"どこか","lat":35.6938,"lon":139.704,"state":"active","id":null},{"event_id":"60657","title":"PPUG 京都 #1 - PayPalで海外にものを売ろう！ -","url":"https://ppug.connpass.com/event/60657/","shortener_url":null,"started_at":"2017-08-03T03:30:00.000+09:00","ended_at":"2017-08-03T06:30:00.000+09:00","limit_number":19,"address":"京都市中京区八百屋町117","place":"株式会社BERTRAND","lat":35.0073,"lon":135.767,"state":"active","id":null},{"event_id":"62765","title":"最終説明会！！[未経験からAIエンジニアを目指す] 　人工知能入門講座　 [定員10名　限定]","url":"https://study-ai.connpass.com/event/62765/","shortener_url":null,"started_at":"2017-08-01T04:00:00.000+09:00","ended_at":"2017-08-01T05:00:00.000+09:00","limit_number":10,"address":"東京都新宿区西新宿７－１－７(新宿ダイカンプラザＡ館610号室)","place":"コモンズ新宿西口会議室","lat":35.6945,"lon":139.699,"state":"active","id":null},{"event_id":"89680","title":"福島ゲームジャム in 沖縄","url":"https://atnd.org/events/89680","shortener_url":"https://goo.gl/bc1y7U","started_at":"2017-08-19T10:00:00.000+09:00","ended_at":"2017-08-20T19:30:00.000+09:00","limit_number":30,"address":"沖縄県中頭郡西原町字千原1","place":"琉球大学地域創生棟508号室","lat":26.2476,"lon":127.765,"state":"closed","id":null},{"event_id":"89741","title":"最終説明会！！[未経験からAIエンジニアを目指す] 　人工知能入門講座　 [定員10名　限定 　　無料説明会]","url":"https://atnd.org/events/89741","shortener_url":null,"started_at":"2017-08-01T04:00:00.000+09:00","ended_at":"2017-08-01T05:00:00.000+09:00","limit_number":5,"address":"東京都新宿区西新宿7丁目1−7 新宿ダイカンプラザA館","place":"コモンズ新宿西口会議室 ","lat":35.6945,"lon":139.699,"state":"closed","id":null},{"event_id":"63011","title":"Kaggleデータ分析ハッカソン by Team AI 8/6(日)","url":"https://teamai.connpass.com/event/63011/","shortener_url":"https://goo.gl/Hk4feg","started_at":"2017-08-06T23:00:00.000+09:00","ended_at":"2017-08-07T01:00:00.000+09:00","limit_number":8,"address":"","place":"Online","lat":35.6618,"lon":139.696,"state":"active","id":null},{"event_id":"63004","title":"福島ゲームジャム2017 Musashisakai Tokyo","url":"https://connpass.com/event/63004/","shortener_url":"https://goo.gl/vvSE24","started_at":"2017-08-19T19:00:00.000+09:00","ended_at":"2017-08-21T01:00:00.000+09:00","limit_number":12,"address":"東京都武蔵野市境2丁目2−18 M・Hビル","place":"コワーキングスペース「ぴこす」","lat":35.7041,"lon":139.544,"state":"active","id":null},{"event_id":"63003","title":"智恵の和勉強会","url":"https://connpass.com/event/63003/","shortener_url":null,"started_at":"2017-08-05T13:00:00.000+09:00","ended_at":"2017-08-05T17:00:00.000+09:00","limit_number":null,"address":"東京都港区港南 2-16-3 品川グランドセントラルタワー","place":"マイクロソフト品川本社","lat":35.6267,"lon":139.74,"state":"active","id":null},{"event_id":"62651","title":"Raspberry Jam Tokyo #008","url":"https://raspberrypi.connpass.com/event/62651/","shortener_url":"https://goo.gl/oWfwza","started_at":"2017-08-08T19:00:00.000+09:00","ended_at":"2017-08-08T21:00:00.000+09:00","limit_number":35,"address":"東京都千代田区 神田練塀町3 (富士ソフト秋葉原ビル)","place":"DMM.make AKIBA Base (12階) F2","lat":35.7008,"lon":139.774,"state":"active","id":null},{"event_id":"63156","title":"Xojo × ラズパイコンテスト・アイディアソン","url":"https://xojojp.connpass.com/event/63156/","shortener_url":"https://goo.gl/njs1Au","started_at":"2017-08-22T19:00:00.000+09:00","ended_at":"2017-08-22T21:30:00.000+09:00","limit_number":20,"address":"東京都千代田区神田小川町3-28-9 (三東ビル1F)","place":"TAM COWORKING TOKYO","lat":35.6955,"lon":139.763,"state":"active","id":null},{"event_id":"62630","title":"福島ゲームジャム2017【熊本会場】","url":"https://kumauni.connpass.com/event/62630/","shortener_url":"https://goo.gl/LV33bm","started_at":"2017-08-19T09:00:00.000+09:00","ended_at":"2017-08-20T20:00:00.000+09:00","limit_number":30,"address":"熊本県熊本市北区飛田3-5-8","place":"IoMTラボ・SOCKET","lat":32.8506,"lon":130.718,"state":"active","id":null},{"event_id":"63150","title":"Sota講習会 【Vstone Magicを始めよう】 Part 3（有料）","url":"https://sota.connpass.com/event/63150/","shortener_url":null,"started_at":"2017-08-19T04:00:00.000+09:00","ended_at":"2017-08-19T04:50:00.000+09:00","limit_number":4,"address":"東京都千代田区外神田1-9-9 内田ビル4F","place":"ヴイストン ロボットセンター秋葉原店","lat":35.6987,"lon":139.77,"state":"active","id":null},{"event_id":"63087","title":"Mackerel Plugin Hackathon #1 Tokyo","url":"https://mackerelio.connpass.com/event/63087/","shortener_url":"https://goo.gl/fpXAiZ","started_at":"2017-08-19T13:00:00.000+09:00","ended_at":"2017-08-19T18:00:00.000+09:00","limit_number":16,"address":"東京都渋谷区神泉町8-16 渋谷ファーストプレイス 8F","place":"株式会社VOYAGE GROUP","lat":35.6553,"lon":139.694,"state":"active","id":null},{"event_id":"63015","title":"【8/13・9/2】２回シリーズ『特許データを使って、自然言語処理を学ぼう！』@阪神尼崎","url":"https://soleildatadojo.doorkeeper.jp/events/63015","shortener_url":null,"started_at":"2017-08-14T00:00:00.000+09:00","ended_at":"2017-09-03T03:00:00.000+09:00","limit_number":20,"address":"兵庫県尼崎市昭和通3丁目90−1","place":"税理士荒巻政文事務所","lat":34.7207,"lon":135.417,"state":"active","id":null},{"event_id":"63172","title":"【アイディア出し・企画会議が苦手な方へ】デザイン思考体験アイディアソン「ぼく・わたしの考えるワクワクするメークアップ・スタイリング」","url":"https://c1d9453ee6916d7a5f8316e3cd.doorkeeper.jp/events/63172","shortener_url":"https://goo.gl/zS99hy","started_at":"2017-08-03T04:30:00.000+09:00","ended_at":"2017-08-03T07:00:00.000+09:00","limit_number":20,"address":"東京都渋谷区道玄坂1丁目21−14","place":"アクアミーティングスペース渋谷","lat":35.6565,"lon":139.696,"state":"active","id":null},{"event_id":"63184","title":"【エンジニア、デザイナーなら体験して欲しい】デザイン思考体験アイディアソン「ぼく・わたしの考えたワクワクする超人」","url":"https://c1d9453ee6916d7a5f8316e3cd.doorkeeper.jp/events/63184","shortener_url":"https://goo.gl/62KXNp","started_at":"2017-08-04T04:30:00.000+09:00","ended_at":"2017-08-04T07:00:00.000+09:00","limit_number":20,"address":"東京都渋谷区道玄坂1丁目21−14","place":"アクアミーティングスペース渋谷","lat":35.6565,"lon":139.696,"state":"active","id":null},{"event_id":"63199","title":"【プログラマー、デザイナーと思考したい】デザイン思考体験アイディアソン「ぼく・わたしの考えるワクワクするプログラミング教育」","url":"https://c1d9453ee6916d7a5f8316e3cd.doorkeeper.jp/events/63199","shortener_url":"https://goo.gl/z1TFmy","started_at":"2017-08-05T04:30:00.000+09:00","ended_at":"2017-08-05T07:00:00.000+09:00","limit_number":20,"address":"東京都渋谷区道玄坂1丁目21−14","place":"アクアミーティングスペース渋谷","lat":35.6565,"lon":139.696,"state":"active","id":null},{"event_id":"63224","title":"【第二弾】スタートアップの始め方（※SW大阪プレイベント）","url":"https://swosaka.doorkeeper.jp/events/63224","shortener_url":null,"started_at":"2017-08-19T22:00:00.000+09:00","ended_at":"2017-08-20T02:15:00.000+09:00","limit_number":20,"address":"大阪府大阪市北区鶴野町1 関西大学梅田キャンパス","place":"Startup Cafe Osaka","lat":34.7063,"lon":135.501,"state":"active","id":null},{"event_id":"63263","title":"宇宙スタートアップのリアルを訊く！ 「Deep Space Biz Night」〜Startup Weekend Tokyo Space プレイベント 第1弾〜","url":"https://swtokyo.doorkeeper.jp/events/63263","shortener_url":null,"started_at":"2017-08-10T04:00:00.000+09:00","ended_at":"2017-08-10T06:00:00.000+09:00","limit_number":30,"address":"東京都港区南青山3丁目13−11","place":"事業構想大学院大学","lat":35.6654,"lon":139.714,"state":"active","id":null},{"event_id":"63264","title":"優勝して台湾に行こう！４カ国同時開催のハッカソン『Asia Open Data Hackathon』【ハッカソン in Osaka】","url":"https://hackcamp.doorkeeper.jp/events/63264","shortener_url":"https://goo.gl/4xj9QE","started_at":"2017-08-05T18:30:00.000+09:00","ended_at":"2017-08-07T07:00:00.000+09:00","limit_number":30,"address":"大阪府大阪市阿倍野区阿倍野筋1丁目1−43","place":"あべのハルカス ハルカス大学","lat":34.6459,"lon":135.514,"state":"active","id":null},{"event_id":"63198","title":"Asia Open Data Hackathon ハッカソン【東京会場】","url":"https://hackcamp.doorkeeper.jp/events/63198","shortener_url":"https://goo.gl/FLhSU6","started_at":"2017-08-05T18:30:00.000+09:00","ended_at":"2017-08-07T07:00:00.000+09:00","limit_number":25,"address":"東京都品川区東品川2丁目2 海岸通り","place":"Samurai Startup Island（天王洲アイル駅近く）","lat":35.6214,"lon":139.749,"state":"active","id":null},{"event_id":"62618","title":"Startup Weekend Tokyo :: Micro Edition #2","url":"https://swtokyo.doorkeeper.jp/events/62618","shortener_url":null,"started_at":"2017-08-26T03:30:00.000+09:00","ended_at":"2017-08-28T06:30:00.000+09:00","limit_number":9,"address":"東京都新宿区高田馬場1丁目27−2","place":"Green Room in CASE-Shinjuku","lat":35.7122,"lon":139.705,"state":"active","id":null},{"event_id":"63235","title":"Fuckin' Startup Weekend #1","url":"https://tokyomokumoku.connpass.com/event/63235/","shortener_url":null,"started_at":"2017-08-19T18:00:00.000+09:00","ended_at":"2017-08-21T03:00:00.000+09:00","limit_number":null,"address":"","place":"","lat":null,"lon":null,"state":"active","id":null},{"event_id":"63223","title":"【VR勉強会】OthloEvent@ワンダープラネット #18","url":"https://othlotech.connpass.com/event/63223/","shortener_url":null,"started_at":"2017-08-25T03:00:00.000+09:00","ended_at":"2017-08-25T06:00:00.000+09:00","limit_number":50,"address":"名古屋市中区錦3-23-31 栄町ビル11F","place":"ワンダープラネット株式会社","lat":35.1692,"lon":136.905,"state":"active","id":null},{"event_id":"63309","title":"[秋葉原] 昼から電子工作する会(ラズパイなど)","url":"https://weeyble-iot.connpass.com/event/63309/","shortener_url":null,"started_at":"2017-08-04T23:00:00.000+09:00","ended_at":"2017-08-05T01:00:00.000+09:00","limit_number":8,"address":"東京都千代田区神田須田町２丁目１９−２３ (野村第３ビル ４階)","place":"コワーキングスペース秋葉原Weeyble","lat":35.6966,"lon":139.772,"state":"active","id":null},{"event_id":"63355","title":"熊ゆに 第７回 Unityもくもく会","url":"https://kumauni.connpass.com/event/63355/","shortener_url":null,"started_at":"2017-08-09T19:00:00.000+09:00","ended_at":"2017-08-09T21:00:00.000+09:00","limit_number":15,"address":"熊本県熊本市 中央区下通１丁目１２−２７","place":"未来会議室","lat":32.7998,"lon":130.708,"state":"active","id":null},{"event_id":"63308","title":"ショッカソン2017に向けた事前アイディアソン","url":"https://tmcn.connpass.com/event/63308/","shortener_url":"https://goo.gl/2aWcTZ","started_at":"2017-08-03T19:00:00.000+09:00","ended_at":"2017-08-03T21:00:00.000+09:00","limit_number":20,"address":"〒144-8588 東京都大田区新蒲田1-17-25 ","place":"富士通ソリューションスクエア ","lat":35.5579,"lon":139.713,"state":"active","id":null},{"event_id":"89950","title":"第28回よちよちAndroid名古屋支部オフライン開発ミーティング","url":"https://atnd.org/events/89950","shortener_url":null,"started_at":"2017-08-06T09:00:00.000+09:00","ended_at":"2017-08-06T12:00:00.000+09:00","limit_number":null,"address":"名古屋市中区栄三丁目18番1号 ナディアパーク デザインセンタービル6階","place":"名古屋市市民活動推進センター","lat":35.1654,"lon":136.905,"state":"closed","id":null},{"event_id":"63449","title":"Sota講習会 【Vstone Magicを始めよう】 Part 3（有料）","url":"https://sota.connpass.com/event/63449/","shortener_url":null,"started_at":"2017-08-05T04:00:00.000+09:00","ended_at":"2017-08-05T04:50:00.000+09:00","limit_number":4,"address":"東京都千代田区外神田1-9-9 内田ビル4F","place":"ヴイストン ロボットセンター秋葉原店","lat":35.6987,"lon":139.77,"state":"active","id":null},{"event_id":"63387","title":"子ども向けプログラミングクラブ コーダー道場甲府#2","url":"https://coderdojokofu.connpass.com/event/63387/","shortener_url":null,"started_at":"2017-08-20T10:20:00.000+09:00","ended_at":"2017-08-20T11:40:00.000+09:00","limit_number":8,"address":"山梨県甲府市北口２丁目８番１号","place":"山梨県立図書館","lat":35.6685,"lon":138.57,"state":"active","id":null},{"event_id":"63594","title":"医療データハッカソ­ン by Team AI 8/10(木)","url":"https://teamai.connpass.com/event/63594/","shortener_url":"https://goo.gl/3bVQZF","started_at":"2017-08-10T19:00:00.000+09:00","ended_at":"2017-08-10T21:00:00.000+09:00","limit_number":13,"address":"","place":"Online","lat":35.6618,"lon":139.696,"state":"active","id":null},{"event_id":"63593","title":"金融データハッカソ­ン by Team AI 8/9(水)","url":"https://teamai.connpass.com/event/63593/","shortener_url":"https://goo.gl/kdw2Fx","started_at":"2017-08-09T19:00:00.000+09:00","ended_at":"2017-08-09T21:00:00.000+09:00","limit_number":10,"address":"","place":"Online","lat":35.6618,"lon":139.696,"state":"active","id":null},{"event_id":"63493","title":"fukuoka.ex#2 (懇親会も)：マルチプロセスと耐障害性～福岡Elixir会MeetUp～","url":"https://techjin.connpass.com/event/63493/","shortener_url":null,"started_at":"2017-08-25T04:00:00.000+09:00","ended_at":"2017-08-25T06:00:00.000+09:00","limit_number":23,"address":" 株式会社TechJIN  〒810-0001 福岡県福岡市中央区天神3-4-3大隈ビル8F","place":"株式会社TechJIN","lat":33.5919,"lon":130.396,"state":"active","id":null},{"event_id":"63134","title":"「Mixed Reality」\u0026「HoloLensと外部デバイス、サービス」#NSStudy 12","url":"https://nsstudy.connpass.com/event/63134/","shortener_url":null,"started_at":"2017-08-24T04:00:00.000+09:00","ended_at":"2017-08-24T06:00:00.000+09:00","limit_number":110,"address":"新宿区西新宿2-7-1　小田急第一生命ビル22東京都新宿区西新宿2-7-1 (小田急第一生命ビル 11階 会議室)","place":"西新宿 小田急第一生命ビル 11F 会議室B","lat":35.6917,"lon":139.691,"state":"active","id":null},{"event_id":"63082","title":"初心者でも簡単に○○できる！？ Unityハンズオン","url":"https://osaka.connpass.com/event/63082/","shortener_url":null,"started_at":"2017-08-25T19:00:00.000+09:00","ended_at":"2017-08-25T21:30:00.000+09:00","limit_number":25,"address":"大阪市北区大深町4番20号 グランフロント大阪タワーA 35階","place":"さくらインターネット（セミナールーム）","lat":34.7041,"lon":135.495,"state":"active","id":null},{"event_id":"63863","title":"金融データハッカソ­ン by Team AI 8/16(水)","url":"https://teamai.connpass.com/event/63863/","shortener_url":"https://goo.gl/QXuaYz","started_at":"2017-08-16T19:00:00.000+09:00","ended_at":"2017-08-16T21:00:00.000+09:00","limit_number":11,"address":"","place":"Online","lat":35.6618,"lon":139.696,"state":"active","id":null},{"event_id":"63860","title":"Kaggleデータ分析ハッカソン by Team AI 8/13(日)","url":"https://teamai.connpass.com/event/63860/","shortener_url":"https://goo.gl/qLmDZb","started_at":"2017-08-13T23:00:00.000+09:00","ended_at":"2017-08-14T01:00:00.000+09:00","limit_number":8,"address":"","place":"Online","lat":35.6618,"lon":139.696,"state":"active","id":null},{"event_id":"63823","title":"電通大生限定！「機械学習」勉強会 part1","url":"https://ueqareer.connpass.com/event/63823/","shortener_url":null,"started_at":"2017-08-25T23:00:00.000+09:00","ended_at":"2017-08-26T03:00:00.000+09:00","limit_number":null,"address":"182-8585 東京都調布市調布ケ丘1-5-1 電気通信大学","place":"電気通信大学 西5号館 109","lat":35.6557,"lon":139.544,"state":"active","id":null},{"event_id":"90066","title":"wifi ジャマー製品の卸売","url":"https://atnd.org/events/90066","shortener_url":null,"started_at":"2017-08-04T16:00:00.000+09:00","ended_at":"2017-10-31T18:30:00.000+09:00","limit_number":null,"address":"","place":"","lat":null,"lon":null,"state":"closed","id":null},{"event_id":"90086","title":"【PKSHA Technology CEO上野山氏登壇】テクノロジーによる課題解決アイデアソン","url":"https://atnd.org/events/90086","shortener_url":"https://goo.gl/ygJvc9","started_at":"2017-08-20T13:00:00.000+09:00","ended_at":"2017-08-20T18:00:00.000+09:00","limit_number":40,"address":"〒150-0002 東京都渋谷区渋谷3-27-1","place":"100BANCH","lat":35.656,"lon":139.705,"state":"closed","id":null},{"event_id":"63954","title":"汎用人工知能を創ろう!勉強会 by Team AI 8/22(火)","url":"https://teamai.connpass.com/event/63954/","shortener_url":null,"started_at":"2017-08-23T04:00:00.000+09:00","ended_at":"2017-08-23T06:00:00.000+09:00","limit_number":13,"address":"","place":"Online","lat":35.6618,"lon":139.696,"state":"active","id":null},{"event_id":"90108","title":"第29回よちよちAndroid名古屋支部オフライン開発ミーティング","url":"https://atnd.org/events/90108","shortener_url":null,"started_at":"2017-08-20T09:00:00.000+09:00","ended_at":"2017-08-20T12:00:00.000+09:00","limit_number":null,"address":"名古屋市中区栄三丁目18番1号 ナディアパーク デザインセンタービル6階","place":"名古屋市市民活動推進センター","lat":35.1654,"lon":136.905,"state":"closed","id":null},{"event_id":"64020","title":"【学生\u0026若手エンジニア向け】ライフサイエンス画像解析カジュアルハッカソン！","url":"https://lpixel.connpass.com/event/64020/","shortener_url":"https://goo.gl/izW36q","started_at":"2017-08-26T18:30:00.000+09:00","ended_at":"2017-08-27T04:30:00.000+09:00","limit_number":17,"address":"東京都文京区本郷7-3-1","place":"エルピクセル株式会社本社（東京大学アントレプレナープラザ）1階会議室","lat":35.7121,"lon":139.763,"state":"active","id":null},{"event_id":"63984","title":"【忍者募集】生駒開催：子ども向けプログラミング道場（No.37）","url":"https://coderdojo-nara-ikoma.connpass.com/event/63984/","shortener_url":null,"started_at":"2017-08-26T22:00:00.000+09:00","ended_at":"2017-08-27T01:00:00.000+09:00","limit_number":14,"address":"奈良県生駒市元町1丁目7番6号","place":"市民活動推進センターららポート","lat":34.6919,"lon":135.698,"state":"active","id":null},{"event_id":"63657","title":"Fukuoka CS JAM #2 〜ペパボ/アカツキ/メルカリ CS経験者が語るキャリア〜","url":"https://csjam.connpass.com/event/63657/","shortener_url":"https://goo.gl/JaF1QB","started_at":"2017-08-25T19:30:00.000+09:00","ended_at":"2017-08-25T21:10:00.000+09:00","limit_number":23,"address":"福岡市博多区博多駅東2-5-28 (博多偕成ビル4F)","place":"株式会社メルカリ 福岡オフィス","lat":33.5878,"lon":130.423,"state":"active","id":null},{"event_id":"90110","title":"Dengan cerita lucu banget","url":"https://atnd.org/events/90110","shortener_url":null,"started_at":"2017-08-07T12:00:00.000+09:00","ended_at":"2020-05-13T23:00:00.000+09:00","limit_number":null,"address":"","place":"","lat":null,"lon":null,"state":"closed","id":null},{"event_id":"90109","title":"Contoh Surat Beragam Tujuan","url":"https://atnd.org/events/90109","shortener_url":null,"started_at":"2017-08-07T11:00:00.000+09:00","ended_at":"2021-06-16T11:00:00.000+09:00","limit_number":null,"address":"","place":"","lat":null,"lon":null,"state":"closed","id":null},{"event_id":"63957","title":"【デザイナソン】Adobe XD meeting 08","url":"https://xd-study.connpass.com/event/63957/","shortener_url":null,"started_at":"2017-08-26T20:00:00.000+09:00","ended_at":"2017-08-27T05:00:00.000+09:00","limit_number":30,"address":"東京都中央区日本橋2-7-1 (東京日本橋タワー 27階)","place":"サイボウズ 東京オフィス","lat":35.682,"lon":139.774,"state":"active","id":null},{"event_id":"64136","title":"Kaggleデータ分析ハッカソン by Team AI 8/20(日)","url":"https://teamai.connpass.com/event/64136/","shortener_url":"https://goo.gl/RP6PUy","started_at":"2017-08-20T23:00:00.000+09:00","ended_at":"2017-08-21T01:00:00.000+09:00","limit_number":9,"address":"","place":"Online","lat":35.6618,"lon":139.696,"state":"active","id":null},{"event_id":"64127","title":"第34回 福島ゲームジャム2017直前勉強会 in 岡山","url":"https://okauni.connpass.com/event/64127/","shortener_url":"https://goo.gl/hK6LXZ","started_at":"2017-08-18T18:30:00.000+09:00","ended_at":"2017-08-18T21:00:00.000+09:00","limit_number":20,"address":"岡山県岡山市北区錦町5-10","place":"KLab岡山事業所","lat":34.6634,"lon":133.921,"state":"active","id":null},{"event_id":"63978","title":"雨の日が楽しくなる未来を！『レニピ アイデアソン』","url":"https://amidus.connpass.com/event/63978/","shortener_url":"https://goo.gl/CZZkSt","started_at":"2017-08-17T18:00:00.000+09:00","ended_at":"2017-08-17T23:00:00.000+09:00","limit_number":20,"address":" 〒150-0045 東京都渋谷区神泉町８−１６ 渋谷ファーストプレイス8F","place":"株式会社VOYAGE GROUP BAR「Ajito」","lat":35.6553,"lon":139.694,"state":"active","id":null},{"event_id":"64168","title":"Eureka English Evening","url":"https://eure.connpass.com/event/64168/","shortener_url":null,"started_at":"2017-08-25T04:00:00.000+09:00","ended_at":"2017-08-25T06:30:00.000+09:00","limit_number":22,"address":"東京都港区南青山2-27-25 (ヒューリック南青山ビル5F)","place":"eureka, Inc.","lat":35.6694,"lon":139.717,"state":"active","id":null},{"event_id":"64234","title":"医療データハッカソ­ン by Team AI 8/24(木)","url":"https://teamai.connpass.com/event/64234/","shortener_url":"https://goo.gl/r5MhvM","started_at":"2017-08-24T19:00:00.000+09:00","ended_at":"2017-08-24T21:00:00.000+09:00","limit_number":10,"address":"","place":"Online","lat":35.6618,"lon":139.696,"state":"active","id":null},{"event_id":"64233","title":"金融データハッカソ­ン by Team AI 8/23(水)","url":"https://teamai.connpass.com/event/64233/","shortener_url":"https://goo.gl/PKUDGt","started_at":"2017-08-23T19:00:00.000+09:00","ended_at":"2017-08-23T21:00:00.000+09:00","limit_number":10,"address":"","place":"Online","lat":35.6618,"lon":139.696,"state":"active","id":null},{"event_id":"63629","title":"[未経験からAIエンジニアを目指す] 　人工知能入門講座　 [定員10名　限定]","url":"https://study-ai.connpass.com/event/63629/","shortener_url":null,"started_at":"2017-08-27T00:00:00.000+09:00","ended_at":"2017-08-27T01:00:00.000+09:00","limit_number":10,"address":"東京都中央区八重洲2-2-1　（日本酒類販売新八重洲口ビル 地下一階)  ","place":"スペイシー会議室　セミナールームC","lat":35.6795,"lon":139.769,"state":"active","id":null},{"event_id":"64005","title":"PPUG HUB #1 -暑気払い","url":"https://ppug.connpass.com/event/64005/","shortener_url":null,"started_at":"2017-08-24T04:00:00.000+09:00","ended_at":"2017-08-24T08:00:00.000+09:00","limit_number":25,"address":"東京都渋谷区宇田川町30-4 新岩崎ビル３Ｆ","place":"THE Aldgate","lat":35.6608,"lon":139.698,"state":"active","id":null},{"event_id":"90006","title":"[未経験からAIエンジニアを目指す] 　人工知能入門講座　 [定員10名　限定 　　無料説明会]","url":"https://atnd.org/events/90006","shortener_url":null,"started_at":"2017-08-20T22:00:00.000+09:00","ended_at":"2017-08-20T23:00:00.000+09:00","limit_number":5,"address":"東京都中央区京橋1丁目1−5 セントラルビル","place":"スペイシー会議室　セミナールームC","lat":35.6792,"lon":139.771,"state":"closed","id":null},{"event_id":"63908","title":"We Are PureScripters #2 関数型WebフロントエンドフレームワークLT大会","url":"https://weps.connpass.com/event/63908/","shortener_url":null,"started_at":"2017-08-30T04:30:00.000+09:00","ended_at":"2017-08-30T07:00:00.000+09:00","limit_number":34,"address":"東京都渋谷区道玄坂2-11-1 G-SQUARE 10F","place":"21Cafe","lat":35.6579,"lon":139.696,"state":"active","id":null},{"event_id":"64223","title":"第1回 Unity勉強会（初心者向け）【中級者以上も大歓迎！】","url":"https://chiikiokoshi-vr.connpass.com/event/64223/","shortener_url":null,"started_at":"2017-08-29T22:00:00.000+09:00","ended_at":"2017-08-30T03:00:00.000+09:00","limit_number":30,"address":"島根県松江市津田町301番地","place":"AJITO","lat":35.4609,"lon":133.066,"state":"active","id":null},{"event_id":"90228","title":"ダンエボ カウントダウンMovie -アイキャッチ動画投稿ページ-","url":"https://atnd.org/events/90228","shortener_url":null,"started_at":"2017-08-11T00:00:00.000+09:00","ended_at":"2017-10-15T23:59:00.000+09:00","limit_number":null,"address":"","place":"インターネット","lat":null,"lon":null,"state":"closed","id":null},{"event_id":"64357","title":"[未経験からAIエンジニアを目指す] 　人工知能入門講座　 [定員10名　限定]","url":"https://study-ai.connpass.com/event/64357/","shortener_url":null,"started_at":"2017-08-20T22:00:00.000+09:00","ended_at":"2017-08-20T23:00:00.000+09:00","limit_number":10,"address":"東京都中央区八重洲2-2-1　（日本酒類販売新八重洲口ビル 地下一階)  ","place":"スペイシー会議室　セミナールームC","lat":35.6795,"lon":139.769,"state":"active","id":null},{"event_id":"90238","title":"GPSなどの電波をジャミングする","url":"https://atnd.org/events/90238","shortener_url":null,"started_at":"2017-08-13T03:00:00.000+09:00","ended_at":"2017-09-30T20:30:00.000+09:00","limit_number":null,"address":"","place":"","lat":null,"lon":null,"state":"closed","id":null},{"event_id":"63732","title":"なごやでゆるふわ迎撃会","url":"https://kuxu.connpass.com/event/63732/","shortener_url":null,"started_at":"2017-08-15T04:00:00.000+09:00","ended_at":"2017-08-15T07:00:00.000+09:00","limit_number":10,"address":"愛知県名古屋市中区錦1丁目19番24号　名古屋第一ビル　4階","place":"株式会社オンザロード","lat":35.1685,"lon":136.896,"state":"active","id":null},{"event_id":"64110","title":"[秋葉原] 第10回 ゆるふわIoT電子工作入門","url":"https://weeyble-iot.connpass.com/event/64110/","shortener_url":null,"started_at":"2017-08-20T22:00:00.000+09:00","ended_at":"2017-08-21T03:00:00.000+09:00","limit_number":12,"address":"東京都千代田区神田須田町２丁目１９−２３ (野村第３ビル ４階)","place":"コワーキングスペース秋葉原Weeyble","lat":35.6966,"lon":139.772,"state":"active","id":null},{"event_id":"63748","title":"【招待制】デモデイ Asia open Data Hackathon","url":"https://hackcamp.doorkeeper.jp/events/63748","shortener_url":"https://goo.gl/LaqTCD","started_at":"2017-08-19T23:00:00.000+09:00","ended_at":"2017-08-20T04:00:00.000+09:00","limit_number":50,"address":"東京都千代田区霞が関1丁目4 桜田通り","place":"SENQ霞ヶ関","lat":35.6709,"lon":139.75,"state":"active","id":null},{"event_id":"62394","title":"いわみくと MeetUp！vol.20 （いわみICT協議会定例会 ）","url":"https://iwami-ict.doorkeeper.jp/events/62394","shortener_url":null,"started_at":"2017-08-26T03:30:00.000+09:00","ended_at":"2017-08-26T05:00:00.000+09:00","limit_number":40,"address":"島根県益田市駅前町17−1 EAGA","place":"益田会場：益田駅前EAGA  多目的室１、　浜田会場：いわみぷらっと  会議室2","lat":34.6773,"lon":131.839,"state":"active","id":null},{"event_id":"63861","title":"パラレルキャリアの始め方","url":"https://swtokyo.doorkeeper.jp/events/63861","shortener_url":null,"started_at":"2017-08-26T19:00:00.000+09:00","ended_at":"2017-08-26T21:00:00.000+09:00","limit_number":10,"address":"東京都港区南青山6丁目8−15","place":"fabbit大手町","lat":35.6597,"lon":139.716,"state":"active","id":null},{"event_id":"63862","title":"クラウドファンディングの始め方","url":"https://swtokyo.doorkeeper.jp/events/63862","shortener_url":null,"started_at":"2017-08-26T22:00:00.000+09:00","ended_at":"2017-08-27T00:00:00.000+09:00","limit_number":10,"address":"東京都港区南青山6丁目8−15","place":"fabbit大手町","lat":35.6597,"lon":139.716,"state":"active","id":null},{"event_id":"64517","title":"＜満員御礼・受付終了＞【Ruby×田舎ぐらし】島根のエンジニアと地方での働き方を語る","url":"https://connpass.com/event/64517/","shortener_url":null,"started_at":"2017-08-23T05:00:00.000+09:00","ended_at":"2017-08-23T07:00:00.000+09:00","limit_number":5,"address":"東京都渋谷区渋谷1丁目","place":"渋谷近くのBAR","lat":35.6602,"lon":139.702,"state":"active","id":null},{"event_id":"64642","title":"【100円グッズでモノづくり】くまもとヒャッカソン","url":"https://100kuma.connpass.com/event/64642/","shortener_url":"https://goo.gl/sKWoH8","started_at":"2017-08-20T22:00:00.000+09:00","ended_at":"2017-08-21T03:00:00.000+09:00","limit_number":120,"address":"熊本市中央区世安町172","place":"びぷれす","lat":32.7895,"lon":130.69,"state":"active","id":null},{"event_id":"64690","title":"Kaggleデータ分析ハッカソン by Team AI 8/27(日)","url":"https://teamai.connpass.com/event/64690/","shortener_url":"https://goo.gl/JC4mft","started_at":"2017-08-27T23:00:00.000+09:00","ended_at":"2017-08-28T01:00:00.000+09:00","limit_number":8,"address":"","place":"Online","lat":35.6618,"lon":139.696,"state":"active","id":null},{"event_id":"64622","title":"リリカルハッカソン A's","url":"https://nanohack.connpass.com/event/64622/","shortener_url":"https://goo.gl/Lq3eFT","started_at":"2017-08-26T22:00:00.000+09:00","ended_at":"2017-08-27T04:00:00.000+09:00","limit_number":30,"address":"東京都目黒区下目黒1丁目8-1","place":"株式会社ドリコム カフェスペース（アルコタワー17F）","lat":35.6314,"lon":139.714,"state":"active","id":null},{"event_id":"64685","title":"GeoDev Meetup #9 - 地図データ可視化・アプリ作成もくもく会","url":"https://geodev.connpass.com/event/64685/","shortener_url":null,"started_at":"2017-08-31T04:00:00.000+09:00","ended_at":"2017-08-31T06:00:00.000+09:00","limit_number":25,"address":"東京都千代田区平河町2-7-1（塩崎ビル）","place":"ESRIジャパン（株）5Fセミナールーム","lat":35.6792,"lon":139.741,"state":"active","id":null},{"event_id":"64887","title":"金融データハッカソ­ン by Team AI 8/30(水)","url":"https://teamai.connpass.com/event/64887/","shortener_url":"https://goo.gl/cHCm32","started_at":"2017-08-30T19:00:00.000+09:00","ended_at":"2017-08-30T21:00:00.000+09:00","limit_number":10,"address":"","place":"Online","lat":35.6618,"lon":139.696,"state":"active","id":null},{"event_id":"64902","title":"【新企画】体験型で学ぶ！発想法が身につくアイデア出し講座！","url":"https://modelor-school.connpass.com/event/64902/","shortener_url":null,"started_at":"2017-08-28T04:30:00.000+09:00","ended_at":"2017-08-28T06:30:00.000+09:00","limit_number":12,"address":"〒606-8204 京都市左京区田中下柳町7-2","place":"かぜのね","lat":35.0299,"lon":135.774,"state":"active","id":null},{"event_id":"64745","title":"第二十回　【新企画】体験型で学ぶ！発想法が身につくアイデア出し講座！","url":"https://modelor-school.connpass.com/event/64745/","shortener_url":null,"started_at":"2017-08-28T04:30:00.000+09:00","ended_at":"2017-08-28T06:30:00.000+09:00","limit_number":12,"address":"〒606-8204 京都市左京区田中下柳町7-2","place":"かぜのね","lat":35.0299,"lon":135.774,"state":"active","id":null},{"event_id":"90538","title":"第30回よちよちAndroid名古屋支部オフライン開発ミーティング","url":"https://atnd.org/events/90538","shortener_url":null,"started_at":"2017-08-27T09:00:00.000+09:00","ended_at":"2017-08-27T12:00:00.000+09:00","limit_number":null,"address":"名古屋市中区栄三丁目18番1号 ナディアパーク デザインセンタービル6階","place":"名古屋市市民活動推進センター","lat":35.1654,"lon":136.905,"state":"closed","id":null},{"event_id":"90561","title":"Best Pickup Lines For Girls And Boys Ever Funny","url":"https://atnd.org/events/90561","shortener_url":null,"started_at":"2017-08-24T09:00:00.000+09:00","ended_at":"2018-10-19T09:00:00.000+09:00","limit_number":250,"address":"","place":"","lat":null,"lon":null,"state":"closed","id":null},{"event_id":"64433","title":"GEEK GARAGE IOT vol2","url":"https://geekgarage.connpass.com/event/64433/","shortener_url":null,"started_at":"2017-08-30T04:30:00.000+09:00","ended_at":"2017-08-30T07:00:00.000+09:00","limit_number":23,"address":"東京都千代田区外神田3-3-5 ヨシヰビル","place":"MAMORIO株式会社","lat":35.7007,"lon":139.77,"state":"active","id":null},{"event_id":"59760","title":"第1回 福岡×人工知能×「全員集合!!」","url":"https://techjin.connpass.com/event/59760/","shortener_url":null,"started_at":"2017-08-05T04:00:00.000+09:00","ended_at":"2017-08-05T06:45:00.000+09:00","limit_number":41,"address":"福岡県福岡市中央区天神3-4-3 (大隈ビル8F)","place":"TechJIN 8Fスペース","lat":33.592,"lon":130.396,"state":"active","id":null},{"event_id":"64065","title":"ぷち開発合宿 #16","url":"https://ydp.connpass.com/event/64065/","shortener_url":null,"started_at":"2017-08-20T09:00:00.000+09:00","ended_at":"2017-08-20T12:00:00.000+09:00","limit_number":4,"address":"大手町駅(E2出口)","place":"大手町","lat":35.6835,"lon":139.763,"state":"active","id":null},{"event_id":"62733","title":"FIT-HACK 2017 夏季合宿","url":"https://student-kyushu.connpass.com/event/62733/","shortener_url":null,"started_at":"2017-08-12T09:00:00.000+09:00","ended_at":"2017-08-13T17:00:00.000+09:00","limit_number":30,"address":"福岡県福岡市東区和白東３−３０−１","place":"FITホール２階セミナー室１・２","lat":33.6952,"lon":130.441,"state":"active","id":null},{"event_id":"64066","title":"ぷち開発合宿 #17","url":"https://ydp.connpass.com/event/64066/","shortener_url":null,"started_at":"2017-08-26T09:00:00.000+09:00","ended_at":"2017-08-26T12:00:00.000+09:00","limit_number":4,"address":"大手町駅(E2出口)","place":"大手町","lat":35.6835,"lon":139.763,"state":"active","id":null},{"event_id":"64063","title":"ぷち開発合宿 #15","url":"https://ydp.connpass.com/event/64063/","shortener_url":null,"started_at":"2017-08-19T09:00:00.000+09:00","ended_at":"2017-08-19T12:00:00.000+09:00","limit_number":4,"address":"大手町駅(E2出口)","place":"大手町","lat":35.6835,"lon":139.763,"state":"active","id":null},{"event_id":"61132","title":"エンジニアの移住交流会～釣り、離島、まちづくり。「×IT」を実現する先駆者が語る“地方の可能性”","url":"https://iju.connpass.com/event/61132/","shortener_url":null,"started_at":"2017-08-05T13:00:00.000+09:00","ended_at":"2017-08-05T16:30:00.000+09:00","limit_number":50,"address":"東京都中央区晴海1-8-10 晴海アイランド トリトンスクエアオフィスタワーX 37階","place":"株式会社メンバーズ 晴海オフィス","lat":35.6575,"lon":139.782,"state":"active","id":null},{"event_id":"61030","title":"Azure合宿 in 湯河原 2017 夏","url":"https://azure-moku2.connpass.com/event/61030/","shortener_url":null,"started_at":"2017-08-12T13:00:00.000+09:00","ended_at":"2017-08-13T12:00:00.000+09:00","limit_number":10,"address":"湯河原駅","place":"湯河原","lat":35.1461,"lon":139.102,"state":"active","id":null},{"event_id":"60269","title":"(第79回)Python mini Hack-a-thon","url":"https://pyhack.connpass.com/event/60269/","shortener_url":null,"started_at":"2017-08-05T11:00:00.000+09:00","ended_at":"2017-08-05T19:00:00.000+09:00","limit_number":20,"address":"渋谷区千駄ヶ谷5-32-7 野村不動産南新宿ビル4F","place":"ビープラウド会議室","lat":35.6864,"lon":139.704,"state":"active","id":null},{"event_id":"60877","title":"ぷち開発合宿 #14","url":"https://ydp.connpass.com/event/60877/","shortener_url":null,"started_at":"2017-08-06T09:00:00.000+09:00","ended_at":"2017-08-06T12:00:00.000+09:00","limit_number":4,"address":"大手町駅(E2出口)","place":"大手町","lat":35.6835,"lon":139.763,"state":"active","id":null},{"event_id":"89142","title":"第５７回オープンＣＡＥ勉強会（夏合宿）","url":"https://atnd.org/events/89142","shortener_url":null,"started_at":"2017-08-26T10:00:00.000+09:00","ended_at":"2017-08-27T15:00:00.000+09:00","limit_number":40,"address":"岐阜県大垣市加賀野4丁目1番地の7","place":"ソフトピアジャパン　ドリームコア２階　岐阜イノベーションセンター研修室","lat":35.3676,"lon":136.639,"state":"closed","id":null},{"event_id":"99993","title":"GPSなどの電波をジャミング","url":"https://atnd.org/events/99993","shortener_url":null,"started_at":"2017-08-12T01:30:00.000+09:00","ended_at":"2018-09-21T02:00:00.000+09:00","limit_number":null,"address":"","place":"","lat":null,"lon":null,"state":"closed","id":null},{"event_id":"36973381379","title":"#EveryWoman Project Chicago","url":"https://www.eventbrite.com/e/everywoman-project-chicago-tickets-36973381379","shortener_url":null,"started_at":"2017-08-20T00:00:00.000+09:00","ended_at":"2021-12-19T02:30:00.000+09:00","limit_number":null,"address":null,"place":"online","lat":null,"lon":null,"state":"active","id":null}]