[{"event_id":"59964","title":"【初心者歓迎！】有名社長が教えるエンジニア勉強会♪","url":"https://connpass.com/event/59964/","shortener_url":null,"started_at":"2017-06-18T18:00:00.000+09:00","ended_at":"2017-06-18T20:00:00.000+09:00","limit_number":10,"address":"東京都渋谷区代々木神園町3－1","place":"国立オリンピック記念青少年総合センターセンター棟514号室","lat":35.6751,"lon":139.694,"state":"active","id":null},{"event_id":"55736","title":"VR/MR 体験型勉強会","url":"https://shun-tech.connpass.com/event/55736/","shortener_url":null,"started_at":"2017-06-24T04:30:00.000+09:00","ended_at":"2017-06-24T08:30:00.000+09:00","limit_number":null,"address":"石川県河北郡津幡町北中条タ1","place":"国立石川工業高等専門学校","lat":36.6612,"lon":136.739,"state":"active","id":null},{"event_id":"53581","title":"（終了しました）VR Tech Tokyo #7 Presented by CodeIQ","url":"https://vrtokyo.connpass.com/event/53581/","shortener_url":null,"started_at":"2017-06-25T12:00:00.000+09:00","ended_at":"2017-06-25T18:00:00.000+09:00","limit_number":237,"address":"東京都千代田区丸の内1-9-2","place":"グラントウキョウサウスタワー 41F アカデミーホール","lat":35.6786,"lon":139.767,"state":"active","id":null},{"event_id":"59074","title":"AI を使いこなせ！ Cognitive Services 勉強会！","url":"https://mspjp.connpass.com/event/59074/","shortener_url":null,"started_at":"2017-06-24T13:00:00.000+09:00","ended_at":"2017-06-24T18:00:00.000+09:00","limit_number":32,"address":"愛知県名古屋市中村区名駅2-35-22 メビウス名古屋ビル2階","place":"株式会社Misoca 内 セミナールーム「木曽川」","lat":35.1744,"lon":136.882,"state":"active","id":null},{"event_id":"58710","title":"[秋葉原] 第8回 ゆるふわIoT電子工作入門","url":"https://weeyble-iot.connpass.com/event/58710/","shortener_url":null,"started_at":"2017-06-18T13:00:00.000+09:00","ended_at":"2017-06-18T18:00:00.000+09:00","limit_number":15,"address":"東京都千代田区神田須田町２丁目１９−２３ (野村第３ビル ４階)","place":"コワーキングスペース秋葉原Weeyble","lat":35.6966,"lon":139.772,"state":"active","id":null},{"event_id":"59869","title":"Sota講習会 【Vstone Magicを始めよう】 Part 3（有料）","url":"https://sota.connpass.com/event/59869/","shortener_url":null,"started_at":"2017-06-23T19:00:00.000+09:00","ended_at":"2017-06-23T19:50:00.000+09:00","limit_number":4,"address":"東京都千代田区外神田1-9-9 内田ビル4F","place":"ヴイストン ロボットセンター秋葉原店","lat":35.6987,"lon":139.77,"state":"active","id":null},{"event_id":"59799","title":"UX JAM 18","url":"https://uxmilk.connpass.com/event/59799/","shortener_url":"https://goo.gl/rpHhNV","started_at":"2017-06-28T10:30:00.000+09:00","ended_at":"2017-06-28T13:00:00.000+09:00","limit_number":200,"address":"〒102-8282 東京都千代田区紀尾井町1-3 東京ガーデンテラス紀尾井町 紀尾井タワー","place":"ヤフー株式会社 セミナールーム","lat":35.6795,"lon":139.737,"state":"active","id":null},{"event_id":"58901","title":"UX MILK Workstyle 06 feat. colopl","url":"https://uxmilk.connpass.com/event/58901/","shortener_url":null,"started_at":"2017-06-21T10:30:00.000+09:00","ended_at":"2017-06-21T12:45:00.000+09:00","limit_number":200,"address":"〒150-6011 東京都渋谷区恵比寿4-20-3 (恵比寿ガーデンプレイスタワー11階)","place":"株式会社コロプラ","lat":35.6424,"lon":139.713,"state":"active","id":null},{"event_id":"58444","title":"【サポーターズCoLab勉強会】React.js を用いた最新フロントエンド開発の現場","url":"https://supporterz-seminar.connpass.com/event/58444/","shortener_url":null,"started_at":"2017-06-15T19:30:00.000+09:00","ended_at":"2017-06-15T21:00:00.000+09:00","limit_number":40,"address":"東京都渋谷区道玄坂1-9-5","place":"渋谷スクエアA 10F","lat":35.6573,"lon":139.699,"state":"active","id":null},{"event_id":"58558","title":"【サポーターズCoLab勉強会】自作アプリマネタイズ序論","url":"https://supporterz-seminar.connpass.com/event/58558/","shortener_url":null,"started_at":"2017-06-15T20:00:00.000+09:00","ended_at":"2017-06-15T21:30:00.000+09:00","limit_number":20,"address":"東京都渋谷区道玄坂1-9-5","place":"渋谷スクエアA 10F","lat":35.6573,"lon":139.699,"state":"active","id":null},{"event_id":"58723","title":"【サポーターズCoLab勉強会】女性エンジニアという生き方","url":"https://supporterz-seminar.connpass.com/event/58723/","shortener_url":null,"started_at":"2017-06-16T19:30:00.000+09:00","ended_at":"2017-06-16T21:30:00.000+09:00","limit_number":30,"address":"東京都渋谷区神泉町8-16 渋谷ファーストプレイス 8F","place":"渋谷ファーストプレイス","lat":35.6553,"lon":139.694,"state":"active","id":null},{"event_id":"59215","title":"【サポーターズCoLab勉強会】20代エンジニアのキャリア論 #5","url":"https://supporterz-seminar.connpass.com/event/59215/","shortener_url":null,"started_at":"2017-06-19T19:30:00.000+09:00","ended_at":"2017-06-19T21:00:00.000+09:00","limit_number":20,"address":"東京都渋谷区道玄坂1-9-5","place":"渋谷スクエアA 10F","lat":35.6573,"lon":139.699,"state":"active","id":null},{"event_id":"58713","title":"【サポーターズCoLab勉強会】参加者と振り返るWWDC 2017","url":"https://supporterz-seminar.connpass.com/event/58713/","shortener_url":null,"started_at":"2017-06-20T19:30:00.000+09:00","ended_at":"2017-06-20T21:00:00.000+09:00","limit_number":20,"address":"東京都渋谷区道玄坂1-9-5","place":"渋谷スクエアA","lat":35.6573,"lon":139.699,"state":"active","id":null},{"event_id":"59163","title":"【サポーターズCoLab勉強会】開発者のためのWebセキュリティ入門","url":"https://supporterz-seminar.connpass.com/event/59163/","shortener_url":null,"started_at":"2017-06-21T19:30:00.000+09:00","ended_at":"2017-06-21T21:00:00.000+09:00","limit_number":40,"address":"東京都渋谷区道玄坂1-9-5","place":"渋谷スクエアA","lat":35.6573,"lon":139.699,"state":"active","id":null},{"event_id":"58985","title":"【サポーターズCoLab勉強会】サーバーレスアーキテクチャ実践入門","url":"https://supporterz-seminar.connpass.com/event/58985/","shortener_url":null,"started_at":"2017-06-22T19:30:00.000+09:00","ended_at":"2017-06-22T21:00:00.000+09:00","limit_number":20,"address":"東京都渋谷区道玄坂1-9-5","place":"渋谷スクエアA","lat":35.6573,"lon":139.699,"state":"active","id":null},{"event_id":"59342","title":"【サポーターズCoLab勉強会】20代エンジニアのキャリア論 #6","url":"https://supporterz-seminar.connpass.com/event/59342/","shortener_url":null,"started_at":"2017-06-26T19:30:00.000+09:00","ended_at":"2017-06-26T21:00:00.000+09:00","limit_number":40,"address":"東京都渋谷区道玄坂1-9-5","place":"渋谷スクエアA","lat":35.6573,"lon":139.699,"state":"active","id":null},{"event_id":"59476","title":"【サポーターズCoLab勉強会】react + flux 入門","url":"https://supporterz-seminar.connpass.com/event/59476/","shortener_url":null,"started_at":"2017-06-27T19:30:00.000+09:00","ended_at":"2017-06-27T21:00:00.000+09:00","limit_number":20,"address":"東京都渋谷区道玄坂1-9-5","place":"渋谷スクエアA","lat":35.6573,"lon":139.699,"state":"active","id":null},{"event_id":"59388","title":"【特別イベント】今、エンジニアが摂取すべき完全栄養食とは（サンプル配布あり）","url":"https://supporterz-seminar.connpass.com/event/59388/","shortener_url":null,"started_at":"2017-06-27T19:30:00.000+09:00","ended_at":"2017-06-27T21:30:00.000+09:00","limit_number":80,"address":"東京都渋谷区神泉町8-16 渋谷ファーストプレイス 8F","place":"渋谷ファーストプレイス","lat":35.6553,"lon":139.694,"state":"active","id":null},{"event_id":"57811","title":"【Unity勉強会】OthloEvent@エイチーム #14","url":"https://othlotech.connpass.com/event/57811/","shortener_url":null,"started_at":"2017-06-18T11:00:00.000+09:00","ended_at":"2017-06-18T19:00:00.000+09:00","limit_number":40,"address":"名古屋市中村区名駅三丁目28番12号 大名古屋ビルヂング32F","place":"株式会社エイチーム本社","lat":35.1721,"lon":136.885,"state":"active","id":null},{"event_id":"56497","title":"fukuoka.ex#1：福岡Elixir会発足MeetUp（懇親会も)","url":"https://techjin.connpass.com/event/56497/","shortener_url":null,"started_at":"2017-06-08T19:00:00.000+09:00","ended_at":"2017-06-08T21:00:00.000+09:00","limit_number":27,"address":" 株式会社TechJIN  〒810-0001 福岡県福岡市中央区天神3-4-3大隈ビル8F","place":"株式会社TechJIN","lat":33.5919,"lon":130.396,"state":"active","id":null},{"event_id":"57028","title":"Japan XR Hackathon 2017【広島会場】","url":"https://hsc.connpass.com/event/57028/","shortener_url":"https://goo.gl/lv1OlZ","started_at":"2017-06-24T00:00:00.000+09:00","ended_at":"2017-06-25T12:00:00.000+09:00","limit_number":25,"address":"広島市中区紙屋町1-4-3 (エフケイビル1F)","place":"イノベーションハブCamps広島","lat":34.3941,"lon":132.459,"state":"active","id":null},{"event_id":"59073","title":"Sendai CS JAM#11　PRIDEプレゼン〜俺のカイシャと私のシゴト〜","url":"https://csjam.connpass.com/event/59073/","shortener_url":null,"started_at":"2017-06-14T10:00:00.000+09:00","ended_at":"2017-06-14T12:30:00.000+09:00","limit_number":5,"address":"宮城県仙台市青葉区本町1-12-12 (GMビルディング 7F)","place":"株式会社メルカリ　仙台オフィス","lat":38.2665,"lon":140.878,"state":"active","id":null},{"event_id":"58638","title":"第6回 Cogbot勉強会 ~ Build 2017, de:code 2017 最新情報！","url":"https://cogbot.connpass.com/event/58638/","shortener_url":null,"started_at":"2017-06-16T10:00:00.000+09:00","ended_at":"2017-06-16T12:30:00.000+09:00","limit_number":87,"address":"東京都港区港南 2-16-3 (品川グランドセントラルタワー 31階)","place":"日本マイクロソフト株式会社","lat":35.6266,"lon":139.741,"state":"active","id":null},{"event_id":"58804","title":"規制改革ベンチャー：メドレーとSBドライブ（ソフトバンクグループ）のCTOが語る開発の醍醐味とは？","url":"https://medley.connpass.com/event/58804/","shortener_url":null,"started_at":"2017-06-21T19:30:00.000+09:00","ended_at":"2017-06-21T21:30:00.000+09:00","limit_number":50,"address":"東京都千代田区紀尾井町1-3 (東京ガーデンテラス紀尾井町17F)","place":"LODGE（Yahoo! JAPAN）","lat":35.68,"lon":139.737,"state":"active","id":null},{"event_id":"59718","title":"【サポーターズCoLab勉強会】Ansible超入門ハンズオン","url":"https://supporterz-seminar.connpass.com/event/59718/","shortener_url":null,"started_at":"2017-06-28T19:30:00.000+09:00","ended_at":"2017-06-28T21:00:00.000+09:00","limit_number":20,"address":"東京都渋谷区道玄坂1-9-5","place":"渋谷スクエアA","lat":35.6573,"lon":139.699,"state":"active","id":null},{"event_id":"57889","title":"第8回ドラスゲームジャム","url":"https://dorasugj.connpass.com/event/57889/","shortener_url":"https://goo.gl/bJMf7Q","started_at":"2017-06-17T01:00:00.000+09:00","ended_at":"2017-06-17T10:00:00.000+09:00","limit_number":33,"address":"名古屋市熱田区大宝4丁目19番14号","place":"名古屋情報メディア専門学校","lat":35.1271,"lon":136.89,"state":"active","id":null},{"event_id":"59159","title":"Fukuoka CS JAM #1 〜ペパボ/アカツキ/メルカリ 新入社員登壇！LT Night！〜","url":"https://csjam.connpass.com/event/59159/","shortener_url":"https://goo.gl/tvMKJA","started_at":"2017-06-23T10:30:00.000+09:00","ended_at":"2017-06-23T12:00:00.000+09:00","limit_number":20,"address":"福岡市博多区博多駅東2-5-28 (博多偕成ビル4F)","place":"株式会社メルカリ 福岡オフィス","lat":33.5878,"lon":130.423,"state":"active","id":null},{"event_id":"54397","title":"はじめてのハッカソン Vol.25 × 機械学習 コラボイベント","url":"https://hackathon.connpass.com/event/54397/","shortener_url":null,"started_at":"2017-06-11T01:30:00.000+09:00","ended_at":"2017-06-11T12:00:00.000+09:00","limit_number":40,"address":"東京都渋谷区神泉町8-16 渋谷ファーストプレイス8F","place":"株式会社VOYAGE GROUP 渋谷ファーストプレイスオフィス","lat":35.6553,"lon":139.694,"state":"active","id":null},{"event_id":"56498","title":"はじめてのハッカソン Vol.25 × 機械学習 コラボイベント（ドタ参OK）","url":"https://kikaigakushuu.connpass.com/event/56498/","shortener_url":null,"started_at":"2017-06-11T01:30:00.000+09:00","ended_at":"2017-06-11T12:00:00.000+09:00","limit_number":25,"address":"東京都渋谷区神泉町8-16 渋谷ファーストプレイス8F","place":"株式会社VOYAGE GROUP 渋谷ファーストプレイスオフィス","lat":35.6553,"lon":139.694,"state":"active","id":null},{"event_id":"59531","title":"Sota講習会 【Vstone Magicを始めよう】 Part 3（有料）","url":"https://sota.connpass.com/event/59531/","shortener_url":null,"started_at":"2017-06-16T19:00:00.000+09:00","ended_at":"2017-06-16T19:50:00.000+09:00","limit_number":4,"address":"東京都千代田区外神田1-9-9 内田ビル4F","place":"ヴイストン ロボットセンター秋葉原店","lat":35.6987,"lon":139.77,"state":"active","id":null},{"event_id":"55639","title":"Scala勉強会200回記念 スペシャル温泉ハッカソン","url":"https://rpscala.connpass.com/event/55639/","shortener_url":null,"started_at":"2017-06-09T22:00:00.000+09:00","ended_at":"2017-06-11T09:00:00.000+09:00","limit_number":60,"address":"静岡県伊東市東松原町４番７号","place":"山喜旅館","lat":34.9725,"lon":139.098,"state":"active","id":null},{"event_id":"56415","title":"伊那市 LoRaWAN ハッカソン","url":"https://uhuru.connpass.com/event/56415/","shortener_url":"https://goo.gl/5rALwv","started_at":"2017-06-24T04:00:00.000+09:00","ended_at":"2017-06-25T09:00:00.000+09:00","limit_number":45,"address":"","place":"未定","lat":35.8356,"lon":137.964,"state":"active","id":null},{"event_id":"59273","title":"エンジニアのキャリアパス勉強会（＋懇親会）","url":"https://connpass.com/event/59273/","shortener_url":null,"started_at":"2017-06-20T19:00:00.000+09:00","ended_at":"2017-06-30T20:30:00.000+09:00","limit_number":20,"address":"東京都港区新橋5-10-8(カルチャーセンタービル5F)","place":"株式会社シーピーユー（カフェスペース）","lat":35.6634,"lon":139.755,"state":"active","id":null},{"event_id":"59047","title":"生駒開催：子ども向けプログラミング道場（No.35）","url":"https://coderdojo-nara-ikoma.connpass.com/event/59047/","shortener_url":null,"started_at":"2017-06-10T13:00:00.000+09:00","ended_at":"2017-06-10T16:00:00.000+09:00","limit_number":6,"address":"奈良県生駒市元町1丁目7番6号","place":"市民活動推進センターららポート","lat":34.6919,"lon":135.698,"state":"active","id":null},{"event_id":"57984","title":"PPUG #3 - PayPalメール決済（請求書）編 -","url":"https://ppug.connpass.com/event/57984/","shortener_url":null,"started_at":"2017-06-28T19:00:00.000+09:00","ended_at":"2017-06-28T22:00:00.000+09:00","limit_number":40,"address":"東京都渋谷区南平台町16番28号 （グラスシティ渋谷10階 受付／オープンラウンジ）","place":"株式会社 HDE","lat":35.655,"lon":139.695,"state":"active","id":null},{"event_id":"58440","title":"【学生限定】Progateもくもく会vol.1 OthloEvent#15","url":"https://othlotech.connpass.com/event/58440/","shortener_url":null,"started_at":"2017-06-10T13:00:00.000+09:00","ended_at":"2017-06-10T17:00:00.000+09:00","limit_number":20,"address":"愛知県名古屋市中村区名駅3丁目18-5 (モンマートビル5階)","place":"ベースキャンプ名古屋","lat":35.1728,"lon":136.887,"state":"active","id":null},{"event_id":"57954","title":"AI Hackathon情報インプット勉強会「Microsoft AI/Bot系API」","url":"https://ai-hackathon.connpass.com/event/57954/","shortener_url":null,"started_at":"2017-06-12T09:30:00.000+09:00","ended_at":"2017-06-12T13:00:00.000+09:00","limit_number":100,"address":"東京都港区港南 2-16-3 品川グランドセントラルタワー","place":"マイクロソフト社","lat":35.6267,"lon":139.74,"state":"active","id":null},{"event_id":"57578","title":"湯nityで神と開発合宿！","url":"https://connpass.com/event/57578/","shortener_url":null,"started_at":"2017-06-24T02:00:00.000+09:00","ended_at":"2017-06-25T08:00:00.000+09:00","limit_number":22,"address":"石川県加賀市山代温泉13-1","place":"吉田屋山王閣","lat":36.2881,"lon":136.364,"state":"active","id":null},{"event_id":"56584","title":"【大阪】XRジャム【AR/MR/VRハッカソン】","url":"https://osaka-driven-dev.connpass.com/event/56584/","shortener_url":null,"started_at":"2017-06-03T00:00:00.000+09:00","ended_at":"2017-06-04T11:30:00.000+09:00","limit_number":36,"address":"大阪市住之江区南港北2-1-10 ATCビルITM棟 6階","place":"ソフト産業プラザ TEQS","lat":34.6379,"lon":135.411,"state":"active","id":null},{"event_id":"58040","title":"【サポーターズCoLab勉強会】Docker入門","url":"https://supporterz-seminar.connpass.com/event/58040/","shortener_url":null,"started_at":"2017-06-09T19:30:00.000+09:00","ended_at":"2017-06-09T21:00:00.000+09:00","limit_number":40,"address":"東京都渋谷区道玄坂1-9-5","place":"渋谷スクエアA 10F","lat":35.6573,"lon":139.699,"state":"active","id":null},{"event_id":"59218","title":"エンジニアのキャリアパス勉強会（＋ランチ）","url":"https://connpass.com/event/59218/","shortener_url":null,"started_at":"2017-06-15T13:00:00.000+09:00","ended_at":"2017-06-21T14:30:00.000+09:00","limit_number":32,"address":"東京都港区新橋5-10-8(カルチャーセンタービル5F)","place":"株式会社シーピーユー（カフェスペース）","lat":35.6634,"lon":139.755,"state":"active","id":null},{"event_id":"59055","title":"Japan XR Hackathon 2017【岡山会場】","url":"https://okauni.connpass.com/event/59055/","shortener_url":"https://goo.gl/5AQMle","started_at":"2017-06-24T00:00:00.000+09:00","ended_at":"2017-06-25T10:00:00.000+09:00","limit_number":null,"address":"岡山県岡山市北区錦町5-10","place":"KLab岡山事業所","lat":34.6634,"lon":133.921,"state":"active","id":null},{"event_id":"57486","title":"※好評につき増席！※[TECH VALLEY 福岡 #01]エンジニアが知るべき最新技術と採用事例","url":"https://connpass.com/event/57486/","shortener_url":null,"started_at":"2017-06-23T19:30:00.000+09:00","ended_at":"2017-06-23T21:30:00.000+09:00","limit_number":30,"address":"福岡県福岡市中央区天神3-4-3 大隈ビル8F","place":"TechJIN社 イベントスペース","lat":33.5919,"lon":130.396,"state":"active","id":null},{"event_id":"58168","title":"プロに教わる！Javascript基礎講座 〜リッチコンテンツを作ってみよう〜","url":"https://modelor-school.connpass.com/event/58168/","shortener_url":null,"started_at":"2017-06-23T19:30:00.000+09:00","ended_at":"2017-06-23T21:30:00.000+09:00","limit_number":12,"address":"京都市左京区田中下柳町7-2","place":"かぜのね","lat":35.0299,"lon":135.774,"state":"active","id":null},{"event_id":"57949","title":"AI Hackathon事前情報インプット勉強会（その1）「A3RT」","url":"https://ai-hackathon.connpass.com/event/57949/","shortener_url":"https://goo.gl/pCBZ29","started_at":"2017-06-19T09:30:00.000+09:00","ended_at":"2017-06-19T13:00:00.000+09:00","limit_number":65,"address":"東京都千代田区丸の内1-9-2（グラントウキョウサウスタワー）","place":"リクルートテクノロジーズ本社（24F/セミナールームB）","lat":35.6786,"lon":139.767,"state":"active","id":null},{"event_id":"51827","title":"Global AI Hackathon Tokyo","url":"https://ai-hackathon.connpass.com/event/51827/","shortener_url":"https://goo.gl/0VVVM4","started_at":"2017-06-23T10:00:00.000+09:00","ended_at":"2017-06-25T12:00:00.000+09:00","limit_number":111,"address":"東京都渋谷区渋谷2-21-1","place":"渋谷ヒカリエ17F(レバレジーズ株式会社)","lat":35.659,"lon":139.703,"state":"active","id":null},{"event_id":"58941","title":"GeoDev Meetup #7 - 地図データ可視化・アプリ作成もくもく会","url":"https://geodev.connpass.com/event/58941/","shortener_url":null,"started_at":"2017-06-21T19:00:00.000+09:00","ended_at":"2017-06-21T21:00:00.000+09:00","limit_number":21,"address":"東京都千代田区平河町2-7-1（塩崎ビル）","place":"ESRIジャパン（株）5Fセミナールーム","lat":35.6792,"lon":139.741,"state":"active","id":null},{"event_id":"58226","title":"GCPUG Tokyo Spanner ハッカソン June 2017","url":"https://connpass.com/event/58226/","shortener_url":null,"started_at":"2017-06-03T14:00:00.000+09:00","ended_at":"2017-06-03T18:00:00.000+09:00","limit_number":60,"address":"東京都文京区本郷3-40-11","place":"株式会社トップゲート 4F","lat":35.7067,"lon":139.764,"state":"active","id":null},{"event_id":"58781","title":"GitLab Issue Bash June 2017 in Japan","url":"https://gitlab-jp.connpass.com/event/58781/","shortener_url":null,"started_at":"2017-06-03T09:00:00.000+09:00","ended_at":"2017-06-05T09:00:00.000+09:00","limit_number":10,"address":"","place":"GitLab-JP Slack","lat":null,"lon":null,"state":"active","id":null},{"event_id":"58094","title":"PyLadies Tokyo meetup #23-24 Hack-a-thon","url":"https://pyladies-tokyo.connpass.com/event/58094/","shortener_url":null,"started_at":"2017-06-17T01:00:00.000+09:00","ended_at":"2017-06-18T09:00:00.000+09:00","limit_number":21,"address":" 東京都港区三田3‒11-24 (国際興業三⽥第⼆ビル9F)","place":"株式会社カサレアル","lat":35.6405,"lon":139.741,"state":"active","id":null},{"event_id":"58414","title":"Japan XR Hackathon 2017【福岡会場】","url":"https://fmcn.connpass.com/event/58414/","shortener_url":"https://goo.gl/fZl60m","started_at":"2017-06-24T00:00:00.000+09:00","ended_at":"2017-06-25T10:00:00.000+09:00","limit_number":20,"address":"福岡県福岡市東区和白東3-30-1","place":"福岡工業大学短期大学部 B棟 5階","lat":33.6952,"lon":130.441,"state":"active","id":null},{"event_id":"57371","title":"宮崎ミライHack Days","url":"https://connpass.com/event/57371/","shortener_url":null,"started_at":"2017-06-24T00:30:00.000+09:00","ended_at":"2017-06-25T10:30:00.000+09:00","limit_number":50,"address":"宮崎市祇園2丁目78番地","place":"UMK スポーツスタジオ","lat":31.9308,"lon":131.411,"state":"active","id":null},{"event_id":"58312","title":"【サポーターズCoLab勉強会】Vue.js からはじめる JS フレームワーク（ハンズオン形式）","url":"https://supporterz-seminar.connpass.com/event/58312/","shortener_url":null,"started_at":"2017-06-13T20:00:00.000+09:00","ended_at":"2017-06-13T21:30:00.000+09:00","limit_number":20,"address":"東京都渋谷区道玄坂1-9-5","place":"渋谷スクエアA 10F","lat":35.6573,"lon":139.699,"state":"active","id":null},{"event_id":"58473","title":"【サポーターズCoLab勉強会】20代エンジニアのキャリア論 #3","url":"https://supporterz-seminar.connpass.com/event/58473/","shortener_url":null,"started_at":"2017-06-05T19:30:00.000+09:00","ended_at":"2017-06-05T21:00:00.000+09:00","limit_number":20,"address":"東京都渋谷区道玄坂1-9-5","place":"渋谷スクエアA 10F","lat":35.6573,"lon":139.699,"state":"active","id":null},{"event_id":"54405","title":"【落合陽一氏　特別講演】“現代の魔法使い” が語るエンジニアの未来","url":"https://supporterz-seminar.connpass.com/event/54405/","shortener_url":null,"started_at":"2017-06-11T19:00:00.000+09:00","ended_at":"2017-06-11T21:00:00.000+09:00","limit_number":null,"address":"東京都品川区上大崎2-13-30","place":"株式会社アカツキ　セミナールーム","lat":35.6343,"lon":139.718,"state":"active","id":null},{"event_id":"58447","title":"【学生限定】Progateもくもく会vol.2 OthloEvent#16","url":"https://othlotech.connpass.com/event/58447/","shortener_url":null,"started_at":"2017-06-25T13:00:00.000+09:00","ended_at":"2017-06-25T17:00:00.000+09:00","limit_number":20,"address":"名古屋市中村区名駅2丁目35番22号(メビウス名古屋ビル2階)","place":"株式会社Misoca セミナールーム","lat":35.1744,"lon":136.882,"state":"active","id":null},{"event_id":"58412","title":"智恵の和勉強会","url":"https://connpass.com/event/58412/","shortener_url":null,"started_at":"2017-06-03T04:00:00.000+09:00","ended_at":"2017-06-03T08:00:00.000+09:00","limit_number":null,"address":"東京都港区港南 2-16-3 品川グランドセントラルタワー","place":"マイクロソフト品川本社","lat":35.6267,"lon":139.74,"state":"active","id":null},{"event_id":"58166","title":"【好評につき第二弾】プロに教わる！はじめてのillustrator講座 ~これでベジエも怖くない~","url":"https://modelor-school.connpass.com/event/58166/","shortener_url":null,"started_at":"2017-06-09T19:30:00.000+09:00","ended_at":"2017-06-09T22:00:00.000+09:00","limit_number":12,"address":"京都市左京区田中下柳町7-2","place":"かぜのね","lat":35.0299,"lon":135.774,"state":"active","id":null},{"event_id":"58225","title":"【サポーターズCoLab勉強会】スタートアップというキャリア選択","url":"https://supporterz-seminar.connpass.com/event/58225/","shortener_url":null,"started_at":"2017-06-08T19:30:00.000+09:00","ended_at":"2017-06-08T21:00:00.000+09:00","limit_number":20,"address":"東京都渋谷区道玄坂1-9-5","place":"渋谷スクエアA","lat":35.6573,"lon":139.699,"state":"active","id":null},{"event_id":"57772","title":"【サポーターズCoLab勉強会】Unityゲームプログラミングの基礎","url":"https://supporterz-seminar.connpass.com/event/57772/","shortener_url":null,"started_at":"2017-06-07T20:00:00.000+09:00","ended_at":"2017-06-07T21:30:00.000+09:00","limit_number":20,"address":"東京都渋谷区道玄坂1-9-5","place":"渋谷スクエアA","lat":35.6573,"lon":139.699,"state":"active","id":null},{"event_id":"58103","title":"【サポーターズCoLab勉強会】Google公式サポート！Kotlin言語入門","url":"https://supporterz-seminar.connpass.com/event/58103/","shortener_url":null,"started_at":"2017-06-13T19:30:00.000+09:00","ended_at":"2017-06-13T21:00:00.000+09:00","limit_number":20,"address":"東京都渋谷区道玄坂1-9-5","place":"渋谷スクエアA","lat":35.6573,"lon":139.699,"state":"active","id":null},{"event_id":"57992","title":"【サポーターズCoLab勉強会】20代エンジニアのキャリア論","url":"https://supporterz-seminar.connpass.com/event/57992/","shortener_url":null,"started_at":"2017-06-12T19:30:00.000+09:00","ended_at":"2017-06-12T22:00:00.000+09:00","limit_number":40,"address":"東京都渋谷区道玄坂1-9-5","place":"渋谷スクエアA 10F","lat":35.6573,"lon":139.699,"state":"active","id":null},{"event_id":"57841","title":"「第2回機械学習xサウンド」「第17回エフェクターミニハッカソン」","url":"https://effectorhack.connpass.com/event/57841/","shortener_url":"https://goo.gl/DNQ9Bf","started_at":"2017-06-24T13:00:00.000+09:00","ended_at":"2017-06-24T18:00:00.000+09:00","limit_number":32,"address":"東京都渋谷区渋谷1-7-7(住友不動産青山通ビル13階)","place":"CRI・ミドルウェアC会議室","lat":35.6605,"lon":139.706,"state":"active","id":null},{"event_id":"54541","title":"ラーメン二郎ハッカソン「ジロッカソン」","url":"https://supporterz-seminar.connpass.com/event/54541/","shortener_url":null,"started_at":"2017-06-03T10:00:00.000+09:00","ended_at":"2017-06-03T20:00:00.000+09:00","limit_number":80,"address":"東京都渋谷区神泉町8-16","place":"サポーターズオフィス","lat":35.6553,"lon":139.694,"state":"active","id":null},{"event_id":"57507","title":"【サポーターズCoLab勉強会】Ruby on Rails キホンのキ","url":"https://supporterz-seminar.connpass.com/event/57507/","shortener_url":null,"started_at":"2017-06-07T19:30:00.000+09:00","ended_at":"2017-06-07T21:00:00.000+09:00","limit_number":20,"address":"東京都渋谷区道玄坂1-9-5","place":"渋谷スクエアA","lat":35.6573,"lon":139.699,"state":"active","id":null},{"event_id":"57500","title":"YouTube映像をハックせよ！ srt.jsハッカソン Supported by #ma_2017","url":"https://mashupawards.connpass.com/event/57500/","shortener_url":null,"started_at":"2017-06-03T01:00:00.000+09:00","ended_at":"2017-06-03T11:30:00.000+09:00","limit_number":40,"address":"東京都中央区銀座7-2-6 リクルートアネックス1ビル　B1F","place":"MediaTechnologyLab.Cafe","lat":35.6708,"lon":139.761,"state":"active","id":null},{"event_id":"57421","title":"【サポーターズCoLab勉強会】iOSエンジニアがReact Nativeに触れてみた","url":"https://supporterz-seminar.connpass.com/event/57421/","shortener_url":null,"started_at":"2017-06-01T19:30:00.000+09:00","ended_at":"2017-06-01T21:00:00.000+09:00","limit_number":20,"address":"東京都渋谷区道玄坂1-9-5","place":"渋谷スクエアA","lat":35.6573,"lon":139.699,"state":"active","id":null},{"event_id":"58370","title":"【初開催】Startup Weekend 北九州","url":"https://swkitakyusyu.doorkeeper.jp/events/58370","shortener_url":null,"started_at":"2017-06-30T18:00:00.000+09:00","ended_at":"2017-07-02T21:00:00.000+09:00","limit_number":60,"address":"福岡県北九州市小倉北区浅野2丁目143 あるあるCity 2号館3階","place":"fabbit","lat":33.888,"lon":130.886,"state":"active","id":null},{"event_id":"59181","title":"第二回　Startup Weekend Numazu　週末で起業体験！","url":"https://startupweekendnumazu.doorkeeper.jp/events/59181","shortener_url":null,"started_at":"2017-06-16T18:00:00.000+09:00","ended_at":"2017-06-18T21:00:00.000+09:00","limit_number":25,"address":"沼津市大手町3-4-1　沼津ラクーン3階","place":"ぬまづのたかラボ","lat":35.1015,"lon":138.86,"state":"active","id":null},{"event_id":"60302","title":"Startup Weekend Kumamoto 2017 june","url":"https://swkumamoto.doorkeeper.jp/events/60302","shortener_url":null,"started_at":"2017-06-16T18:00:00.000+09:00","ended_at":"2017-06-18T22:00:00.000+09:00","limit_number":50,"address":"熊本県熊本市中央区下通1-12-27 CORE21 下通ビル5F","place":"未来会議室","lat":32.8001,"lon":130.708,"state":"active","id":null},{"event_id":"60609","title":"Startup Weekend Tokyo Travel @ DMM六本木オフィス","url":"https://swtokyo.doorkeeper.jp/events/60609","shortener_url":null,"started_at":"2017-06-23T18:30:00.000+09:00","ended_at":"2017-06-25T21:30:00.000+09:00","limit_number":90,"address":"東京都港区六本木三丁目2番1号 住友不動産六本木グランドタワー","place":"株式会社DMM.com","lat":35.6647,"lon":139.738,"state":"active","id":null},{"event_id":"61011","title":"【満員御礼！】海外に特化したクラウドファンディングのこれまでとこれから　~新しいかたちの資産運用~","url":"https://crowd-credit.doorkeeper.jp/events/61011","shortener_url":null,"started_at":"2017-06-21T19:00:00.000+09:00","ended_at":"2017-06-21T21:00:00.000+09:00","limit_number":120,"address":"東京都中央区日本橋茅場町1-5-8 東京証券会館1階","place":"Caf Salvador Business Salon","lat":35.6806,"lon":139.779,"state":"active","id":null},{"event_id":"61026","title":"Startup Weekend Tokyo @ TIS 20170630-0702","url":"https://swtokyo.doorkeeper.jp/events/61026","shortener_url":null,"started_at":"2017-06-30T18:30:00.000+09:00","ended_at":"2017-07-02T21:30:00.000+09:00","limit_number":40,"address":"東京都新宿区西新宿6丁目24番1  西新宿三井ビルディング 23F","place":"bit＆innovation","lat":35.695,"lon":139.689,"state":"active","id":null},{"event_id":"61332","title":"【懇親会アリ】エンジニアとデザイナーに知って欲しいデザイン思考体験アイディアソン「ぼく・わたしの考えるIoTのあるワクワクする暮し」","url":"https://c1d9453ee6916d7a5f8316e3cd.doorkeeper.jp/events/61332","shortener_url":"https://goo.gl/0mY3AO","started_at":"2017-06-23T19:30:00.000+09:00","ended_at":"2017-06-23T22:00:00.000+09:00","limit_number":20,"address":"150-0002 東京都渋谷区渋谷2-7-5 URD渋谷第2ビル 4階","place":"株式会社YAZセミナルーム","lat":35.6603,"lon":139.708,"state":"active","id":null},{"event_id":"61513","title":"NPO・CSRを牽引するアナタに届け！デザイン思考を用いた妊活アイディアソン報告会「デザイン思考は社会課題でこそ生きる！」【交流会もアリ〼】","url":"https://c1d9453ee6916d7a5f8316e3cd.doorkeeper.jp/events/61513","shortener_url":"https://goo.gl/o4NZwV","started_at":"2017-06-29T10:30:00.000+09:00","ended_at":"2017-06-29T13:00:00.000+09:00","limit_number":15,"address":"東京都新宿区西新宿6丁目24−1 西新宿三井ビル","place":"bit \u0026 innovation","lat":35.6951,"lon":139.689,"state":"active","id":null},{"event_id":"61562","title":"【松本初開催】異能（Inno）vationプログラム説明会＆アイデアソン","url":"https://knowers.doorkeeper.jp/events/61562","shortener_url":"https://goo.gl/Xv4mHl","started_at":"2017-06-16T09:00:00.000+09:00","ended_at":"2017-06-16T10:30:00.000+09:00","limit_number":30,"address":"長野県松本市大手1丁目3 ラボラトリオ","place":"KNOWERS MATSUMOTO","lat":36.2357,"lon":137.965,"state":"active","id":null},{"event_id":"61422","title":"第１８回 MeetUp （いわみICT協議会定例会 ）","url":"https://iwami-ict.doorkeeper.jp/events/61422","shortener_url":null,"started_at":"2017-06-23T09:30:00.000+09:00","ended_at":"2017-06-23T11:00:00.000+09:00","limit_number":null,"address":"島根県浜田市相生町1391−8 ゆめマート浜田","place":"いわみぷらっと会議室","lat":34.8981,"lon":132.091,"state":"active","id":null},{"event_id":"61753","title":"Japan XR Hackathon 2017","url":"https://japanvrhachathon.doorkeeper.jp/events/61753","shortener_url":"https://goo.gl/s9zE1Q","started_at":"2017-06-24T00:00:00.000+09:00","ended_at":"2017-06-25T13:00:00.000+09:00","limit_number":300,"address":"東京都江東区青海2丁目5−10","place":"コワーキングスペースMONO","lat":35.6175,"lon":139.78,"state":"active","id":null},{"event_id":"61815","title":"StartupWeekendは何が面白いのか、なんで面白いのか、どのくらい面白いのか","url":"https://swtokyo.doorkeeper.jp/events/61815","shortener_url":null,"started_at":"2017-06-22T10:30:00.000+09:00","ended_at":"2017-06-22T12:00:00.000+09:00","limit_number":15,"address":"東京都千代田区平河町2丁目7−5","place":"株式会社ガイアックス ","lat":35.6798,"lon":139.74,"state":"active","id":null},{"event_id":"88719","title":"エンジニアのキャリアパス勉強会（＋懇親会）","url":"https://atnd.org/events/88719","shortener_url":null,"started_at":"2017-06-29T10:00:00.000+09:00","ended_at":"2017-06-30T11:30:00.000+09:00","limit_number":10,"address":"東京都港区新橋5-10-8","place":"カルチャーセンタービル5F","lat":35.6634,"lon":139.755,"state":"closed","id":null},{"event_id":"88892","title":"【初心者歓迎！】有名社長が教えるエンジニア勉強会♪","url":"https://atnd.org/events/88892","shortener_url":null,"started_at":"2017-06-18T09:00:00.000+09:00","ended_at":"2017-06-18T11:30:00.000+09:00","limit_number":30,"address":"東京都渋谷区代々木神園町3-1","place":"国立オリンピック記念青少年総合センター","lat":35.6751,"lon":139.694,"state":"closed","id":null},{"event_id":"88800","title":"第277回 よちよちAndroid オフライン開発ミーティング in 大崎","url":"https://atnd.org/events/88800","shortener_url":null,"started_at":"2017-06-18T01:00:00.000+09:00","ended_at":"2017-06-18T03:00:00.000+09:00","limit_number":null,"address":"東京都品川区大崎1-11-1","place":"ゲートシティ大崎B1アトリウムフリー座席","lat":35.6194,"lon":139.731,"state":"closed","id":null},{"event_id":"88664","title":"エンジニアのキャリアパス勉強会（＋ランチ）","url":"https://atnd.org/events/88664","shortener_url":null,"started_at":"2017-06-15T04:00:00.000+09:00","ended_at":"2017-06-21T05:30:00.000+09:00","limit_number":32,"address":"東京都港区新橋5丁目8−9 オオトミ(白井)ビル","place":"カルチャーセンタービル 5F","lat":35.6634,"lon":139.755,"state":"closed","id":null},{"event_id":"88616","title":"第276回 よちよちAndroid オフライン開発ミーティング in 大崎","url":"https://atnd.org/events/88616","shortener_url":null,"started_at":"2017-06-11T01:00:00.000+09:00","ended_at":"2017-06-11T03:00:00.000+09:00","limit_number":null,"address":"東京都品川区大崎1-11-1","place":"ゲートシティ大崎B1アトリウムフリー座席","lat":35.6194,"lon":139.731,"state":"closed","id":null},{"event_id":"88698","title":"第22回よちよちAndroid名古屋支部オフライン開発ミーティング","url":"https://atnd.org/events/88698","shortener_url":null,"started_at":"2017-06-11T00:00:00.000+09:00","ended_at":"2017-06-11T03:00:00.000+09:00","limit_number":null,"address":"名古屋市中区栄三丁目18番1号 ナディアパーク デザインセンタービル6階","place":"名古屋市市民活動推進センター","lat":35.1654,"lon":136.905,"state":"closed","id":null},{"event_id":"88184","title":"6月7日(水曜)19:00～ #ナイス街 3周年記念 @新宿BE-WAVE ","url":"https://atnd.org/events/88184","shortener_url":null,"started_at":"2017-06-07T10:00:00.000+09:00","ended_at":"2017-06-07T15:00:00.000+09:00","limit_number":555555,"address":"東京都新宿区 歌舞伎町1-15-9","place":"Cafe\u0026Bar BE-WAVE ","lat":35.6942,"lon":139.702,"state":"closed","id":null},{"event_id":"88428","title":"第275回 よちよちAndroid オフライン開発ミーティング in 大崎","url":"https://atnd.org/events/88428","shortener_url":null,"started_at":"2017-06-04T01:00:00.000+09:00","ended_at":"2017-06-04T03:00:00.000+09:00","limit_number":null,"address":"東京都品川区大崎1-11-1","place":"ゲートシティ大崎B1アトリウムフリー座席","lat":35.6194,"lon":139.731,"state":"closed","id":null},{"event_id":"88295","title":"第21回よちよちAndroid名古屋支部オフライン開発ミーティング","url":"https://atnd.org/events/88295","shortener_url":null,"started_at":"2017-06-04T00:00:00.000+09:00","ended_at":"2017-06-04T03:00:00.000+09:00","limit_number":null,"address":"名古屋市中区栄三丁目18番1号 ナディアパーク デザインセンタービル6階","place":"名古屋市市民活動推進センター","lat":35.1654,"lon":136.905,"state":"closed","id":null},{"event_id":"88896","title":"第５０回 八時間耐久作品制作会(仮)","url":"https://atnd.org/events/88896","shortener_url":null,"started_at":"2017-06-25T01:00:00.000+09:00","ended_at":"2017-06-25T10:00:00.000+09:00","limit_number":40,"address":"福岡市東区和白東3-30-1","place":"福岡工業大学短期大学部 B棟 5階  ","lat":33.6952,"lon":130.441,"state":"closed","id":null},{"event_id":"88917","title":"第23回よちよちAndroid名古屋支部オフライン開発ミーティング","url":"https://atnd.org/events/88917","shortener_url":null,"started_at":"2017-06-18T00:00:00.000+09:00","ended_at":"2017-06-18T03:00:00.000+09:00","limit_number":null,"address":"名古屋市中区栄三丁目18番1号 ナディアパーク デザインセンタービル6階","place":"名古屋市市民活動推進センター","lat":35.1654,"lon":136.905,"state":"closed","id":null},{"event_id":"60614","title":"【クラッピーチャレンジ】クラッパソンmini","url":"https://100kuma.connpass.com/event/60614/","shortener_url":null,"started_at":"2017-06-30T19:00:00.000+09:00","ended_at":"2017-06-30T21:00:00.000+09:00","limit_number":13,"address":"熊本市中央区世安町172","place":"びぷれす","lat":32.7895,"lon":130.69,"state":"active","id":null},{"event_id":"60249","title":"ほんとうに初めてのUnity勉強会","url":"https://connpass.com/event/60249/","shortener_url":null,"started_at":"2017-06-27T19:00:00.000+09:00","ended_at":"2017-06-27T21:00:00.000+09:00","limit_number":10,"address":"大阪府大阪市天王寺区上汐3-8-4 (プラスビル511)","place":"株式会社あんず堂","lat":34.666,"lon":135.517,"state":"active","id":null},{"event_id":"88952","title":"第278回 よちよちAndroid オフライン開発ミーティング in 大崎","url":"https://atnd.org/events/88952","shortener_url":null,"started_at":"2017-06-25T01:00:00.000+09:00","ended_at":"2017-06-25T03:00:00.000+09:00","limit_number":null,"address":"東京都品川区大崎1-11-1","place":"ゲートシティ大崎B1アトリウムフリー座席","lat":35.6194,"lon":139.731,"state":"closed","id":null},{"event_id":"54202","title":"みんなのPython勉強会#25","url":"https://startpython.connpass.com/event/54202/","shortener_url":null,"started_at":"2017-06-07T10:00:00.000+09:00","ended_at":"2017-06-07T12:00:00.000+09:00","limit_number":170,"address":"〒100-8111 東京都千代田区麹町２丁目１０−９","place":"クリーク・アンド・リバー社","lat":35.6854,"lon":139.741,"state":"active","id":null},{"event_id":"60636","title":"ぷち開発合宿 #5","url":"https://ydp.connpass.com/event/60636/","shortener_url":null,"started_at":"2017-06-25T00:00:00.000+09:00","ended_at":"2017-06-25T02:30:00.000+09:00","limit_number":4,"address":"大手町駅(E2出口)","place":"大手町","lat":35.6835,"lon":139.763,"state":"active","id":null},{"event_id":"60635","title":"ぷち開発合宿 #4","url":"https://ydp.connpass.com/event/60635/","shortener_url":null,"started_at":"2017-06-24T00:00:00.000+09:00","ended_at":"2017-06-24T03:00:00.000+09:00","limit_number":4,"address":"大手町駅(E2出口)","place":"大手町","lat":35.6835,"lon":139.763,"state":"active","id":null},{"event_id":"58592","title":"【インタースペース＆ヒトクセ共催】若手JavaScriptエンジニア＆デザイナーLT交流会","url":"https://technight.connpass.com/event/58592/","shortener_url":null,"started_at":"2017-06-30T10:30:00.000+09:00","ended_at":"2017-06-30T13:00:00.000+09:00","limit_number":80,"address":"","place":"未定都内某所","lat":35.6882,"lon":139.694,"state":"active","id":null},{"event_id":"59605","title":"ぷち開発合宿 #3","url":"https://ydp.connpass.com/event/59605/","shortener_url":null,"started_at":"2017-06-18T00:00:00.000+09:00","ended_at":"2017-06-18T03:00:00.000+09:00","limit_number":4,"address":"大手町駅(E2出口)","place":"大手町","lat":35.6835,"lon":139.763,"state":"active","id":null},{"event_id":"58329","title":"PyCon JP デザインチームMTG #4","url":"https://pyconjp-staff.connpass.com/event/58329/","shortener_url":null,"started_at":"2017-06-20T10:30:00.000+09:00","ended_at":"2017-06-20T12:00:00.000+09:00","limit_number":8,"address":"東京都 渋谷区 1-8-1 (第三西青山ビル8F)","place":"びぎねっと","lat":35.6604,"lon":139.705,"state":"active","id":null},{"event_id":"58125","title":"SocioInfo#14 GISを使ってGEOINTをしよう！","url":"https://socioinfo.connpass.com/event/58125/","shortener_url":null,"started_at":"2017-06-10T00:30:00.000+09:00","ended_at":"2017-06-11T07:00:00.000+09:00","limit_number":20,"address":"〒314-0144 茨城県神栖市大野原4-7-11","place":"鹿島セントラルホテル","lat":35.8989,"lon":140.638,"state":"active","id":null},{"event_id":"56648","title":"PyCon JP 2017 スタッフ合宿","url":"https://pyconjp-staff.connpass.com/event/56648/","shortener_url":null,"started_at":"2017-06-10T06:00:00.000+09:00","ended_at":"2017-06-11T06:00:00.000+09:00","limit_number":15,"address":"静岡県伊東市東松原町4-7","place":"山喜旅館","lat":34.9725,"lon":139.098,"state":"active","id":null},{"event_id":"59262","title":"ぷち開発合宿 #1","url":"https://ydp.connpass.com/event/59262/","shortener_url":null,"started_at":"2017-06-10T00:00:00.000+09:00","ended_at":"2017-06-10T03:00:00.000+09:00","limit_number":4,"address":"大手町駅(E2出口)","place":"大手町","lat":35.6835,"lon":139.763,"state":"active","id":null},{"event_id":"59269","title":"ぷち開発合宿 #2","url":"https://ydp.connpass.com/event/59269/","shortener_url":null,"started_at":"2017-06-11T00:00:00.000+09:00","ended_at":"2017-06-12T03:00:00.000+09:00","limit_number":4,"address":"大手町駅(E2出口)","place":"大手町","lat":35.6835,"lon":139.763,"state":"active","id":null},{"event_id":"59180","title":"みんなのPython勉強会リモート中継 in GEEKLAB.NAGANO　#18","url":"https://glnagano.connpass.com/event/59180/","shortener_url":null,"started_at":"2017-06-07T10:00:00.000+09:00","ended_at":"2017-06-07T12:00:00.000+09:00","limit_number":null,"address":"長野県長野市南県町県都ビル６F","place":"ギークラボ長野","lat":36.6492,"lon":138.182,"state":"active","id":null},{"event_id":"87451","title":"WordBench東九条合宿2017","url":"https://atnd.org/events/87451","shortener_url":null,"started_at":"2017-06-23T09:00:00.000+09:00","ended_at":"2017-06-25T01:00:00.000+09:00","limit_number":15,"address":"京都市南区東九条南河原町3","place":"東九条文庫センター","lat":34.981,"lon":135.766,"state":"closed","id":null},{"event_id":"32739626103","title":"MergeLane QuickPitch","url":"https://www.eventbrite.com/e/mergelane-quickpitch-registration-32739626103","shortener_url":null,"started_at":"2017-06-12T17:00:00.000+09:00","ended_at":"2022-07-07T18:00:00.000+09:00","limit_number":null,"address":null,"place":"online","lat":null,"lon":null,"state":"active","id":null},{"event_id":"35703687691","title":"YWCA FOCUS@Work Info Session | FREE Job Search Program for Women","url":"https://www.eventbrite.ca/e/ywca-focuswork-info-session-free-job-search-program-for-women-tickets-35703687691","shortener_url":null,"started_at":"2017-06-28T19:30:00.000+09:00","ended_at":"2022-03-29T21:00:00.000+09:00","limit_number":null,"address":null,"place":"online","lat":null,"lon":null,"state":"active","id":null}]