[{"event_id":"59623","title":"XR GameJam in Japan 2017 Autumn 【島根会場】","url":"https://chiikiokoshi-vr.connpass.com/event/59623/","shortener_url":"https://goo.gl/KXt3Mn","started_at":"2017-11-25T00:00:00.000+09:00","ended_at":"2017-11-26T12:00:00.000+09:00","limit_number":45,"address":"島根県松江市津田町301番地","place":"AJITO","lat":35.4609,"lon":133.066,"state":"active","id":null},{"event_id":"59385","title":"TDDBC Matsue #1","url":"https://tddbc.connpass.com/event/59385/","shortener_url":null,"started_at":"2017-11-11T12:30:00.000+09:00","ended_at":"2017-11-12T16:00:00.000+09:00","limit_number":null,"address":"島根県松江市津田町３０１ (リバーサイドビルディング1F)","place":"AJITO | アジト","lat":35.4609,"lon":133.066,"state":"active","id":null},{"event_id":"65800","title":"データから考える高知のミライセミナー","url":"https://connpass.com/event/65800/","shortener_url":null,"started_at":"2017-11-16T13:00:00.000+09:00","ended_at":"2017-11-16T17:00:00.000+09:00","limit_number":70,"address":"高知県高知市永国寺町6-28","place":"高知県立大学・高知工科大学 永国寺キャンパス　地域連携棟4F 多目的ホール","lat":33.5632,"lon":133.535,"state":"active","id":null},{"event_id":"64393","title":"SWTokyo IoT(Hardware)@NHN Techorus","url":"https://swtokyo.doorkeeper.jp/events/64393","shortener_url":null,"started_at":"2017-11-24T18:30:00.000+09:00","ended_at":"2017-11-26T21:00:00.000+09:00","limit_number":40,"address":"、東京都港区 環二通り","place":"NHNテコラス株式会社","lat":35.6668,"lon":139.749,"state":"active","id":null},{"event_id":"64896","title":"Startup Weekend えひめ vol.5（スタートアップ ウイークエンド愛媛） ","url":"https://swehime.doorkeeper.jp/events/64896","shortener_url":null,"started_at":"2017-11-10T18:30:00.000+09:00","ended_at":"2017-11-12T21:00:00.000+09:00","limit_number":50,"address":"愛媛県松山市二番町3丁目7−12 QUALITAMATSUYAMA","place":"サイボウズ株式会社　松山オフィス","lat":33.84,"lon":132.769,"state":"active","id":null},{"event_id":"66345","title":"GDG温泉︎ in 湯布院 Devfest","url":"https://gdg.connpass.com/event/66345/","shortener_url":null,"started_at":"2017-11-03T13:00:00.000+09:00","ended_at":"2017-11-05T15:00:00.000+09:00","limit_number":20,"address":"由布市湯布院町川上茶屋の上３３６６－４","place":"日本文理大学","lat":33.2756,"lon":131.351,"state":"active","id":null},{"event_id":"66100","title":"【広島会場】XR GameJam 2017 Autumn","url":"https://hsc.connpass.com/event/66100/","shortener_url":"https://goo.gl/wkfqpJ","started_at":"2017-11-25T00:00:00.000+09:00","ended_at":"2017-11-26T12:00:00.000+09:00","limit_number":21,"address":"広島市中区大手町2丁目2-13","place":"デジタルものづくりスペース デジハコ（株式会社ワールドエリアネットワークス）ザ・ガーデンプレイス紙屋町 5F ","lat":34.393,"lon":132.456,"state":"active","id":null},{"event_id":"64938","title":"【日本初開催】Startup Weekend Tokyo Space @ Startup Hub Tokyo","url":"https://swtokyo.doorkeeper.jp/events/64938","shortener_url":null,"started_at":"2017-11-03T18:30:00.000+09:00","ended_at":"2017-11-05T21:30:00.000+09:00","limit_number":70,"address":"東京都千代田区丸の内2丁目1−1 明治安田生命ビル","place":"Startup Hub Tokyo","lat":35.6792,"lon":139.762,"state":"active","id":null},{"event_id":"67430","title":"【内閣府主催】RESASハッカソン2017 in 岩手 ～Web・IoTで創る岩手のミライ～","url":"https://connpass.com/event/67430/","shortener_url":"https://goo.gl/qCSLn1","started_at":"2017-11-04T00:30:00.000+09:00","ended_at":"2017-11-05T09:30:00.000+09:00","limit_number":35,"address":"岩手県滝沢市 巣子１５２−３７８","place":"滝沢市IPU第２イノベーションセンター","lat":39.8003,"lon":141.137,"state":"active","id":null},{"event_id":"67436","title":"【内閣府主催】RESASハッカソン2017 in 東京 ～IoTで創る東京のミライ～","url":"https://connpass.com/event/67436/","shortener_url":"https://goo.gl/KYyaLX","started_at":"2017-11-18T00:30:00.000+09:00","ended_at":"2017-11-19T09:30:00.000+09:00","limit_number":65,"address":"〒182-8585　東京都調布市調布ヶ丘1-5-1","place":"電気通信大学　創立80周年記念会館リサージュ","lat":35.6557,"lon":139.544,"state":"active","id":null},{"event_id":"67435","title":"【内閣府主催】RESASハッカソン2017 in 愛知 ～Web・IoTで創る愛知のミライ～","url":"https://connpass.com/event/67435/","shortener_url":"https://goo.gl/9nakHW","started_at":"2017-11-18T00:30:00.000+09:00","ended_at":"2017-11-19T09:30:00.000+09:00","limit_number":35,"address":"〒466-8555 名古屋市昭和区御器所町","place":"名古屋工業大学 NITechHall ラーニングコモンズ","lat":35.156,"lon":136.924,"state":"active","id":null},{"event_id":"67434","title":"まちを楽しく盛り上げる アイデアソン \u0026 ハッカソン","url":"https://connpass.com/event/67434/","shortener_url":"https://goo.gl/6bkWeq","started_at":"2017-11-23T01:00:00.000+09:00","ended_at":"2017-12-03T08:00:00.000+09:00","limit_number":35,"address":"〒503-0006　岐阜県大垣市加賀野4丁目1番地7","place":"ソフトピアジャパンセンター","lat":35.3676,"lon":136.639,"state":"active","id":null},{"event_id":"67640","title":"XR GameJam in Japan 2017 Autumn in 会津","url":"https://openapplab.connpass.com/event/67640/","shortener_url":"https://goo.gl/q19Vqh","started_at":"2017-11-25T00:00:00.000+09:00","ended_at":"2017-11-26T12:30:00.000+09:00","limit_number":null,"address":"福島県会津若松市一箕町鶴賀上居合90 復興支援センター","place":"会津大学 LICTiA 2F","lat":37.5245,"lon":139.94,"state":"active","id":null},{"event_id":"67489","title":"第4回　秋葉原IoTツアーズ","url":"https://connpass.com/event/67489/","shortener_url":null,"started_at":"2017-11-25T10:00:00.000+09:00","ended_at":"2017-11-25T20:30:00.000+09:00","limit_number":20,"address":"東京都千代田区神田練塀町3(富士ソフト秋葉原ビル)","place":"DMM.make AKIBA","lat":35.7008,"lon":139.774,"state":"active","id":null},{"event_id":"67898","title":"つくるUOZUプロジェクト ゲームフォーラム","url":"https://uozu.connpass.com/event/67898/","shortener_url":null,"started_at":"2017-11-12T00:30:00.000+09:00","ended_at":"2017-11-12T08:00:00.000+09:00","limit_number":67,"address":"富山県魚津市宮津110","place":"新川文化ホール","lat":36.8045,"lon":137.408,"state":"active","id":null},{"event_id":"67429","title":"【内閣府主催】RESASハッカソン2017 in 鳥取 ～Web・IoTで創る鳥取のミライ～","url":"https://connpass.com/event/67429/","shortener_url":"https://goo.gl/yz1q8D","started_at":"2017-11-04T00:30:00.000+09:00","ended_at":"2017-11-05T10:00:00.000+09:00","limit_number":40,"address":"〒680-0841 鳥取県鳥取市吉方温泉３丁目７０１","place":"鳥取市文化センター","lat":35.4925,"lon":134.234,"state":"active","id":null},{"event_id":"67439","title":"【開催決定！】【内閣府主催】RESASハッカソン2017 in 香川","url":"https://connpass.com/event/67439/","shortener_url":"https://goo.gl/PgTAWg","started_at":"2017-11-11T00:30:00.000+09:00","ended_at":"2017-11-12T09:30:00.000+09:00","limit_number":35,"address":"〒760-0019 香川県高松市サンポート２−１ 高松シンボルタワータワー棟","place":"情報通信交流館 e-とぴあ・かがわ","lat":34.3527,"lon":134.047,"state":"active","id":null},{"event_id":"67757","title":"【開催決定！】【内閣府主催】RESASハッカソン2017 in 福岡","url":"https://connpass.com/event/67757/","shortener_url":"https://goo.gl/H2r2by","started_at":"2017-11-25T00:30:00.000+09:00","ended_at":"2017-11-26T09:30:00.000+09:00","limit_number":35,"address":"〒810-0042 福岡県福岡市中央区赤坂1−12−15 読売福岡ビル","place":"さくらインターネット福岡オフィス","lat":33.5885,"lon":130.389,"state":"active","id":null},{"event_id":"65170","title":"【11/4（土）、5（日）2日間連続講義】事例で学ぶ！ビジネスデータ分析実践・R編","url":"https://soleildatadojo.doorkeeper.jp/events/65170","shortener_url":null,"started_at":"2017-11-04T10:00:00.000+09:00","ended_at":"2017-11-05T17:10:00.000+09:00","limit_number":20,"address":"兵庫県尼崎市昭和通3丁目90−1","place":"税理士荒巻政文事務所","lat":34.7207,"lon":135.417,"state":"active","id":null},{"event_id":"68397","title":"Moon Light Hack! 月夜の下のハッカソン","url":"https://connpass.com/event/68397/","shortener_url":"https://goo.gl/p3FwL3","started_at":"2017-11-04T02:30:00.000+09:00","ended_at":"2017-11-05T08:00:00.000+09:00","limit_number":20,"address":"長野県諏訪郡富士見町富士見3785-3","place":"富士見 森のオフィス","lat":35.9108,"lon":138.238,"state":"active","id":null},{"event_id":"68601","title":"Takizawa Hackathon Ver.4","url":"https://takizawahackathon.connpass.com/event/68601/","shortener_url":"https://goo.gl/7GTFr5","started_at":"2017-11-11T01:00:00.000+09:00","ended_at":"2017-11-12T07:00:00.000+09:00","limit_number":35,"address":" 岩手県滝沢市巣子152-409","place":"滝沢市IPU第2イノベーションセンター","lat":39.7997,"lon":141.138,"state":"active","id":null},{"event_id":"68972","title":"Vietnam Tech Connect in Japan","url":"https://vietnam-geeks-injp.connpass.com/event/68972/","shortener_url":null,"started_at":"2017-11-25T18:30:00.000+09:00","ended_at":"2017-11-25T22:30:00.000+09:00","limit_number":50,"address":"2nd floor, Seiho Builiding, Kita-Aoyama3-5-6, Minatoku, Tokyo","place":"G's ACADEMY TOKYO BASE","lat":null,"lon":null,"state":"active","id":null},{"event_id":"69145","title":"塩尻ハッカソン予選 #MA_2017 求むトガった作品！！","url":"https://mashupawards.connpass.com/event/69145/","shortener_url":"https://goo.gl/iE9KFi","started_at":"2017-11-02T09:30:00.000+09:00","ended_at":"2017-11-03T09:30:00.000+09:00","limit_number":25,"address":"長野県塩尻市大門八番町1-2","place":"塩尻インキュベーションプラザSIP 1F多目的ホール","lat":36.1113,"lon":137.95,"state":"active","id":null},{"event_id":"69074","title":"XR GameJam 2017 Autumn【福岡会場】","url":"https://connpass.com/event/69074/","shortener_url":"https://goo.gl/y7zRfV","started_at":"2017-11-25T09:00:00.000+09:00","ended_at":"2017-11-26T19:00:00.000+09:00","limit_number":15,"address":"福岡県福岡市東区和白東3-30-1","place":"福岡工業大学短期大学部 B棟 5階","lat":33.6952,"lon":130.441,"state":"active","id":null},{"event_id":"64712","title":"【新規事業アイデアソン】OthloEvent@ビズリーチ #21","url":"https://othlotech.connpass.com/event/64712/","shortener_url":"https://goo.gl/zD1hzz","started_at":"2017-11-11T01:00:00.000+09:00","ended_at":"2017-11-11T08:00:00.000+09:00","limit_number":20,"address":"愛知県名古屋市中区丸の内3-17-24　NAYUTA BLD","place":"NAYUTA BLD(ナユタビル)","lat":35.1748,"lon":136.905,"state":"active","id":null},{"event_id":"69438","title":"筋肉.swift #1","url":"https://kinniku-swift.connpass.com/event/69438/","shortener_url":null,"started_at":"2017-11-29T19:20:00.000+09:00","ended_at":"2017-11-29T22:00:00.000+09:00","limit_number":null,"address":"東京都 千代田区紀尾井町1-3 東京ガーデンテラス紀尾井町 ヤフー株式会社","place":"LODGE","lat":35.6797,"lon":139.737,"state":"active","id":null},{"event_id":"69606","title":"「JUCE超入門」「第20回エフェクターミニハッカソン」","url":"https://effectorhack.connpass.com/event/69606/","shortener_url":"https://goo.gl/pokQZB","started_at":"2017-11-18T13:30:00.000+09:00","ended_at":"2017-11-18T18:30:00.000+09:00","limit_number":28,"address":"東京都渋谷区渋谷1-7-7(住友不動産青山通ビル13階)","place":"CRI・ミドルウェアC会議室","lat":35.6605,"lon":139.706,"state":"active","id":null},{"event_id":"69647","title":"Sota講習会 【Vstone Magicを始めよう】 Part 3（有料）","url":"https://sota.connpass.com/event/69647/","shortener_url":null,"started_at":"2017-11-26T14:00:00.000+09:00","ended_at":"2017-11-26T14:50:00.000+09:00","limit_number":4,"address":"東京都千代田区外神田1-9-9 内田ビル4F","place":"ヴイストン ロボットセンター秋葉原店","lat":35.6987,"lon":139.77,"state":"active","id":null},{"event_id":"69151","title":"Facebook AR Studioワークショップ\u0026ハッカソン #ma_2017","url":"https://mashupawards.connpass.com/event/69151/","shortener_url":"https://goo.gl/xU7coz","started_at":"2017-11-11T01:00:00.000+09:00","ended_at":"2017-11-12T11:00:00.000+09:00","limit_number":50,"address":"","place":"Facebookオフィス（六本木一丁目駅／神谷町駅徒歩10分圏）","lat":35.6655,"lon":139.739,"state":"active","id":null},{"event_id":"69545","title":"avex-xRハッカソン（VR/AR/MR)","url":"https://entertech.connpass.com/event/69545/","shortener_url":"https://goo.gl/jjuYUL","started_at":"2017-11-18T01:00:00.000+09:00","ended_at":"2017-11-19T11:00:00.000+09:00","limit_number":51,"address":" 東京都港区南青山３丁目１−３０","place":"エイベックスビル","lat":35.6674,"lon":139.716,"state":"active","id":null},{"event_id":"69770","title":"第3回 関西UE4 GameJam","url":"https://connpass.com/event/69770/","shortener_url":"https://goo.gl/kv9wrt","started_at":"2017-11-18T09:00:00.000+09:00","ended_at":"2017-11-19T20:00:00.000+09:00","limit_number":80,"address":"大阪府大阪市中央区難波4-4-4 難波御堂筋センタービル3階","place":"バンタンゲームアカデミー 大阪校","lat":34.6699,"lon":135.5,"state":"active","id":null},{"event_id":"67883","title":"B2B SaaS Engineer MeetUp Vol.1","url":"https://connpass.com/event/67883/","shortener_url":null,"started_at":"2017-11-29T19:00:00.000+09:00","ended_at":"2017-11-29T21:00:00.000+09:00","limit_number":60,"address":"東京都港区六本木 6-3-1 六本木ヒルズクロスポイント 5F","place":"株式会社フリークアウトホールディング","lat":35.6608,"lon":139.728,"state":"active","id":null},{"event_id":"69805","title":"FinTechデー­タ分析ハッカソン by Team AI 11/1(水)","url":"https://teamai.connpass.com/event/69805/","shortener_url":"https://goo.gl/Fjk6Ch","started_at":"2017-11-01T19:00:00.000+09:00","ended_at":"2017-11-01T21:00:00.000+09:00","limit_number":10,"address":"東京都渋谷区渋谷2-17-3","place":"渋谷アイビスビル401号室 ","lat":35.6593,"lon":139.705,"state":"active","id":null},{"event_id":"69539","title":"第3回　PCNひろしま　こども向けプログラミング教室","url":"https://pcn-hiroshima.connpass.com/event/69539/","shortener_url":null,"started_at":"2017-11-11T01:00:00.000+09:00","ended_at":"2017-11-11T03:00:00.000+09:00","limit_number":16,"address":"広島県広島市南区京橋町1−7(広島京橋ビルディング)","place":"fabbit広島駅前","lat":34.3946,"lon":132.473,"state":"active","id":null},{"event_id":"69728","title":"人工知能API使ってみようハッカソン","url":"https://connpass.com/event/69728/","shortener_url":"https://goo.gl/DMyxMp","started_at":"2017-11-03T11:00:00.000+09:00","ended_at":"2017-11-03T18:00:00.000+09:00","limit_number":30,"address":"東京都品川区西五反田7-20-9 (KDX西五反田ビル4階)","place":"株式会社エイジア　会議室","lat":35.6237,"lon":139.718,"state":"active","id":null},{"event_id":"69907","title":"Medicalデー­­タ分析ハッカソン by Team AI 11/2(木)","url":"https://teamai.connpass.com/event/69907/","shortener_url":"https://goo.gl/4zCpiD","started_at":"2017-11-02T19:00:00.000+09:00","ended_at":"2017-11-02T21:00:00.000+09:00","limit_number":10,"address":"東京都渋谷区渋谷2-17-3","place":"渋谷アイビスビル401号室 ","lat":35.6593,"lon":139.705,"state":"active","id":null},{"event_id":"70049","title":"エンジニアの力でサービス・組織をスケール化させるには？〜Web現場MeetUP ＃2 〜","url":"https://pixta-inc.connpass.com/event/70049/","shortener_url":null,"started_at":"2017-11-08T19:30:00.000+09:00","ended_at":"2017-11-08T22:00:00.000+09:00","limit_number":40,"address":"東京都渋谷区渋谷2-12-19　東建インターナショナルビル5F","place":"ピクスタ株式会社 ３号カフェ","lat":35.6589,"lon":139.707,"state":"active","id":null},{"event_id":"68342","title":"勝手に後夜祭！ with ゴールドスポンサー","url":"https://ichigayageek.connpass.com/event/68342/","shortener_url":null,"started_at":"2017-11-19T17:00:00.000+09:00","ended_at":"2017-11-19T21:00:00.000+09:00","limit_number":50,"address":"東京都千代田区四番町6番 東急番町ビル 5F","place":"株式会社オプト オプトカフェ","lat":35.6892,"lon":139.736,"state":"active","id":null},{"event_id":"70039","title":"人材データハッカソ­ン by Team AI 11/3(金)","url":"https://teamai.connpass.com/event/70039/","shortener_url":"https://goo.gl/NFRGmx","started_at":"2017-11-03T19:00:00.000+09:00","ended_at":"2017-11-03T21:00:00.000+09:00","limit_number":10,"address":"東京都渋谷区渋谷2-17-3","place":"渋谷アイビスビル401号室 ","lat":35.6593,"lon":139.705,"state":"active","id":null},{"event_id":"70205","title":"GR-CITRUS かんきつ系ミニハッカソン - RubyとIoTでアイデアをカタチに","url":"https://mruby-funatelier.connpass.com/event/70205/","shortener_url":"https://goo.gl/FUSHvb","started_at":"2017-11-18T12:10:00.000+09:00","ended_at":"2017-11-18T18:00:00.000+09:00","limit_number":30,"address":"東京都千代田区神田須田町２丁目１９−２３(野村第３ビル ４F)","place":"コワーキングスペース秋葉原 Weeyble","lat":35.6966,"lon":139.772,"state":"active","id":null},{"event_id":"70051","title":"おしゃべりサービス祭りハッカソン #ma_2017 東京予選","url":"https://mashupawards.connpass.com/event/70051/","shortener_url":"https://goo.gl/LFDHdg","started_at":"2017-11-04T01:00:00.000+09:00","ended_at":"2017-11-05T11:00:00.000+09:00","limit_number":60,"address":"東京都中央区銀座7-2-6　リクルートアネックス1ビル　B1F","place":"メディアテクノロジーラボ","lat":35.6708,"lon":139.761,"state":"active","id":null},{"event_id":"68990","title":"【学生限定】愛知出身クックパッドCTOが語るエンジニアのキャリアについて OthloEvent#22","url":"https://othlotech.connpass.com/event/68990/","shortener_url":null,"started_at":"2017-11-27T18:30:00.000+09:00","ended_at":"2017-11-27T20:30:00.000+09:00","limit_number":35,"address":" 愛知県名古屋市中区栄3-7-22 栄９２８ビル 4F","place":"LIB SPACE","lat":35.167,"lon":136.906,"state":"active","id":null},{"event_id":"69839","title":"八子クラウド座談会　釧路スペシャル","url":"https://connpass.com/event/69839/","shortener_url":null,"started_at":"2017-11-25T01:00:00.000+09:00","ended_at":"2017-11-25T09:00:00.000+09:00","limit_number":50,"address":"北海道釧路市末広町3丁目2番1号　パステルパーク1F","place":"炭焼き「肉バル」niku18","lat":42.9837,"lon":144.386,"state":"active","id":null},{"event_id":"67556","title":"鳥取開催！Web×IoT メイカーズチャレンジ 2017 【ハンズオン講習\u0026ハッカソン】","url":"https://webiotmakers.connpass.com/event/67556/","shortener_url":"https://goo.gl/qmUQS5","started_at":"2017-11-18T00:30:00.000+09:00","ended_at":"2017-11-19T10:00:00.000+09:00","limit_number":31,"address":"鳥取県鳥取市湖山町南4丁目101番地","place":"鳥取大学 鳥取キャンパス","lat":35.5152,"lon":134.173,"state":"active","id":null},{"event_id":"70263","title":"【大阪】KANSAI AI PUB（関西×人工知能×場）#7","url":"https://deep-learning-osaka.connpass.com/event/70263/","shortener_url":null,"started_at":"2017-11-24T13:00:00.000+09:00","ended_at":"2017-11-24T14:59:00.000+09:00","limit_number":8,"address":"大阪市中央区本町４丁目７−７−３０3","place":"KiiiyaHommachi","lat":34.6849,"lon":135.498,"state":"active","id":null},{"event_id":"70262","title":"【大阪】KANSAI AI PUB（関西×人工知能×場）#6","url":"https://deep-learning-osaka.connpass.com/event/70262/","shortener_url":null,"started_at":"2017-11-18T17:30:00.000+09:00","ended_at":"2017-11-18T18:30:00.000+09:00","limit_number":8,"address":"大阪府大阪市北区鶴野町1-5 関西大学梅田キャンパス2F","place":"スタートアップカフェ大阪","lat":34.6849,"lon":135.498,"state":"active","id":null},{"event_id":"70261","title":"【大阪】KANSAI AI PUB（関西×人工知能×場）#5","url":"https://deep-learning-osaka.connpass.com/event/70261/","shortener_url":null,"started_at":"2017-11-17T22:00:00.000+09:00","ended_at":"2017-11-17T23:59:00.000+09:00","limit_number":8,"address":"大阪市中央区本町４丁目７−７−３０3","place":"KiiiyaHommachi","lat":34.6849,"lon":135.498,"state":"active","id":null},{"event_id":"70260","title":"【大阪】KANSAI AI PUB（関西×人工知能×場）#4","url":"https://deep-learning-osaka.connpass.com/event/70260/","shortener_url":null,"started_at":"2017-11-10T22:00:00.000+09:00","ended_at":"2017-11-10T23:59:00.000+09:00","limit_number":8,"address":"大阪市中央区本町４丁目７−７−３０3","place":"KiiiyaHommachi","lat":34.6849,"lon":135.498,"state":"active","id":null},{"event_id":"70259","title":"【大阪】KANSAI AI PUB（関西×人工知能×場）#3","url":"https://deep-learning-osaka.connpass.com/event/70259/","shortener_url":null,"started_at":"2017-11-03T20:00:00.000+09:00","ended_at":"2017-11-03T23:59:00.000+09:00","limit_number":8,"address":"大阪市中央区本町４丁目７−７−３０3","place":"KiiiyaHommachi","lat":34.6849,"lon":135.498,"state":"active","id":null},{"event_id":"70535","title":"汎用人工知能(AGI)を創ろう!研究会 by Team AI 11/09(木)","url":"https://teamai.connpass.com/event/70535/","shortener_url":null,"started_at":"2017-11-09T19:00:00.000+09:00","ended_at":"2017-11-09T21:00:00.000+09:00","limit_number":10,"address":"東京都渋谷区渋谷2-17-3","place":"渋谷アイビスビル401号室 ","lat":35.6593,"lon":139.705,"state":"active","id":null},{"event_id":"70323","title":"DCI Tokyo Review","url":"https://dcitokyo.connpass.com/event/70323/","shortener_url":null,"started_at":"2017-11-12T14:00:00.000+09:00","ended_at":"2017-11-12T20:00:00.000+09:00","limit_number":30,"address":"東京都品川区西五反田二丁目27番3号 A-Place 五反田 9階","place":"サイボウズスタートアップス株式会社","lat":35.6251,"lon":139.721,"state":"active","id":null},{"event_id":"65777","title":"静岡県・台湾友好ハッカソンin沼津（UDC2017）","url":"https://0168e91711e4c480d710c70399.doorkeeper.jp/events/65777","shortener_url":"https://goo.gl/Mf5nwg","started_at":"2017-11-18T10:00:00.000+09:00","ended_at":"2017-11-19T18:00:00.000+09:00","limit_number":35,"address":"","place":"","lat":35.1015,"lon":138.86,"state":"active","id":null},{"event_id":"66463","title":"【1万円からはじめる新しい資産運用】ソーシャルレンディング（投資型クラウドファンディング）はじめて講座 in 大阪","url":"https://crowd-credit.doorkeeper.jp/events/66463","shortener_url":null,"started_at":"2017-11-11T13:30:00.000+09:00","ended_at":"2017-11-11T15:30:00.000+09:00","limit_number":null,"address":"大阪府大阪市中央区南船場4－3－2　ヒューリック心斎橋ビル　カンファレンスルーム3B","place":"TKPガーデンシティPREMIUM心斎橋　カンファレンスルーム3B","lat":34.6767,"lon":135.5,"state":"active","id":null},{"event_id":"66555","title":"【11/11（土）開講】データ分析教育講座・茶帯編","url":"https://soleildatadojo.doorkeeper.jp/events/66555","shortener_url":null,"started_at":"2017-11-11T10:00:00.000+09:00","ended_at":"2017-11-25T17:10:00.000+09:00","limit_number":8,"address":"兵庫県尼崎市昭和通三丁目90番地1 尼崎K.Rビルディング５階","place":"税理士荒巻政文事務所（阪神尼崎駅より徒歩３分）","lat":34.7207,"lon":135.417,"state":"active","id":null},{"event_id":"66556","title":"【茶帯編受講準備！11/3(金)】データ分析教育講座・受け身編","url":"https://soleildatadojo.doorkeeper.jp/events/66556","shortener_url":null,"started_at":"2017-11-03T14:00:00.000+09:00","ended_at":"2017-11-03T17:10:00.000+09:00","limit_number":5,"address":"兵庫県尼崎市昭和通三丁目90番地1 尼崎K.Rビルディング５階","place":"税理士荒巻政文事務所","lat":34.7207,"lon":135.417,"state":"active","id":null},{"event_id":"70729","title":"熊ゆに Unityもくもく会　2017/11/8（水）","url":"https://kumauni.connpass.com/event/70729/","shortener_url":null,"started_at":"2017-11-08T10:00:00.000+09:00","ended_at":"2017-11-08T12:00:00.000+09:00","limit_number":15,"address":"熊本県熊本市 中央区下通１丁目１２−２７","place":"未来会議室","lat":32.7998,"lon":130.708,"state":"active","id":null},{"event_id":"70331","title":"GeoDev Meetup #11 - 3D で位置情報の可視化・アプリ作成もくもく会","url":"https://geodev.connpass.com/event/70331/","shortener_url":null,"started_at":"2017-11-09T19:00:00.000+09:00","ended_at":"2017-11-09T21:00:00.000+09:00","limit_number":18,"address":"東京都千代田区平河町2-7-1（塩崎ビル）","place":"ESRIジャパン（株）5Fセミナールーム","lat":35.6792,"lon":139.741,"state":"active","id":null},{"event_id":"70639","title":"自然言語データ分析­ハッカソン by Team AI 11/10(金)","url":"https://teamai.connpass.com/event/70639/","shortener_url":"https://goo.gl/HmfceA","started_at":"2017-11-10T19:00:00.000+09:00","ended_at":"2017-11-10T21:00:00.000+09:00","limit_number":10,"address":"東京都渋谷区渋谷2-17-3","place":"渋谷アイビスビル401号室 ","lat":35.6593,"lon":139.705,"state":"active","id":null},{"event_id":"70751","title":"ブロックチェーンハッ­カソン by Team AI 11/20(月)","url":"https://teamai.connpass.com/event/70751/","shortener_url":"https://goo.gl/XCvkLs","started_at":"2017-11-20T19:00:00.000+09:00","ended_at":"2017-11-20T21:00:00.000+09:00","limit_number":10,"address":"東京都渋谷区渋谷2-17-3","place":"渋谷アイビスビル401号室 ","lat":35.6593,"lon":139.705,"state":"active","id":null},{"event_id":"70855","title":"ふくもく会 その34　〜ふくもく週末旅行〜","url":"https://fukumoku.connpass.com/event/70855/","shortener_url":null,"started_at":"2017-11-11T10:00:00.000+09:00","ended_at":"2017-11-11T18:00:00.000+09:00","limit_number":20,"address":"福井県坂井市丸岡町熊堂3-7-1-16(福井県産業情報センター 7F)","place":"福井県産業情報センター　7F コワーキングスペース","lat":36.1099,"lon":136.274,"state":"active","id":null},{"event_id":"70854","title":"子ども向けプログラミングクラブ コーダー道場甲府#5","url":"https://coderdojokofu.connpass.com/event/70854/","shortener_url":null,"started_at":"2017-11-26T00:20:00.000+09:00","ended_at":"2017-11-26T02:40:00.000+09:00","limit_number":8,"address":"山梨県甲府市北口２丁目８番１号","place":"山梨県立図書館","lat":35.6685,"lon":138.57,"state":"active","id":null},{"event_id":"67583","title":"IoT縛りの勉強会\u0010! IoTLT vol.33 @ LINE","url":"https://iotlt.connpass.com/event/67583/","shortener_url":null,"started_at":"2017-11-16T10:00:00.000+09:00","ended_at":"2017-11-16T13:00:00.000+09:00","limit_number":284,"address":"東京都新宿区新宿四丁目1番6号 ( JR新宿ミライナタワー23階 )","place":"LINE株式会社","lat":35.6888,"lon":139.702,"state":"active","id":null},{"event_id":"92263","title":"第289回 よちよちAndroid オフライン開発ミーティング in 大崎","url":"https://atnd.org/events/92263","shortener_url":null,"started_at":"2017-11-05T01:00:00.000+09:00","ended_at":"2017-11-05T03:00:00.000+09:00","limit_number":null,"address":"東京都品川区大崎1-11-1","place":"ゲートシティ大崎B1アトリウムフリー座席","lat":35.6194,"lon":139.731,"state":"closed","id":null},{"event_id":"70997","title":"FinTechデー­­タ分析ハッカソン by Team AI 11/15(水)","url":"https://teamai.connpass.com/event/70997/","shortener_url":"https://goo.gl/mHY3S8","started_at":"2017-11-15T19:00:00.000+09:00","ended_at":"2017-11-15T21:00:00.000+09:00","limit_number":10,"address":"東京都渋谷区渋谷2-17-3","place":"渋谷アイビスビル401号室 ","lat":35.6593,"lon":139.705,"state":"active","id":null},{"event_id":"71066","title":"[秋葉原] 第13回 ゆるふわIoT電子工作入門","url":"https://weeyble-iot.connpass.com/event/71066/","shortener_url":null,"started_at":"2017-11-12T13:00:00.000+09:00","ended_at":"2017-11-12T18:00:00.000+09:00","limit_number":12,"address":"東京都千代田区神田須田町２丁目１９−２３ (野村第３ビル ４階)","place":"コワーキングスペース秋葉原Weeyble","lat":35.6966,"lon":139.772,"state":"active","id":null},{"event_id":"68895","title":"LPWA勉強会 #4 ＠ ET/IoT Technology展(パシフィコ横浜)","url":"https://lpwa.connpass.com/event/68895/","shortener_url":null,"started_at":"2017-11-16T13:00:00.000+09:00","ended_at":"2017-11-16T16:00:00.000+09:00","limit_number":78,"address":"神奈川県横浜市西区みなとみらい1-1-1","place":"パシフィコ横浜","lat":35.4587,"lon":139.636,"state":"active","id":null},{"event_id":"71003","title":"BPLL #15","url":"https://bpstudy.connpass.com/event/71003/","shortener_url":null,"started_at":"2017-11-21T12:10:00.000+09:00","ended_at":"2017-11-21T13:00:00.000+09:00","limit_number":3,"address":"渋谷区千駄ヶ谷5-32-7 野村不動産南新宿ビル4F","place":"ビープラウド会議室","lat":35.6861,"lon":139.699,"state":"active","id":null},{"event_id":"71126","title":"UX JAM 21","url":"https://uxmilk.connpass.com/event/71126/","shortener_url":"https://goo.gl/XisHX4","started_at":"2017-11-15T10:30:00.000+09:00","ended_at":"2017-11-15T13:00:00.000+09:00","limit_number":220,"address":"〒102-0093 東京都千代田区平河町2-5-3 (永田町GRID 6F)","place":"Nagatacho GRID","lat":35.6798,"lon":139.74,"state":"active","id":null},{"event_id":"71182","title":"【大阪】JSerもくもく会 11/7【JavaScript/monaca/ハイブリッド開発】","url":"https://hackers-salon.connpass.com/event/71182/","shortener_url":null,"started_at":"2017-11-07T19:30:00.000+09:00","ended_at":"2017-11-07T22:30:00.000+09:00","limit_number":5,"address":"大阪市中央区本町４丁目７−７ 飛鳥ビル３０２","place":"Kiiiya Hommachi（2020年6月営業終了）","lat":34.6849,"lon":135.498,"state":"active","id":null},{"event_id":"71183","title":"【大阪】JSerもくもく会 11/25【JavaScript/monaca/ハイブリッド開発】","url":"https://hackers-salon.connpass.com/event/71183/","shortener_url":null,"started_at":"2017-11-25T19:00:00.000+09:00","ended_at":"2017-11-25T22:00:00.000+09:00","limit_number":5,"address":"大阪市中央区本町４丁目７−７ 飛鳥ビル３０２","place":"Kiiiya Hommachi（2020年6月営業終了）","lat":34.6849,"lon":135.498,"state":"active","id":null},{"event_id":"70803","title":"AIチップV2 ミニ四駆ハッカソン","url":"https://connpass.com/event/70803/","shortener_url":"https://goo.gl/s2zdxb","started_at":"2017-11-05T10:00:00.000+09:00","ended_at":"2017-11-05T17:00:00.000+09:00","limit_number":20,"address":"東京都千代田区外神田3丁目9−2 (末広ビル3階)","place":"株式会社アールティ","lat":35.7016,"lon":139.771,"state":"active","id":null},{"event_id":"71111","title":"Medicalデー­­­タ分析ハッカソン by Team AI 11/16(木)","url":"https://teamai.connpass.com/event/71111/","shortener_url":"https://goo.gl/detWCD","started_at":"2017-11-16T19:00:00.000+09:00","ended_at":"2017-11-16T21:00:00.000+09:00","limit_number":10,"address":"東京都渋谷区渋谷2-17-3","place":"渋谷アイビスビル401号室 ","lat":35.6593,"lon":139.705,"state":"active","id":null},{"event_id":"71121","title":"【忍者募集】生駒開催：子ども向けプログラミング道場（No.40）","url":"https://coderdojo-nara-ikoma.connpass.com/event/71121/","shortener_url":null,"started_at":"2017-11-11T09:00:00.000+09:00","ended_at":"2017-11-11T12:00:00.000+09:00","limit_number":14,"address":"奈良県生駒市元町1丁目7番6号","place":"市民活動推進センターららポート","lat":34.6919,"lon":135.698,"state":"active","id":null},{"event_id":"92381","title":"第39回よちよちAndroid名古屋支部オフライン開発ミーティング","url":"https://atnd.org/events/92381","shortener_url":null,"started_at":"2017-11-05T00:00:00.000+09:00","ended_at":"2017-11-05T03:00:00.000+09:00","limit_number":null,"address":"名古屋市中区栄三丁目18番1号 ナディアパーク デザインセンタービル6階","place":"名古屋市市民活動推進センター","lat":35.1654,"lon":136.905,"state":"closed","id":null},{"event_id":"71033","title":"【事前説明会vol.02】福岡ロボットアイデアソン-ぼくらの未来創世物語-episode.00","url":"https://bgene.connpass.com/event/71033/","shortener_url":"https://goo.gl/uP71cM","started_at":"2017-11-25T04:00:00.000+09:00","ended_at":"2017-11-25T07:00:00.000+09:00","limit_number":25,"address":"北九州市小倉北区魚町3-3-20（中屋ビル　地下１階）","place":"まなびとESDステーション","lat":33.8826,"lon":130.88,"state":"active","id":null},{"event_id":"71030","title":"【事前説明会vol.01】福岡ロボットアイデアソン-ぼくらの未来創世物語-episode.00","url":"https://bgene.connpass.com/event/71030/","shortener_url":"https://goo.gl/D15Pnu","started_at":"2017-11-18T04:00:00.000+09:00","ended_at":"2017-11-18T07:00:00.000+09:00","limit_number":25,"address":"福岡市中央区渡辺通2-7-14（パグーロ薬院７F）","place":"トラスペース００","lat":33.5828,"lon":130.402,"state":"active","id":null},{"event_id":"71225","title":"人材データハッカソン by Team AI 11/17(金)","url":"https://teamai.connpass.com/event/71225/","shortener_url":"https://goo.gl/psDbPH","started_at":"2017-11-17T19:00:00.000+09:00","ended_at":"2017-11-17T21:00:00.000+09:00","limit_number":10,"address":"東京都渋谷区渋谷2-17-3","place":"渋谷アイビスビル401号室 ","lat":35.6593,"lon":139.705,"state":"active","id":null},{"event_id":"71347","title":"kamaJam 組立ワークショップ　11月23日開催","url":"https://nextstep.connpass.com/event/71347/","shortener_url":"https://goo.gl/bdMMct","started_at":"2017-11-23T15:00:00.000+09:00","ended_at":"2017-11-23T18:00:00.000+09:00","limit_number":10,"address":"福岡県福岡市中央区大名２丁目６−１１","place":"Fukuoka growth next","lat":33.5891,"lon":130.395,"state":"active","id":null},{"event_id":"71203","title":"kamajam 組立ワークショップ　11月18日開催","url":"https://nextstep.connpass.com/event/71203/","shortener_url":"https://goo.gl/N3U61h","started_at":"2017-11-18T15:00:00.000+09:00","ended_at":"2017-11-18T17:00:00.000+09:00","limit_number":10,"address":"福岡県福岡市中央区大名２丁目６−１１","place":"Fukuoka growth next","lat":33.5891,"lon":130.395,"state":"active","id":null},{"event_id":"92409","title":"Hidden Type Photo Frame Style Signal Jammer Device CDMA GSM 3G 4G","url":"https://atnd.org/events/92409","shortener_url":null,"started_at":"2017-11-04T12:00:00.000+09:00","ended_at":"2017-12-23T16:00:00.000+09:00","limit_number":100,"address":"Perfectjammer","place":"Perfectjammer","lat":null,"lon":null,"state":"closed","id":null},{"event_id":"71277","title":"Osaka Mix Leap Joint #1 -角さんに聞く、オープンイノベーションの極意","url":"https://yahoo-osaka.connpass.com/event/71277/","shortener_url":null,"started_at":"2017-11-16T19:00:00.000+09:00","ended_at":"2017-11-16T21:30:00.000+09:00","limit_number":70,"address":"大阪府大阪市北区大深町4-20 グランフロント大阪 タワーA 37階","place":"ヤフー株式会社 大阪グランフロントオフィス","lat":34.7054,"lon":135.495,"state":"active","id":null},{"event_id":"71518","title":"RPA \u0026 業務自動化 ハッカソン by Team AI 11/18(土)","url":"https://teamai.connpass.com/event/71518/","shortener_url":"https://goo.gl/q3hevP","started_at":"2017-11-18T14:00:00.000+09:00","ended_at":"2017-11-18T16:00:00.000+09:00","limit_number":10,"address":"東京都渋谷区渋谷2-17-3","place":"渋谷アイビスビル401号室 ","lat":35.6593,"lon":139.705,"state":"active","id":null},{"event_id":"71514","title":"自然言語データ分析ハッカソン by Team AI 11/16(木)","url":"https://teamai.connpass.com/event/71514/","shortener_url":"https://goo.gl/5CbwXL","started_at":"2017-11-16T19:00:00.000+09:00","ended_at":"2017-11-16T21:00:00.000+09:00","limit_number":10,"address":"東京都渋谷区渋谷2-17-3","place":"渋谷アイビスビル401号室 ","lat":35.6593,"lon":139.705,"state":"active","id":null},{"event_id":"71507","title":"スクレイピングハッカソン by Team AI 11/15(水)","url":"https://teamai.connpass.com/event/71507/","shortener_url":"https://goo.gl/koNui8","started_at":"2017-11-15T19:00:00.000+09:00","ended_at":"2017-11-15T21:00:00.000+09:00","limit_number":10,"address":"東京都渋谷区渋谷2-17-3","place":"渋谷アイビスビル401号室 ","lat":35.6593,"lon":139.705,"state":"active","id":null},{"event_id":"92471","title":"第40回よちよちAndroid名古屋支部オフライン開発ミーティング","url":"https://atnd.org/events/92471","shortener_url":null,"started_at":"2017-11-12T00:00:00.000+09:00","ended_at":"2017-11-12T03:00:00.000+09:00","limit_number":null,"address":"名古屋市中区栄三丁目18番1号 ナディアパーク デザインセンタービル6階","place":"名古屋市市民活動推進センター","lat":35.1654,"lon":136.905,"state":"closed","id":null},{"event_id":"71727","title":"【福岡】GMOペパボ × Sansan合同勉強会 「歴史ある大規模サービスがまだなお成長する秘訣」","url":"https://sansan.connpass.com/event/71727/","shortener_url":null,"started_at":"2017-11-21T19:00:00.000+09:00","ended_at":"2017-11-21T21:45:00.000+09:00","limit_number":20,"address":"福岡市中央区天神2-7-21(天神プライム)","place":"GMOペパボ福岡支社","lat":33.5901,"lon":130.396,"state":"active","id":null},{"event_id":"71488","title":"【増枠】UX MILK Workstyle 10 feat. fork","url":"https://uxmilk.connpass.com/event/71488/","shortener_url":null,"started_at":"2017-11-22T10:30:00.000+09:00","ended_at":"2017-11-22T12:45:00.000+09:00","limit_number":110,"address":"〒150-0002 東京都渋谷区 渋谷2-12-19 (東建インターナショナルビル 4F)","place":"株式会社フォーク","lat":35.6589,"lon":139.707,"state":"active","id":null},{"event_id":"92518","title":"第290回 よちよちAndroid オフライン開発ミーティング in 大崎","url":"https://atnd.org/events/92518","shortener_url":null,"started_at":"2017-11-12T01:00:00.000+09:00","ended_at":"2017-11-12T03:00:00.000+09:00","limit_number":null,"address":"東京都品川区大崎1-11-1","place":"ゲートシティ大崎B1アトリウムフリー座席","lat":35.6194,"lon":139.731,"state":"closed","id":null},{"event_id":"71878","title":"［追加募集専用］avex-xRハッカソン（VR/AR/MR)","url":"https://entertech.connpass.com/event/71878/","shortener_url":"https://goo.gl/tgbEHV","started_at":"2017-11-18T01:00:00.000+09:00","ended_at":"2017-11-19T11:00:00.000+09:00","limit_number":12,"address":" 東京都港区南青山３丁目１−３０","place":"エイベックスビル","lat":35.6674,"lon":139.716,"state":"active","id":null},{"event_id":"71932","title":"柏の葉IoTハッカソン（11/15-12/20）：11/16 東大・本郷キャンパスセッション","url":"https://kashiwanoha.connpass.com/event/71932/","shortener_url":"https://goo.gl/59czVW","started_at":"2017-11-16T06:30:00.000+09:00","ended_at":"2017-11-16T10:00:00.000+09:00","limit_number":80,"address":"東京都文京区本郷 7-3-1(工学部2号館)","place":"東大・本郷キャンパス 工学部2号館221号講義室","lat":35.7121,"lon":139.763,"state":"active","id":null},{"event_id":"71817","title":"Zenlab NY night（Relate Live by zendesk in NY 報告会）","url":"https://zenlab.connpass.com/event/71817/","shortener_url":null,"started_at":"2017-11-28T10:30:00.000+09:00","ended_at":"2017-11-28T12:30:00.000+09:00","limit_number":100,"address":"東京都渋谷区恵比寿4-20-3 恵比寿ガーデンプレイスタワー12階","place":"クックパッド株式会社","lat":35.6421,"lon":139.713,"state":"active","id":null},{"event_id":"71754","title":"賞金総額100万円！LoRaWAN 柏の葉IoTハッカソン：11/15 キックオフ会","url":"https://kashiwanoha.connpass.com/event/71754/","shortener_url":"https://goo.gl/U82NRr","started_at":"2017-11-15T01:30:00.000+09:00","ended_at":"2017-11-15T07:30:00.000+09:00","limit_number":60,"address":"千葉県柏市若柴178番地4　柏の葉キャンパス148街区2　ショップ＆オフィス棟6階","place":"31VENTURES KOIL","lat":35.8951,"lon":139.952,"state":"active","id":null},{"event_id":"72143","title":"熊ゆに Unityもくもく会　2017/11/22（水）","url":"https://kumauni.connpass.com/event/72143/","shortener_url":null,"started_at":"2017-11-22T10:00:00.000+09:00","ended_at":"2017-11-22T12:00:00.000+09:00","limit_number":15,"address":"熊本県熊本市 中央区下通１丁目１２−２７","place":"未来会議室","lat":32.7998,"lon":130.708,"state":"active","id":null},{"event_id":"72134","title":"【忍者募集】奈良開催：子ども向けプログラミング道場（No.41）","url":"https://coderdojo-nara-ikoma.connpass.com/event/72134/","shortener_url":null,"started_at":"2017-11-19T09:00:00.000+09:00","ended_at":"2017-11-19T12:00:00.000+09:00","limit_number":14,"address":"奈良県奈良市大宮町3丁目5-41 ","place":"ぷろぼの福祉ビル5F会議室","lat":34.6837,"lon":135.812,"state":"active","id":null},{"event_id":"72096","title":"増枠・最先端！センスウェイ社LoRaWANサービス＋Azure IoT体験ハンズオン＠柏の葉KOIL","url":"https://algyan.connpass.com/event/72096/","shortener_url":null,"started_at":"2017-11-25T04:00:00.000+09:00","ended_at":"2017-11-25T09:00:00.000+09:00","limit_number":null,"address":"千葉県柏市若柴178 番地4 柏の葉キャンパス148 街区2 ショップ＆オフィス棟６階","place":"KOILスタジオ","lat":35.8951,"lon":139.952,"state":"active","id":null},{"event_id":"72191","title":"賞金総額100万円！柏の葉IoTハッカソン： 11/22 LoRaWANハンズオン＆技術相談","url":"https://kashiwanoha.connpass.com/event/72191/","shortener_url":"https://goo.gl/ATCeBc","started_at":"2017-11-22T09:00:00.000+09:00","ended_at":"2017-11-22T12:00:00.000+09:00","limit_number":15,"address":"千葉県柏市若柴178番地4　柏の葉キャンパス148街区2　ショップ＆オフィス棟6階","place":"31VENTURES KOIL","lat":35.8951,"lon":139.952,"state":"active","id":null},{"event_id":"70931","title":"【大阪】HoloLensアイデアソン【HoloLens体験可】","url":"https://osaka-driven-dev.connpass.com/event/70931/","shortener_url":"https://goo.gl/MKDyuQ","started_at":"2017-11-28T09:45:00.000+09:00","ended_at":"2017-11-28T12:45:00.000+09:00","limit_number":11,"address":"大阪市中央区本町4丁目7-7-303","place":"Kiiiya Hommachi","lat":34.6849,"lon":135.498,"state":"active","id":null},{"event_id":"72048","title":"Mashup Battle 1stStage in 東京一部　#MA_2017","url":"https://mashupawards.connpass.com/event/72048/","shortener_url":null,"started_at":"2017-11-15T19:30:00.000+09:00","ended_at":"2017-11-15T22:30:00.000+09:00","limit_number":50,"address":"東京都中央区銀座7-2-6　リクルートアネックス1ビル　B1F","place":"メディアテクノロジーラボ","lat":35.6708,"lon":139.761,"state":"active","id":null},{"event_id":"92693","title":"第５２回 八時間耐久作品制作会(仮)","url":"https://atnd.org/events/92693","shortener_url":null,"started_at":"2017-11-26T00:30:00.000+09:00","ended_at":"2017-11-26T10:30:00.000+09:00","limit_number":40,"address":"福岡市東区和白東3-30-1","place":"福岡工業大学短期大学部 B棟 5階  ","lat":33.6952,"lon":130.441,"state":"closed","id":null},{"event_id":"92688","title":"第291回 よちよちAndroid オフライン開発ミーティング in 大崎","url":"https://atnd.org/events/92688","shortener_url":null,"started_at":"2017-11-19T01:00:00.000+09:00","ended_at":"2017-11-19T03:00:00.000+09:00","limit_number":null,"address":"東京都品川区大崎1-11-1","place":"ゲートシティ大崎B1アトリウムフリー座席","lat":35.6194,"lon":139.731,"state":"closed","id":null},{"event_id":"72492","title":"汎用人工知能(AGI)を創ろう!研究会 by Team AI 11/30(木)","url":"https://teamai.connpass.com/event/72492/","shortener_url":null,"started_at":"2017-11-30T19:00:00.000+09:00","ended_at":"2017-11-30T21:00:00.000+09:00","limit_number":10,"address":"","place":"Online","lat":35.6618,"lon":139.696,"state":"active","id":null},{"event_id":"71433","title":"[秋葉原] Unityもくもく勉強会  × スプラトゥーン2 交流会 (\u0026初心者向けLINQ入門)","url":"https://weeyble-game.connpass.com/event/71433/","shortener_url":null,"started_at":"2017-11-19T13:30:00.000+09:00","ended_at":"2017-11-19T17:00:00.000+09:00","limit_number":30,"address":"東京都千代田区神田須田町２丁目１９−２３ (野村第３ビル ４階)","place":"コワーキングスペース秋葉原Weeyble","lat":35.6966,"lon":139.772,"state":"active","id":null},{"event_id":"92766","title":"第41回よちよちAndroid名古屋支部オフライン開発ミーティング","url":"https://atnd.org/events/92766","shortener_url":null,"started_at":"2017-11-19T00:00:00.000+09:00","ended_at":"2017-11-19T03:00:00.000+09:00","limit_number":null,"address":"名古屋市中区栄三丁目18番1号 ナディアパーク デザインセンタービル6階","place":"名古屋市市民活動推進センター","lat":35.1654,"lon":136.905,"state":"closed","id":null},{"event_id":"72782","title":"ブロックチェーンハッ­カソン by Team AI 11/27（月）","url":"https://teamai.connpass.com/event/72782/","shortener_url":"https://goo.gl/z6EFcy","started_at":"2017-11-27T19:00:00.000+09:00","ended_at":"2017-11-27T21:00:00.000+09:00","limit_number":10,"address":"","place":"Online","lat":35.6618,"lon":139.696,"state":"active","id":null},{"event_id":"72521","title":"PPUG HUB #2 -寒気払い","url":"https://ppug.connpass.com/event/72521/","shortener_url":null,"started_at":"2017-11-29T19:00:00.000+09:00","ended_at":"2017-11-29T23:00:00.000+09:00","limit_number":25,"address":"東京都渋谷区宇田川町30-4 新岩崎ビル３Ｆ","place":"THE Aldgate","lat":35.6608,"lon":139.698,"state":"active","id":null},{"event_id":"70754","title":"【11/29】水曜ワトソンカフェvol.5","url":"https://w2cafe.connpass.com/event/70754/","shortener_url":null,"started_at":"2017-11-29T19:15:00.000+09:00","ended_at":"2017-11-29T22:00:00.000+09:00","limit_number":15,"address":"東京都渋谷区 渋谷3-26-16 第五叶ビル 6F","place":"co-ba shibuya","lat":35.6541,"lon":139.706,"state":"active","id":null},{"event_id":"68605","title":"新潟版IoT縛りの勉強会\u0010! IoTLT新潟 Vol.3 @内野まちづくりセンター","url":"https://iotlt.connpass.com/event/68605/","shortener_url":null,"started_at":"2017-11-25T14:00:00.000+09:00","ended_at":"2017-11-25T16:45:00.000+09:00","limit_number":50,"address":"新潟市中央区天神尾1-9-7 アーバンハイツワタイチ","place":"アーバンハイツワタイチ1F 最右区画","lat":37.9085,"lon":139.055,"state":"active","id":null},{"event_id":"72336","title":"Gentoo勉強会 2017-11-25","url":"https://gentoo.connpass.com/event/72336/","shortener_url":null,"started_at":"2017-11-25T14:30:00.000+09:00","ended_at":"2017-11-25T19:00:00.000+09:00","limit_number":17,"address":"〒106-0032 東京都港区六本木 1 丁目 9 番 10 号 アークヒルズ仙石山森タワー 35 階","place":"サイバートラスト株式会社","lat":35.6967,"lon":139.709,"state":"active","id":null},{"event_id":"73059","title":"智恵の和勉強会","url":"https://connpass.com/event/73059/","shortener_url":null,"started_at":"2017-11-04T04:00:00.000+09:00","ended_at":"2017-11-04T08:00:00.000+09:00","limit_number":null,"address":"東京都港区港南 2-16-3 品川グランドセントラルタワー","place":"マイクロソフト品川本社","lat":35.6267,"lon":139.74,"state":"active","id":null},{"event_id":"67756","title":"ブロックチェーンハッカソン","url":"https://team-ai.doorkeeper.jp/events/67756","shortener_url":"https://goo.gl/sC8rxj","started_at":"2017-11-27T19:00:00.000+09:00","ended_at":"2017-11-27T21:00:00.000+09:00","limit_number":10,"address":"東京都渋谷区宇田川町36-17 ニューシブヤマンション202","place":"Team AIベース（ニューシブヤマンション202）","lat":35.6618,"lon":139.696,"state":"active","id":null},{"event_id":"92823","title":"第42回よちよちAndroid名古屋支部オフライン開発ミーティング","url":"https://atnd.org/events/92823","shortener_url":null,"started_at":"2017-11-26T00:00:00.000+09:00","ended_at":"2017-11-26T03:00:00.000+09:00","limit_number":null,"address":"名古屋市中区栄三丁目18番1号 ナディアパーク デザインセンタービル6階","place":"名古屋市市民活動推進センター","lat":35.1654,"lon":136.905,"state":"closed","id":null},{"event_id":"67933","title":"【NEM8】はじめてのハックスプリント！","url":"https://nem.connpass.com/event/67933/","shortener_url":null,"started_at":"2017-11-04T17:30:00.000+09:00","ended_at":"2017-11-04T19:00:00.000+09:00","limit_number":24,"address":"新潟県新潟市中央区 天神１－１（プラーカ３ ２F ）","place":" 駅南貸会議室KENT RoomE ","lat":37.9104,"lon":139.062,"state":"active","id":null},{"event_id":"71366","title":"(11/25~26)オープンCAEもくもく合宿＋第62回 オープンCAE勉強会@関西","url":"https://ocbkansai.connpass.com/event/71366/","shortener_url":null,"started_at":"2017-11-25T03:00:00.000+09:00","ended_at":"2017-11-26T08:00:00.000+09:00","limit_number":20,"address":"大阪府阪南市尾崎町8-37-41","place":"尾崎の家","lat":34.3753,"lon":135.248,"state":"active","id":null},{"event_id":"71815","title":"クラス図とデータモデルはどうちがう？","url":"https://benkyoenkai.connpass.com/event/71815/","shortener_url":null,"started_at":"2017-11-17T10:00:00.000+09:00","ended_at":"2017-11-17T12:00:00.000+09:00","limit_number":25,"address":"大阪市淀川区宮原3-5-24","place":"新大阪第一生命ビル13Ｆ会議室","lat":34.7339,"lon":135.495,"state":"active","id":null},{"event_id":"67928","title":"ぷち開発合宿 #34","url":"https://ydp.connpass.com/event/67928/","shortener_url":null,"started_at":"2017-11-18T00:00:00.000+09:00","ended_at":"2017-11-18T03:00:00.000+09:00","limit_number":4,"address":"大手町駅(E2出口)","place":"大手町","lat":35.6835,"lon":139.763,"state":"active","id":null},{"event_id":"62994","title":"東海道らぐ 2017年１１月鹿焼きジビエ合宿 in 湯の山温泉","url":"https://tokaidolug.connpass.com/event/62994/","shortener_url":null,"started_at":"2017-11-25T09:00:00.000+09:00","ended_at":"2017-11-26T01:00:00.000+09:00","limit_number":8,"address":"三重県三重郡菰野町菰野8522","place":"湯の山温泉","lat":35.0154,"lon":136.447,"state":"active","id":null},{"event_id":"72170","title":"PyLadies Handbook 翻訳しNight 〜第2夜〜","url":"https://pyladies-tokyo.connpass.com/event/72170/","shortener_url":null,"started_at":"2017-11-27T10:00:00.000+09:00","ended_at":"2017-11-27T12:00:00.000+09:00","limit_number":19,"address":"東京都新宿区西新宿2-7-1 小田急第一生命ビル9階","place":"株式会社オープンストリーム","lat":35.6918,"lon":139.691,"state":"active","id":null},{"event_id":"67927","title":"ぷち開発合宿 #33","url":"https://ydp.connpass.com/event/67927/","shortener_url":null,"started_at":"2017-11-12T00:00:00.000+09:00","ended_at":"2017-11-12T03:00:00.000+09:00","limit_number":4,"address":"大手町駅(E2出口)","place":"大手町","lat":35.6835,"lon":139.763,"state":"active","id":null},{"event_id":"67056","title":"サイボウズ バグハンター合宿","url":"https://cybozu.connpass.com/event/67056/","shortener_url":null,"started_at":"2017-11-03T02:00:00.000+09:00","ended_at":"2017-11-04T08:00:00.000+09:00","limit_number":20,"address":"神奈川県三浦市南下浦町上宮田3231","place":"マホロバ・マインズ三浦","lat":35.1848,"lon":139.651,"state":"active","id":null},{"event_id":"67926","title":"ぷち開発合宿 #32","url":"https://ydp.connpass.com/event/67926/","shortener_url":null,"started_at":"2017-11-11T00:00:00.000+09:00","ended_at":"2017-11-11T03:00:00.000+09:00","limit_number":4,"address":"大手町駅(E2出口)","place":"大手町","lat":35.6835,"lon":139.763,"state":"active","id":null},{"event_id":"67925","title":"ぷち開発合宿 #31","url":"https://ydp.connpass.com/event/67925/","shortener_url":null,"started_at":"2017-11-04T00:00:00.000+09:00","ended_at":"2017-11-04T03:00:00.000+09:00","limit_number":4,"address":"大手町駅(E2出口)","place":"大手町","lat":35.6835,"lon":139.763,"state":"active","id":null},{"event_id":"63343","title":"東海道らぐ 2017年11月オフな集まり in 四日市　昼の部","url":"https://tokaidolug.connpass.com/event/63343/","shortener_url":null,"started_at":"2017-11-25T03:45:00.000+09:00","ended_at":"2017-11-25T07:45:00.000+09:00","limit_number":24,"address":"三重県四日市市安島一丁目3番18号","place":"三重北勢地域地場産業振興センター ","lat":34.9684,"lon":136.616,"state":"active","id":null},{"event_id":"90619","title":"11/23-25　mikutter会議合宿 in 城崎温泉","url":"https://atnd.org/events/90619","shortener_url":null,"started_at":"2017-11-23T05:00:00.000+09:00","ended_at":"2017-11-25T08:30:00.000+09:00","limit_number":10,"address":"","place":"城崎温泉駅","lat":null,"lon":null,"state":"closed","id":null}]