[{"event_id":"55834","title":"Sota講習会 【Vstone Magicを始めよう】 Part 3","url":"https://sota.connpass.com/event/55834/","shortener_url":null,"started_at":"2017-05-19T19:00:00.000+09:00","ended_at":"2017-05-19T19:50:00.000+09:00","limit_number":4,"address":"東京都千代田区外神田1-9-9 内田ビル4F","place":"ヴイストン ロボットセンター秋葉原店","lat":35.6987,"lon":139.77,"state":"active","id":null},{"event_id":"56606","title":"【大阪】はじめてのXR - 4時限目.UE4からのAR/VR出力方法","url":"https://osaka-driven-dev.connpass.com/event/56606/","shortener_url":null,"started_at":"2017-05-28T08:30:00.000+09:00","ended_at":"2017-05-28T09:30:00.000+09:00","limit_number":10,"address":"大阪市中央区本町4丁目7-7-303","place":"Kiiiya Hommachi","lat":34.6849,"lon":135.498,"state":"active","id":null},{"event_id":"53772","title":"みんなのAIキャリアカレッジ#4【人工知能開発を本職にしたい！】","url":"https://edgeai.connpass.com/event/53772/","shortener_url":null,"started_at":"2017-05-29T10:30:00.000+09:00","ended_at":"2017-05-29T12:30:00.000+09:00","limit_number":80,"address":"〒102-0083 東京都千代田区麹町2-10-9","place":"株式会社クリーク・アンド・リバー社　２F","lat":35.6854,"lon":139.741,"state":"active","id":null},{"event_id":"57625","title":"3時間でつくるIoT開発ハンズオン [Raspberry Pi,etc.] in Osaka","url":"https://sha.connpass.com/event/57625/","shortener_url":null,"started_at":"2017-05-28T04:00:00.000+09:00","ended_at":"2017-05-28T09:30:00.000+09:00","limit_number":30,"address":"大阪府大阪市 北区大深町3番1号 グランフロント大阪 ナレッジキャピタルタワー C7階","place":"大阪イノベーションハブ","lat":34.7043,"lon":135.495,"state":"active","id":null},{"event_id":"55054","title":"vsLT第２回","url":"https://vslt.connpass.com/event/55054/","shortener_url":null,"started_at":"2017-05-26T19:00:00.000+09:00","ended_at":"2017-05-26T21:00:00.000+09:00","limit_number":37,"address":"〒530-0014 大阪府大阪市北区鶴野町1番5号","place":"関西大学梅田キャンパス KANDAI Me RISE","lat":34.7061,"lon":135.501,"state":"active","id":null},{"event_id":"56605","title":"【大阪】はじめてのXR - 3時限目.UE4基礎【AR/VR】","url":"https://osaka-driven-dev.connpass.com/event/56605/","shortener_url":null,"started_at":"2017-05-28T07:00:00.000+09:00","ended_at":"2017-05-28T08:15:00.000+09:00","limit_number":10,"address":"大阪市中央区本町4丁目7-7-303","place":"Kiiiya Hommachi","lat":34.6849,"lon":135.498,"state":"active","id":null},{"event_id":"57520","title":"TOKYO CS JAM #11 〜ツール発！成果につなげるMOVE FASTな業務改善事例〜","url":"https://csjam.connpass.com/event/57520/","shortener_url":null,"started_at":"2017-05-29T10:00:00.000+09:00","ended_at":"2017-05-29T12:30:00.000+09:00","limit_number":45,"address":"東京都港区六本木6-10-1（六本木ヒルズ森タワー18F）","place":"株式会社メルカリ","lat":35.6604,"lon":139.729,"state":"active","id":null},{"event_id":"55679","title":"生駒開催：子ども向けプログラミング道場（No.34）","url":"https://coderdojo-nara-ikoma.connpass.com/event/55679/","shortener_url":null,"started_at":"2017-05-27T13:00:00.000+09:00","ended_at":"2017-05-27T16:00:00.000+09:00","limit_number":12,"address":"奈良県生駒市元町1丁目7番6号","place":"市民活動推進センターららポート","lat":34.6919,"lon":135.698,"state":"active","id":null},{"event_id":"55588","title":"GeoDev Meetup #6 - 地図データ可視化・アプリ作成もくもく会","url":"https://geodev.connpass.com/event/55588/","shortener_url":null,"started_at":"2017-05-24T19:00:00.000+09:00","ended_at":"2017-05-24T21:00:00.000+09:00","limit_number":19,"address":"東京都千代田区平河町2-7-1（塩崎ビル）","place":"ESRIジャパン（株）5Fセミナールーム","lat":35.6792,"lon":139.741,"state":"active","id":null},{"event_id":"56924","title":"UX JAM 17","url":"https://uxmilk.connpass.com/event/56924/","shortener_url":null,"started_at":"2017-05-24T10:30:00.000+09:00","ended_at":"2017-05-24T13:00:00.000+09:00","limit_number":150,"address":"〒150-0002 東京都渋谷区渋谷二丁目12番19号 (東建インターナショナルビル5階)","place":"PIXTA株式会社","lat":35.6589,"lon":139.707,"state":"active","id":null},{"event_id":"55596","title":"モビリティIoTに特化したハッカソン in 東京","url":"https://mobility-iot.connpass.com/event/55596/","shortener_url":null,"started_at":"2017-05-27T02:00:00.000+09:00","ended_at":"2017-05-27T12:00:00.000+09:00","limit_number":40,"address":"150-0022 東京都渋谷区恵比寿南3丁目5番7号 DGビル9F","place":"Open Network Space Daikanyama","lat":35.6462,"lon":139.704,"state":"active","id":null},{"event_id":"57123","title":"【CTO 4名登壇・賞金あり】第1次産業ハッカソン～リアル×ITで巨大市場に挑むスタートアップ達～","url":"https://xtech.connpass.com/event/57123/","shortener_url":null,"started_at":"2017-05-27T01:00:00.000+09:00","ended_at":"2017-05-27T09:45:00.000+09:00","limit_number":40,"address":"東京都港区南青山2-11-17　第一法規本社ビル3F","place":"スローガン株式会社","lat":35.6716,"lon":139.722,"state":"active","id":null},{"event_id":"56803","title":"Fablic.vim #1","url":"https://connpass.com/event/56803/","shortener_url":null,"started_at":"2017-05-22T18:30:00.000+09:00","ended_at":"2017-05-22T21:00:00.000+09:00","limit_number":30,"address":"東京都渋谷区広尾1-13-1 (フジキカイ広尾ビル3F)","place":"Fablic, inc.","lat":35.6482,"lon":139.713,"state":"active","id":null},{"event_id":"56130","title":"Musicians Hackathon for 「TECHS」Vol.02  by #ma_2017","url":"https://mashupawards.connpass.com/event/56130/","shortener_url":null,"started_at":"2017-05-27T01:00:00.000+09:00","ended_at":"2017-05-28T11:30:00.000+09:00","limit_number":70,"address":"東京都渋谷区神宮前6-19-21 ホルツ細川ビル4階","place":"朝日新聞メディアラボ 渋谷分室","lat":35.6641,"lon":139.703,"state":"active","id":null},{"event_id":"51714","title":"DataSpider DevConn Hackathon","url":"https://dstn.connpass.com/event/51714/","shortener_url":null,"started_at":"2017-05-20T01:00:00.000+09:00","ended_at":"2017-05-20T11:00:00.000+09:00","limit_number":30,"address":"","place":"FORECAST四ツ谷","lat":null,"lon":null,"state":"active","id":null},{"event_id":"52082","title":"IoT縛りの勉強会\u0010! IoTLT vol.27 @ ヤフー（紀尾井町）","url":"https://iotlt.connpass.com/event/52082/","shortener_url":null,"started_at":"2017-05-19T19:00:00.000+09:00","ended_at":"2017-05-19T22:00:00.000+09:00","limit_number":358,"address":"東京都千代田区紀尾井町1-3　(東京ガーデンテラス紀尾井町　紀尾井タワー )","place":"ヤフー株式会社","lat":35.6818,"lon":139.738,"state":"active","id":null},{"event_id":"56601","title":"【大阪】はじめてのXR - 1時限目.Unity基礎【AR/MR/VR】","url":"https://osaka-driven-dev.connpass.com/event/56601/","shortener_url":null,"started_at":"2017-05-20T08:00:00.000+09:00","ended_at":"2017-05-20T09:15:00.000+09:00","limit_number":9,"address":"大阪市中央区本町4丁目7-7-303","place":"Kiiiya Hommachi","lat":34.6849,"lon":135.498,"state":"active","id":null},{"event_id":"56604","title":"【大阪】はじめてのXR - 2時限目.UnityからのAR/MR/VR出力方法","url":"https://osaka-driven-dev.connpass.com/event/56604/","shortener_url":null,"started_at":"2017-05-20T09:30:00.000+09:00","ended_at":"2017-05-20T10:30:00.000+09:00","limit_number":10,"address":"大阪市中央区本町4丁目7-7-303","place":"Kiiiya Hommachi","lat":34.6849,"lon":135.498,"state":"active","id":null},{"event_id":"56826","title":"【サポーターズCoLab勉強会】クリエイティブ ☓ テクノロジー = たのしー！","url":"https://supporterz-seminar.connpass.com/event/56826/","shortener_url":null,"started_at":"2017-05-31T19:30:00.000+09:00","ended_at":"2017-05-31T21:00:00.000+09:00","limit_number":20,"address":"東京都渋谷区道玄坂1-9-5","place":"渋谷スクエアA","lat":35.6573,"lon":139.699,"state":"active","id":null},{"event_id":"57725","title":"【サポーターズCoLab勉強会】フル活用！コードだけじゃなくチームもGithub管理術","url":"https://supporterz-seminar.connpass.com/event/57725/","shortener_url":null,"started_at":"2017-05-30T19:30:00.000+09:00","ended_at":"2017-05-30T21:00:00.000+09:00","limit_number":20,"address":"東京都渋谷区道玄坂1-9-5","place":"渋谷スクエアA","lat":35.6573,"lon":139.699,"state":"active","id":null},{"event_id":"57099","title":"プロに教わる！Javascript基礎講座 〜リッチコンテンツを作ってみよう〜","url":"https://modelor-school.connpass.com/event/57099/","shortener_url":null,"started_at":"2017-05-19T19:30:00.000+09:00","ended_at":"2017-05-19T21:30:00.000+09:00","limit_number":12,"address":"京都市左京区田中下柳町7-2","place":"かぜのね","lat":35.0299,"lon":135.774,"state":"active","id":null},{"event_id":"54241","title":"Bonfire Design #1","url":"https://yj-meetup.connpass.com/event/54241/","shortener_url":null,"started_at":"2017-05-18T19:00:00.000+09:00","ended_at":"2017-05-18T22:00:00.000+09:00","limit_number":83,"address":"東京都千代田区紀尾井町1-3 東京ガーデンテラス紀尾井町","place":"ヤフー株式会社 LODGE","lat":35.6796,"lon":139.737,"state":"active","id":null},{"event_id":"56807","title":"【Rails初心者向け】OthloEvent@TECH::CAMP名古屋 #13","url":"https://othlotech.connpass.com/event/56807/","shortener_url":null,"started_at":"2017-05-28T16:00:00.000+09:00","ended_at":"2017-05-28T20:00:00.000+09:00","limit_number":20,"address":"愛知県名古屋市中村区則武1-9-19","place":"TECH::CAMP名古屋  協和名駅ビル6階","lat":35.1736,"lon":136.878,"state":"active","id":null},{"event_id":"54949","title":"【増枠】アイマスエンジニア MeetUp in Tokyo","url":"https://imas.connpass.com/event/54949/","shortener_url":null,"started_at":"2017-05-17T10:00:00.000+09:00","ended_at":"2017-05-17T12:00:00.000+09:00","limit_number":53,"address":"東京都渋谷区恵比寿 4-20-3 (恵比寿ガーデンプレイスタワー6階)","place":"クラウドワークス","lat":35.6424,"lon":139.713,"state":"active","id":null},{"event_id":"54783","title":"eureka Meetup #02 -Machine Learning Eve-","url":"https://eure.connpass.com/event/54783/","shortener_url":null,"started_at":"2017-05-18T19:00:00.000+09:00","ended_at":"2017-05-18T22:00:00.000+09:00","limit_number":67,"address":"東京都品川区上大崎2-13-30 (oak meguro 8階)","place":"アカツキ","lat":35.6533,"lon":139.741,"state":"active","id":null},{"event_id":"54662","title":"PPUG #2 - PayPal実装・運用編 -","url":"https://ppug.connpass.com/event/54662/","shortener_url":null,"started_at":"2017-05-17T19:00:00.000+09:00","ended_at":"2017-05-17T22:00:00.000+09:00","limit_number":50,"address":"東京都品川区西五反田2-8-1五反田ファーストビル","place":"freee株式会社","lat":35.6268,"lon":139.722,"state":"active","id":null},{"event_id":"55550","title":"【大阪】XRミーティング #3【AR/MR/VR】","url":"https://osaka-driven-dev.connpass.com/event/55550/","shortener_url":null,"started_at":"2017-05-17T19:00:00.000+09:00","ended_at":"2017-05-17T21:30:00.000+09:00","limit_number":14,"address":"大阪市中央区本町4丁目7-7-303","place":"Kiiiya Hommachi","lat":34.6849,"lon":135.498,"state":"active","id":null},{"event_id":"56856","title":"Sendai CS JAM#10","url":"https://csjam.connpass.com/event/56856/","shortener_url":null,"started_at":"2017-05-17T10:00:00.000+09:00","ended_at":"2017-05-17T12:30:00.000+09:00","limit_number":null,"address":"宮城県仙台市青葉区本町1-12-12 (GMビルディング 7F)","place":"株式会社メルカリ　仙台オフィス","lat":38.2665,"lon":140.878,"state":"active","id":null},{"event_id":"57145","title":"【サポーターズCoLab勉強会】セキュリティ入門","url":"https://supporterz-seminar.connpass.com/event/57145/","shortener_url":null,"started_at":"2017-05-25T19:30:00.000+09:00","ended_at":"2017-05-25T21:00:00.000+09:00","limit_number":20,"address":"東京都渋谷区道玄坂1-9-5","place":"渋谷スクエアA","lat":35.6573,"lon":139.699,"state":"active","id":null},{"event_id":"56894","title":"[秋葉原] 第7回 ゆるふわIoT電子工作入門","url":"https://weeyble-iot.connpass.com/event/56894/","shortener_url":null,"started_at":"2017-05-21T13:00:00.000+09:00","ended_at":"2017-05-21T18:00:00.000+09:00","limit_number":12,"address":"東京都千代田区神田須田町２丁目１９−２３ (野村第３ビル ４階)","place":"コワーキングスペース秋葉原Weeyble","lat":35.6966,"lon":139.772,"state":"active","id":null},{"event_id":"53717","title":"【デザインできる人も募集】はじめてのハッカソン × Swiftビギナーズ倶楽部 コラボイベント","url":"https://hackathon.connpass.com/event/53717/","shortener_url":null,"started_at":"2017-05-21T01:30:00.000+09:00","ended_at":"2017-05-21T12:00:00.000+09:00","limit_number":29,"address":"東京都新宿区西新宿6-5-1 新宿アイランドタワー 22F","place":"株式会社パソナテック","lat":35.6931,"lon":139.693,"state":"active","id":null},{"event_id":"53648","title":"東京Node女学園2限目 - Node.jsでLINE Bot!!","url":"https://nodejs.connpass.com/event/53648/","shortener_url":null,"started_at":"2017-05-14T13:00:00.000+09:00","ended_at":"2017-05-14T18:30:00.000+09:00","limit_number":65,"address":"会場未定","place":"会場未定","lat":null,"lon":null,"state":"active","id":null},{"event_id":"56926","title":"AITCシニア技術者勉強会 「一からはじめるIoT 第6回 ワークショップ(2)」","url":"https://aitc-senior.connpass.com/event/56926/","shortener_url":null,"started_at":"2017-05-27T05:00:00.000+09:00","ended_at":"2017-05-27T09:00:00.000+09:00","limit_number":30,"address":"東京都中央区晴海1-8-10 （晴海アイランド トリトンスクエア オフィスタワーＸ 42階）","place":"リコーITソリューションズ株式会社 大会議室「Blue Ocean」","lat":35.6564,"lon":139.782,"state":"active","id":null},{"event_id":"56527","title":"【サポーターズCoLab勉強会】20代エンジニアのキャリア論","url":"https://supporterz-seminar.connpass.com/event/56527/","shortener_url":null,"started_at":"2017-05-22T19:30:00.000+09:00","ended_at":"2017-05-22T22:00:00.000+09:00","limit_number":20,"address":"東京都渋谷区道玄坂1-9-5","place":"渋谷スクエアA 10F","lat":35.6573,"lon":139.699,"state":"active","id":null},{"event_id":"56871","title":"【サポーターズCoLab勉強会】20代エンジニアのキャリア論","url":"https://supporterz-seminar.connpass.com/event/56871/","shortener_url":null,"started_at":"2017-05-24T19:30:00.000+09:00","ended_at":"2017-05-24T22:00:00.000+09:00","limit_number":30,"address":"東京都渋谷区道玄坂1-9-5","place":"渋谷スクエアA 10F","lat":35.6573,"lon":139.699,"state":"active","id":null},{"event_id":"56957","title":"やわらか交流会＠ヒビヤガーデン","url":"https://apitore.connpass.com/event/56957/","shortener_url":null,"started_at":"2017-05-27T13:00:00.000+09:00","ended_at":"2017-05-27T16:00:00.000+09:00","limit_number":10,"address":"千代田区日比谷公園1-2","place":"ヒビヤガーデン","lat":35.6737,"lon":139.756,"state":"active","id":null},{"event_id":"56934","title":"Firebase勉強会 in Ehime","url":"https://gdgshikoku.connpass.com/event/56934/","shortener_url":null,"started_at":"2017-05-20T13:00:00.000+09:00","ended_at":"2017-05-20T17:00:00.000+09:00","limit_number":10,"address":"愛媛県松山市文京町3番(愛媛大学総合情報メディアセンター二階ゼミ室1)","place":"愛媛大学総合情報メディアセンター二階ゼミ室1","lat":33.8507,"lon":132.772,"state":"active","id":null},{"event_id":"54804","title":"【サポーターズCoLab勉強会】作って学ぶモナド入門","url":"https://supporterz-seminar.connpass.com/event/54804/","shortener_url":null,"started_at":"2017-05-24T19:30:00.000+09:00","ended_at":"2017-05-24T21:00:00.000+09:00","limit_number":20,"address":"東京都渋谷区道玄坂1-9-5","place":"渋谷スクエアA 10F","lat":35.6573,"lon":139.699,"state":"active","id":null},{"event_id":"54406","title":"【まつもとゆきひろ氏　特別講演】若手エンジニアの生存戦略","url":"https://supporterz-seminar.connpass.com/event/54406/","shortener_url":null,"started_at":"2017-05-20T15:30:00.000+09:00","ended_at":"2017-05-20T17:30:00.000+09:00","limit_number":350,"address":"東京都目黒区下目黒1丁目8-1","place":"株式会社ドリコム　アルコタワー17F","lat":35.6314,"lon":139.714,"state":"active","id":null},{"event_id":"56475","title":"半年でAIを活用した試作品を作ろう！AI入門講座誕生","url":"https://connpass.com/event/56475/","shortener_url":null,"started_at":"2017-05-11T19:30:00.000+09:00","ended_at":"2017-05-11T21:00:00.000+09:00","limit_number":null,"address":"東京都渋谷区代々木2-7-6　(GSハイム佐藤ビル302 JR「新宿」南口　徒歩3分 都営新宿線/都営大江戸線/京王新線「新宿」駅A1出口　徒歩1分床屋さんの入口横のEVで３Fへお越しください)","place":"新宿GSハイム佐藤ビル 302","lat":35.6879,"lon":139.699,"state":"active","id":null},{"event_id":"52842","title":"【居酒屋 x IoT】業界初！？ 養老乃瀧ハッカソン！","url":"https://yorohack.connpass.com/event/52842/","shortener_url":null,"started_at":"2017-05-03T00:30:00.000+09:00","ended_at":"2017-05-04T11:00:00.000+09:00","limit_number":55,"address":"東京都豊島区西池袋 1-10-15","place":"養老乃瀧 池袋 ","lat":35.7294,"lon":139.709,"state":"active","id":null},{"event_id":"56453","title":"Material Designを学ぶ UI開発ハンズオン in Osaka vol.0","url":"https://sha.connpass.com/event/56453/","shortener_url":null,"started_at":"2017-05-14T04:00:00.000+09:00","ended_at":"2017-05-14T09:00:00.000+09:00","limit_number":24,"address":"大阪府大阪市 北区大深町3番1号 グランフロント大阪 ナレッジキャピタルタワー C7階","place":"大阪イノベーションハブ","lat":34.7043,"lon":135.495,"state":"active","id":null},{"event_id":"56579","title":"プロに教わる！はじめてのillustrator講座 ~これでベジエも怖くない~","url":"https://modelor-school.connpass.com/event/56579/","shortener_url":null,"started_at":"2017-05-12T19:30:00.000+09:00","ended_at":"2017-05-12T22:00:00.000+09:00","limit_number":12,"address":"京都市左京区田中下柳町7-2","place":"かぜのね","lat":35.0299,"lon":135.774,"state":"active","id":null},{"event_id":"55808","title":"[秋葉原]  簡単！ミニコンテンツ創作ハッカソン！","url":"https://weeyble-creative.connpass.com/event/55808/","shortener_url":null,"started_at":"2017-05-03T13:00:00.000+09:00","ended_at":"2017-05-03T20:00:00.000+09:00","limit_number":25,"address":"東京都千代田区神田須田町２丁目１９−２３ (野村第３ビル ４階)","place":"コワーキングスペース秋葉原Weeyble","lat":35.6966,"lon":139.772,"state":"active","id":null},{"event_id":"56227","title":"半年でAIを活用した試作品を作ろう！AI入門講座誕生","url":"https://connpass.com/event/56227/","shortener_url":null,"started_at":"2017-05-04T13:30:00.000+09:00","ended_at":"2017-05-04T15:00:00.000+09:00","limit_number":null,"address":"渋谷区渋谷","place":"Study-AI事務局(渋谷駅7分)","lat":35.66,"lon":139.702,"state":"active","id":null},{"event_id":"55999","title":"【好評につき新企画】プロに教わる！はじめてのillustrator講座 ~これでベジエも怖くない~","url":"https://modelor-school.connpass.com/event/55999/","shortener_url":null,"started_at":"2017-05-12T19:30:00.000+09:00","ended_at":"2017-05-12T22:00:00.000+09:00","limit_number":12,"address":"京都市左京区田中下柳町7-2","place":"かぜのね","lat":35.0299,"lon":135.774,"state":"active","id":null},{"event_id":"56403","title":"おとなもDoYa! テクノロジー。 ―第二弾 オトナも、ふれて、学べる　ワークショップー","url":"https://itzakkubaran.connpass.com/event/56403/","shortener_url":null,"started_at":"2017-05-13T13:30:00.000+09:00","ended_at":"2017-05-13T15:30:00.000+09:00","limit_number":null,"address":"石川県 金沢市武蔵町14番31号","place":"ITビジネスプラザ武蔵　4階　サロンスペース「CRIT」","lat":36.5713,"lon":136.655,"state":"active","id":null},{"event_id":"54802","title":"【サポーターズCoLab勉強会】現SIの若手エンジニアに、Web業界のホントのところを話す会","url":"https://supporterz-seminar.connpass.com/event/54802/","shortener_url":null,"started_at":"2017-05-23T19:30:00.000+09:00","ended_at":"2017-05-23T21:00:00.000+09:00","limit_number":20,"address":"東京都渋谷区道玄坂1-9-5","place":"渋谷スクエアA 10F","lat":35.6573,"lon":139.699,"state":"active","id":null},{"event_id":"56089","title":"Scratch Day 2017 in Kurume","url":"https://scrachday-kurume.connpass.com/event/56089/","shortener_url":null,"started_at":"2017-05-13T01:00:00.000+09:00","ended_at":"2017-05-13T05:00:00.000+09:00","limit_number":null,"address":"福岡県久留米市東町495-1 (ツインステートビル3F)","place":"クロス・プログラミングスクール 久留米校","lat":33.3143,"lon":130.521,"state":"active","id":null},{"event_id":"54795","title":"【サポーターズCoLab勉強会】jQueryを克服しよう","url":"https://supporterz-seminar.connpass.com/event/54795/","shortener_url":null,"started_at":"2017-05-18T19:30:00.000+09:00","ended_at":"2017-05-18T21:00:00.000+09:00","limit_number":20,"address":"東京都渋谷区道玄坂1-9-5","place":"渋谷スクエアA 10F","lat":35.6573,"lon":139.699,"state":"active","id":null},{"event_id":"54794","title":"【サポーターズCoLab勉強会】LINEを使ったチャットボット入門(ハンズオン)","url":"https://supporterz-seminar.connpass.com/event/54794/","shortener_url":null,"started_at":"2017-05-17T19:30:00.000+09:00","ended_at":"2017-05-17T21:00:00.000+09:00","limit_number":40,"address":"東京都渋谷区道玄坂1-9-5","place":"渋谷スクエアA 10F","lat":35.6573,"lon":139.699,"state":"active","id":null},{"event_id":"54972","title":"【第2回】関西学生LT大会＆京都ITサークル交流会","url":"https://modelor-school.connpass.com/event/54972/","shortener_url":null,"started_at":"2017-05-06T17:30:00.000+09:00","ended_at":"2017-05-06T21:00:00.000+09:00","limit_number":25,"address":"京都府京都市中京区御倉町85-1  KDX烏丸ビル4階","place":"Dekiroom［デキルーム］関西・京都の学生向け無料会議室＆フリースペース","lat":35.0088,"lon":135.759,"state":"active","id":null},{"event_id":"54793","title":"【サポーターズCoLab勉強会】Pythonを始めよう（ハンズオンあり）","url":"https://supporterz-seminar.connpass.com/event/54793/","shortener_url":null,"started_at":"2017-05-16T19:30:00.000+09:00","ended_at":"2017-05-16T21:00:00.000+09:00","limit_number":20,"address":"東京都渋谷区道玄坂1-9-5","place":"渋谷スクエアA 10F","lat":35.6573,"lon":139.699,"state":"active","id":null},{"event_id":"54791","title":"【サポーターズCoLab勉強会】エンジニアが起業するための教科書","url":"https://supporterz-seminar.connpass.com/event/54791/","shortener_url":null,"started_at":"2017-05-15T19:30:00.000+09:00","ended_at":"2017-05-15T21:30:00.000+09:00","limit_number":20,"address":"東京都渋谷区道玄坂1-9-5","place":"渋谷スクエアA 10F","lat":35.6573,"lon":139.699,"state":"active","id":null},{"event_id":"54789","title":"【サポーターズCoLab勉強会】テクノロジが変える人間の恋愛活動","url":"https://supporterz-seminar.connpass.com/event/54789/","shortener_url":null,"started_at":"2017-05-12T19:30:00.000+09:00","ended_at":"2017-05-12T21:00:00.000+09:00","limit_number":20,"address":"東京都渋谷区道玄坂1-9-5","place":"渋谷スクエアA 10F","lat":35.6573,"lon":139.699,"state":"active","id":null},{"event_id":"54786","title":"【サポーターズCoLab勉強会】はじめる関数型プログラミング","url":"https://supporterz-seminar.connpass.com/event/54786/","shortener_url":null,"started_at":"2017-05-10T19:30:00.000+09:00","ended_at":"2017-05-10T21:00:00.000+09:00","limit_number":20,"address":"東京都渋谷区道玄坂1-9-5","place":"渋谷スクエアA 10F","lat":35.6573,"lon":139.699,"state":"active","id":null},{"event_id":"54778","title":"【サポーターズCoLab勉強会】ヒューマンインタフェース概論","url":"https://supporterz-seminar.connpass.com/event/54778/","shortener_url":null,"started_at":"2017-05-09T19:30:00.000+09:00","ended_at":"2017-05-09T21:00:00.000+09:00","limit_number":20,"address":"東京都渋谷区道玄坂1-9-5","place":"渋谷スクエアA 10F","lat":35.6573,"lon":139.699,"state":"active","id":null},{"event_id":"54776","title":"【サポーターズCoLab勉強会】今更聞けない機械学習の基礎と応用","url":"https://supporterz-seminar.connpass.com/event/54776/","shortener_url":null,"started_at":"2017-05-08T19:30:00.000+09:00","ended_at":"2017-05-08T21:30:00.000+09:00","limit_number":40,"address":"東京都渋谷区道玄坂1-9-5","place":"渋谷スクエアA 10F","lat":35.6573,"lon":139.699,"state":"active","id":null},{"event_id":"54244","title":"カーネル／VMキャンプ #5","url":"https://connpass.com/event/54244/","shortener_url":null,"started_at":"2017-05-27T09:00:00.000+09:00","ended_at":"2017-05-28T20:00:00.000+09:00","limit_number":32,"address":" \t長野県北安曇郡白馬村神城いいもり２６０９２","place":"カンパーニュ白馬","lat":35.7528,"lon":139.114,"state":"active","id":null},{"event_id":"52228","title":"第3回 秋葉原IoTツアーズ","url":"https://connpass.com/event/52228/","shortener_url":null,"started_at":"2017-05-20T10:00:00.000+09:00","ended_at":"2017-05-20T20:30:00.000+09:00","limit_number":20,"address":"東京都千代田区神田練塀町3(富士ソフト秋葉原ビル)","place":"DMM.make AKIBA","lat":35.7008,"lon":139.774,"state":"active","id":null},{"event_id":"87437","title":"モビリティIoTに特化したハッカソン in 東京 〜自動運転ドローンをプログラミングしよう〜","url":"https://atnd.org/events/87437","shortener_url":null,"started_at":"2017-05-27T02:00:00.000+09:00","ended_at":"2017-05-27T12:00:00.000+09:00","limit_number":30,"address":"150-0022 東京都渋谷区恵比寿南3丁目5番7号 DGビル9F","place":"Open Network Space Daikanyama","lat":35.6462,"lon":139.704,"state":"closed","id":null},{"event_id":"88176","title":"BUSINESS HINT! 5/25セミナー","url":"https://atnd.org/events/88176","shortener_url":null,"started_at":"2017-05-25T09:00:00.000+09:00","ended_at":"2017-05-25T12:00:00.000+09:00","limit_number":45,"address":"〒107-0062 東京都港区南青山2-24-15 青山タワービル13F","place":"ビィズ・クロコ㈱　エスタ青山セミナールーム (Room A)","lat":35.6702,"lon":139.718,"state":"closed","id":null},{"event_id":"88144","title":"第274回オフライン開発ミーティング","url":"https://atnd.org/events/88144","shortener_url":null,"started_at":"2017-05-21T01:00:00.000+09:00","ended_at":"2017-05-21T03:00:00.000+09:00","limit_number":null,"address":"東京都品川区大崎1-11-1","place":"ゲートシティ大崎B1アトリウムフリー座席","lat":35.6194,"lon":139.731,"state":"closed","id":null},{"event_id":"88098","title":"第20回よちよちAndroid名古屋支部オフライン開発ミーティング","url":"https://atnd.org/events/88098","shortener_url":null,"started_at":"2017-05-21T00:00:00.000+09:00","ended_at":"2017-05-21T03:00:00.000+09:00","limit_number":null,"address":"名古屋市中区栄三丁目18番1号 ナディアパーク デザインセンタービル6階","place":"名古屋市市民活動推進センター","lat":35.1654,"lon":136.905,"state":"closed","id":null},{"event_id":"87131","title":"読書でもくもく ＆ 新年度会議","url":"https://atnd.org/events/87131","shortener_url":null,"started_at":"2017-05-14T01:30:00.000+09:00","ended_at":"2017-05-16T23:59:59.000+09:00","limit_number":5,"address":"香川県綾歌郡宇多津町浜一番丁10","place":"香川短期大学 7F 第二情報研究室","lat":34.3093,"lon":133.808,"state":"closed","id":null},{"event_id":"87992","title":"第273回オフライン開発ミーティング","url":"https://atnd.org/events/87992","shortener_url":null,"started_at":"2017-05-14T01:00:00.000+09:00","ended_at":"2017-05-14T03:00:00.000+09:00","limit_number":null,"address":"東京都品川区大崎1-11-1","place":"ゲートシティ大崎B1アトリウムフリー座席","lat":35.6194,"lon":139.731,"state":"closed","id":null},{"event_id":"87938","title":"第19回よちよちAndroid名古屋支部オフライン開発ミーティング","url":"https://atnd.org/events/87938","shortener_url":null,"started_at":"2017-05-14T00:00:00.000+09:00","ended_at":"2017-05-14T03:00:00.000+09:00","limit_number":null,"address":"名古屋市中区栄三丁目18番1号 ナディアパーク デザインセンタービル6階","place":"名古屋市市民活動推進センター","lat":35.1654,"lon":136.905,"state":"closed","id":null},{"event_id":"88020","title":"現28名残り枠男女2名ずつ☆表参道共催パーティ・開催5.13限定３２基本的に男女比合わせます","url":"https://atnd.org/events/88020","shortener_url":null,"started_at":"2017-05-13T10:00:00.000+09:00","ended_at":"2017-05-13T12:30:00.000+09:00","limit_number":32,"address":"東京都港区南青山","place":"『表参道』","lat":35.6652,"lon":139.715,"state":"closed","id":null},{"event_id":"87453","title":"Ubuntu 17.04リリース記念オフラインミーティング17.05","url":"https://atnd.org/events/87453","shortener_url":null,"started_at":"2017-05-13T03:15:00.000+09:00","ended_at":"2017-05-13T08:00:00.000+09:00","limit_number":120,"address":"東京都新宿区西新宿6-24-1","place":"bit \u0026 innovation by TIS 株式会社（西新宿三井ビルディング23F）","lat":35.695,"lon":139.689,"state":"closed","id":null},{"event_id":"87778","title":"半年でAIを活用したサービスの試作品を作ろう！！　5月開講講座説明会(最終)","url":"https://atnd.org/events/87778","shortener_url":null,"started_at":"2017-05-11T19:30:00.000+09:00","ended_at":"2017-05-11T21:00:00.000+09:00","limit_number":5,"address":"東京都渋谷区代々木2丁目6−8 新宿ex","place":"新宿GSハイム佐藤ビル302  JR「新宿」南口　徒歩3分 都営新宿線/都営大江戸線/京王新線「新宿」駅A1出口　徒歩1分 床屋さんの入口横のEVで３Fへお越しください。 ","lat":35.6879,"lon":139.699,"state":"closed","id":null},{"event_id":"87783","title":"第18回よちよちAndroid名古屋支部オフライン開発ミーティング","url":"https://atnd.org/events/87783","shortener_url":null,"started_at":"2017-05-07T00:00:00.000+09:00","ended_at":"2017-05-07T03:00:00.000+09:00","limit_number":null,"address":"名古屋市中区栄三丁目18番1号 ナディアパーク デザインセンタービル6階","place":"名古屋市市民活動推進センター","lat":35.1654,"lon":136.905,"state":"closed","id":null},{"event_id":"87876","title":"信号の妨害機が問題を解決する","url":"https://atnd.org/events/87876","shortener_url":null,"started_at":"2017-05-05T01:30:00.000+09:00","ended_at":"2017-06-14T17:30:00.000+09:00","limit_number":50,"address":"京都","place":"たわ","lat":35.0116,"lon":135.768,"state":"closed","id":null},{"event_id":"87724","title":"半年でAIを活用したサービスの試作品を作ろう！！　5月開講講座説明会(先着順)","url":"https://atnd.org/events/87724","shortener_url":null,"started_at":"2017-05-04T13:30:00.000+09:00","ended_at":"2017-05-04T15:00:00.000+09:00","limit_number":5,"address":"東京都千代田区神田錦町2丁目 岡田ビル","place":"会議室「トキラルーム」神保町駅徒歩1分","lat":35.6913,"lon":139.763,"state":"closed","id":null},{"event_id":"87844","title":" ハイパワー gps電波遮断","url":"https://atnd.org/events/87844","shortener_url":null,"started_at":"2017-05-02T17:00:00.000+09:00","ended_at":"2017-07-30T17:30:00.000+09:00","limit_number":null,"address":"","place":"","lat":null,"lon":null,"state":"closed","id":null},{"event_id":"87452","title":"SWWDC - 仙台iOS開発者勉強会31「帰省エンジニアとの懇談会」","url":"https://atnd.org/events/87452","shortener_url":null,"started_at":"2017-05-02T10:00:00.000+09:00","ended_at":"2017-05-02T12:00:00.000+09:00","limit_number":20,"address":"宮城県仙台市青葉区本町2-6-35 第七広瀬ビル 5F","place":"株式会社ナナイロ 5F セミナールーム","lat":38.2637,"lon":140.876,"state":"closed","id":null},{"event_id":"87097","title":"開発合宿 in 山中湖(仮)","url":"https://atnd.org/events/87097","shortener_url":null,"started_at":"2017-05-05T04:30:00.000+09:00","ended_at":"2017-05-07T02:30:00.000+09:00","limit_number":20,"address":"山梨県南都留郡山中湖村平野 1003-2","place":"Enjoy ! Sports テニスフレンド","lat":35.4326,"lon":138.908,"state":"closed","id":null},{"event_id":"84812","title":"good speed ! 春合宿","url":"https://atnd.org/events/84812","shortener_url":null,"started_at":"2017-05-03T08:00:00.000+09:00","ended_at":"2017-05-04T00:00:00.000+09:00","limit_number":23,"address":"静岡県賀茂郡松崎町大沢456","place":"BBRoad","lat":34.7568,"lon":138.838,"state":"closed","id":null}]