[{"event_id":"49232","title":"RESAS API ハッカソン in Hokkaido","url":"https://connpass.com/event/49232/","shortener_url":null,"started_at":"2017-02-18T03:00:00.000+09:00","ended_at":"2017-02-19T00:30:00.000+09:00","limit_number":90,"address":"札幌市白石区東札幌5条1丁目1－1","place":"ICC Cross x Garden","lat":43.0562,"lon":141.386,"state":"active","id":null},{"event_id":"50100","title":"RESAS x 山形ハッカソン 〜おらだで創る山形のミライ〜","url":"https://connpass.com/event/50100/","shortener_url":null,"started_at":"2017-02-19T09:30:00.000+09:00","ended_at":"2017-02-20T19:30:00.000+09:00","limit_number":39,"address":"〒994-0025　山形県天童市鎌田本町1-1-30","place":"山形県天童温泉　ほほえみの宿　滝の湯","lat":38.359,"lon":140.381,"state":"active","id":null},{"event_id":"49683","title":"沖縄ミライHack Days","url":"https://connpass.com/event/49683/","shortener_url":null,"started_at":"2017-02-11T09:30:00.000+09:00","ended_at":"2017-02-12T19:30:00.000+09:00","limit_number":50,"address":"沖縄県国頭郡恩納村谷茶１９１９−１","place":"沖縄科学技術大学院大学 OIST","lat":26.4647,"lon":127.83,"state":"active","id":null},{"event_id":"50534","title":"[秋葉原] ゆるふわIoT電子工作\u0026クラウドサーバ(AWS/GCP)構築入門","url":"https://weeyble-iot.connpass.com/event/50534/","shortener_url":null,"started_at":"2017-02-19T22:00:00.000+09:00","ended_at":"2017-02-20T03:00:00.000+09:00","limit_number":12,"address":"東京都千代田区神田須田町２丁目１９−２３ (野村第３ビル ４階)","place":"コワーキングスペース秋葉原Weeyble","lat":35.6966,"lon":139.772,"state":"active","id":null},{"event_id":"49818","title":"第4回Reactive System Meetup in 西新宿","url":"https://reactive-shinjuku.connpass.com/event/49818/","shortener_url":null,"started_at":"2017-02-28T04:00:00.000+09:00","ended_at":"2017-02-28T07:30:00.000+09:00","limit_number":132,"address":"東京都新宿区西新宿8-17-1 住友不動産新宿グランドタワー","place":"TIS株式会社","lat":35.6958,"lon":139.69,"state":"active","id":null},{"event_id":"50407","title":"OthloTech x エイチーム [社内勉強会]","url":"https://othlotech.connpass.com/event/50407/","shortener_url":null,"started_at":"2017-02-23T04:15:00.000+09:00","ended_at":"2017-02-23T06:30:00.000+09:00","limit_number":15,"address":"名古屋市中村区名駅三丁目28番12号 大名古屋ビルヂング32F","place":"株式会社エイチーム本社","lat":35.1721,"lon":136.885,"state":"active","id":null},{"event_id":"50497","title":"【大阪】はじめてのHoloLensハッカソン","url":"https://osaka-driven-dev.connpass.com/event/50497/","shortener_url":null,"started_at":"2017-02-25T18:30:00.000+09:00","ended_at":"2017-02-26T04:00:00.000+09:00","limit_number":14,"address":"大阪市北区大深町4-20 グランフロント大阪タワーA 27F","place":"アイレット株式会社","lat":34.7041,"lon":135.495,"state":"active","id":null},{"event_id":"50649","title":"Kitakyushu IT JAM","url":"https://connpass.com/event/50649/","shortener_url":null,"started_at":"2017-02-25T15:00:00.000+09:00","ended_at":"2017-02-25T18:00:00.000+09:00","limit_number":5,"address":"福岡県北九州市小倉北区浅野2丁目14-3（あるあるCity2号館3階）","place":"fabbit","lat":33.888,"lon":130.886,"state":"active","id":null},{"event_id":"51209","title":"LINE BOT AWARDSギリギリ追い込みハッカソン","url":"https://niftyiotdesigncenter.connpass.com/event/51209/","shortener_url":null,"started_at":"2017-02-28T03:00:00.000+09:00","ended_at":"2017-03-01T03:00:00.000+09:00","limit_number":52,"address":"東京都新宿区北新宿2-21-1　(新宿フロントタワー)","place":"ニフティ株式会社","lat":35.6961,"lon":139.689,"state":"active","id":null},{"event_id":"51185","title":"PyLadies Tokyo Meetup #19","url":"https://pyladies-tokyo.connpass.com/event/51185/","shortener_url":null,"started_at":"2017-02-26T23:00:00.000+09:00","ended_at":"2017-02-27T02:00:00.000+09:00","limit_number":15,"address":"東京都新宿区西新宿2-7-1 小田急第一生命ビル9階","place":"株式会社オープンストリーム","lat":35.6917,"lon":139.691,"state":"active","id":null},{"event_id":"49570","title":"【MBSハッカソン】myThings Developersハンズオン（2/9）","url":"https://connpass.com/event/49570/","shortener_url":null,"started_at":"2017-02-10T04:30:00.000+09:00","ended_at":"2017-02-10T06:30:00.000+09:00","limit_number":24,"address":"大阪府大阪市北区小松原町2-4 大阪富国生命ビル 27階","place":"ヤフー株式会社 富国生命オフィス","lat":34.7023,"lon":135.5,"state":"active","id":null},{"event_id":"47843","title":"TDDBC Toyama #1","url":"https://tddbc.connpass.com/event/47843/","shortener_url":null,"started_at":"2017-02-18T22:00:00.000+09:00","ended_at":"2017-02-20T00:00:00.000+09:00","limit_number":37,"address":"富山県南砺市山斐１８４−２","place":"秀夢木楽館","lat":36.5785,"lon":136.966,"state":"active","id":null},{"event_id":"48215","title":"【増席！】Yahoo! JAPAN MEETUP #9 （EC技術カンファレンス）","url":"https://yj-meetup.connpass.com/event/48215/","shortener_url":null,"started_at":"2017-02-18T23:00:00.000+09:00","ended_at":"2017-02-19T04:30:00.000+09:00","limit_number":150,"address":"東京都千代田区紀尾井町1-2　東京ガーデンテラス紀尾井町　紀尾井タワー","place":"東京ガーデンテラス紀尾井町　ヤフー株式会社","lat":35.6795,"lon":139.737,"state":"active","id":null},{"event_id":"50327","title":"Sendai Communication All Star会議〜Sendai CS JAM#9〜","url":"https://csjam.connpass.com/event/50327/","shortener_url":null,"started_at":"2017-02-16T19:00:00.000+09:00","ended_at":"2017-02-16T21:30:00.000+09:00","limit_number":5,"address":"宮城県仙台市青葉区本町1-12-12 (GMビルディング 7F)","place":"株式会社メルカリ　仙台オフィス","lat":38.2665,"lon":140.878,"state":"active","id":null},{"event_id":"50485","title":"GeoDev Meetup #3 - 地図で使える RESAS データ作成・可視化もくもく会","url":"https://geodev.connpass.com/event/50485/","shortener_url":null,"started_at":"2017-02-14T04:00:00.000+09:00","ended_at":"2017-02-14T06:00:00.000+09:00","limit_number":18,"address":"東京都千代田区平河町2-7-1（塩崎ビル）","place":"ESRIジャパン（株）5Fセミナールーム","lat":35.6792,"lon":139.741,"state":"active","id":null},{"event_id":"51141","title":"PyCon JP \"Meat\" UP 2017.02 in Ebisu (もつ鍋)","url":"https://pyconjp-staff.connpass.com/event/51141/","shortener_url":null,"started_at":"2017-02-19T03:30:00.000+09:00","ended_at":"2017-02-19T06:00:00.000+09:00","limit_number":35,"address":"東京都渋谷区恵比寿4-11-9 クオーレエビス B1F","place":"博多もつ鍋五郎恵比寿店","lat":35.6452,"lon":139.715,"state":"active","id":null},{"event_id":"50954","title":"人工知能ハッカソン inカラフル・ボード「今回のテーマ：kaggle」","url":"https://aichatbot.connpass.com/event/50954/","shortener_url":null,"started_at":"2017-02-25T22:00:00.000+09:00","ended_at":"2017-02-26T02:00:00.000+09:00","limit_number":10,"address":"渋谷区渋谷一丁目-8-7 第27SYビル 3F-B","place":"カラフル・ボード株式会社","lat":35.6603,"lon":139.705,"state":"active","id":null},{"event_id":"50835","title":"人工知能ハッカソン inカラフル・ボード「今回のテーマ：kaggle」","url":"https://aichatbot.connpass.com/event/50835/","shortener_url":null,"started_at":"2017-02-25T22:00:00.000+09:00","ended_at":"2017-02-26T02:00:00.000+09:00","limit_number":16,"address":"渋谷区渋谷一丁目-8-7 第27SYビル 3F-B","place":"カラフル・ボード株式会社","lat":35.6603,"lon":139.705,"state":"active","id":null},{"event_id":"49177","title":"☆浪速TECH魂を持ったエンジニアが集まる!☆　Deep Learning実装祭り!!　いよいよ開催","url":"https://naniwa-tech-dou.connpass.com/event/49177/","shortener_url":null,"started_at":"2017-02-18T21:00:00.000+09:00","ended_at":"2017-02-19T02:50:00.000+09:00","limit_number":125,"address":"大阪市中央区淡路町4-2-15","place":"大阪パソナグループビル8F","lat":34.6867,"lon":135.5,"state":"active","id":null},{"event_id":"48902","title":"名古屋でVRハッカソンをやるためのUE4 勉強会【2限目：VR機器であれこれするハンズオン】","url":"https://nagogebu.connpass.com/event/48902/","shortener_url":null,"started_at":"2017-02-11T12:45:00.000+09:00","ended_at":"2017-02-11T18:00:00.000+09:00","limit_number":12,"address":"愛知県 名古屋市 愛知県名古屋市中村区名駅四丁目15番地15号 名古屋綜合市場ビル","place":"フィーバー柳橋","lat":35.1697,"lon":136.888,"state":"active","id":null},{"event_id":"48434","title":"各業界の「伝える」スペシャリストたちに学ぶ、最高峰のプレゼン技術｜デザインアカデミー","url":"https://design-academy.connpass.com/event/48434/","shortener_url":null,"started_at":"2017-02-11T04:00:00.000+09:00","ended_at":"2017-02-11T07:30:00.000+09:00","limit_number":100,"address":"東京都千代田区紀尾井町1-3 東京ガーデンテラス紀尾井町 17F","place":"LODGE - Yahoo! JAPAN","lat":35.6795,"lon":139.737,"state":"active","id":null},{"event_id":"49367","title":"【100円ショップでモノづくり】ヒャッカソン熊本#003","url":"https://100kuma.connpass.com/event/49367/","shortener_url":null,"started_at":"2017-02-18T22:00:00.000+09:00","ended_at":"2017-02-19T06:00:00.000+09:00","limit_number":20,"address":"熊本市中央区世安町172","place":"びぷれす","lat":32.7895,"lon":130.69,"state":"active","id":null},{"event_id":"50071","title":"UX JAM \u0026 UX Sketch （UX JAM枠）","url":"https://uxmilk.connpass.com/event/50071/","shortener_url":null,"started_at":"2017-02-15T19:20:00.000+09:00","ended_at":"2017-02-15T22:00:00.000+09:00","limit_number":160,"address":"東京都港区六本木6−3−1 六本木ヒルズクロスポイント5F","place":"株式会社フリークアウト","lat":35.6608,"lon":139.728,"state":"active","id":null},{"event_id":"50134","title":"UX JAM \u0026 UX Sketch （UX Sketch枠）","url":"https://mtl.connpass.com/event/50134/","shortener_url":null,"started_at":"2017-02-15T19:20:00.000+09:00","ended_at":"2017-02-15T22:00:00.000+09:00","limit_number":160,"address":"東京都港区六本木6−3−1 六本木ヒルズクロスポイント5F","place":"FreakOut","lat":35.6608,"lon":139.728,"state":"active","id":null},{"event_id":"49564","title":"【MBSハッカソン】myThings Developersハンズオン（2/7）","url":"https://connpass.com/event/49564/","shortener_url":null,"started_at":"2017-02-08T04:30:00.000+09:00","ended_at":"2017-02-08T06:30:00.000+09:00","limit_number":24,"address":"大阪府大阪市北区小松原町2-4 大阪富国生命ビル 27階","place":"ヤフー株式会社 富国生命オフィス","lat":34.7023,"lon":135.5,"state":"active","id":null},{"event_id":"49157","title":"Ansible hackathon -沖縄オープンラボラトリ・オープンフォーラム","url":"https://ool.connpass.com/event/49157/","shortener_url":null,"started_at":"2017-02-09T10:00:00.000+09:00","ended_at":"2017-02-11T16:00:00.000+09:00","limit_number":25,"address":"","place":"沖縄オープンラボラトリ　うるま市兼箇段61-1","lat":null,"lon":null,"state":"active","id":null},{"event_id":"50420","title":"Sota講習会 【Vstone Magicを始めよう】 Part 3","url":"https://sota.connpass.com/event/50420/","shortener_url":null,"started_at":"2017-02-18T04:00:00.000+09:00","ended_at":"2017-02-18T04:50:00.000+09:00","limit_number":4,"address":"東京都千代田区外神田1-9-9 内田ビル4F","place":"ヴイストン ロボットセンター秋葉原店","lat":35.6987,"lon":139.77,"state":"active","id":null},{"event_id":"48557","title":"【優勝賞金1000万】LINE BOT AWARDS 公式ハッカソン@大阪","url":"https://linedev.connpass.com/event/48557/","shortener_url":null,"started_at":"2017-02-04T10:00:00.000+09:00","ended_at":"2017-02-05T20:00:00.000+09:00","limit_number":60,"address":"大阪府大阪市北区鶴野町1番5号","place":"関西大学梅田キャンパスKANDAI Me RISE　4階多目的ルーム","lat":34.7077,"lon":135.501,"state":"active","id":null},{"event_id":"48559","title":"Hack Day 2017 無料観覧","url":"https://hackday.connpass.com/event/48559/","shortener_url":null,"started_at":"2017-02-04T22:00:00.000+09:00","ended_at":"2017-02-06T03:00:00.000+09:00","limit_number":null,"address":"東京都千代田区外神田四丁目14-1","place":"秋葉原UDX","lat":35.7005,"lon":139.773,"state":"active","id":null},{"event_id":"48375","title":"PyCon JP hack-a-thon #8 2017.02","url":"https://pyconjp-staff.connpass.com/event/48375/","shortener_url":null,"started_at":"2017-02-18T22:00:00.000+09:00","ended_at":"2017-02-19T03:00:00.000+09:00","limit_number":null,"address":"東京都 新宿区 四谷 １-７ 第２鹿倉ビル １F","place":"エル・アルボル","lat":35.6867,"lon":139.728,"state":"active","id":null},{"event_id":"49559","title":"【LINE BOT AWARDSスピンアウト】myThings Developersハンズオン","url":"https://connpass.com/event/49559/","shortener_url":null,"started_at":"2017-02-04T04:30:00.000+09:00","ended_at":"2017-02-04T06:30:00.000+09:00","limit_number":24,"address":"大阪府大阪市北区小松原町2-4 大阪富国生命ビル 27階","place":"ヤフー株式会社 富国生命オフィス","lat":34.7023,"lon":135.5,"state":"active","id":null},{"event_id":"49345","title":"hojiroLT 第一回クソサイトハッカソン in #4dhouse","url":"https://hojiro-lt.connpass.com/event/49345/","shortener_url":null,"started_at":"2017-02-05T20:00:00.000+09:00","ended_at":"2017-02-06T04:00:00.000+09:00","limit_number":8,"address":"東京都渋谷区 某所","place":"4dhouse","lat":35.6671,"lon":139.714,"state":"active","id":null},{"event_id":"48716","title":"京都テクデザもくもく会#5","url":"https://supporterz.connpass.com/event/48716/","shortener_url":null,"started_at":"2017-02-01T23:00:00.000+09:00","ended_at":"2017-02-02T05:00:00.000+09:00","limit_number":null,"address":"京都府京都市下京区立売東町1京都フコク生命四条柳馬場ビル２F","place":"サポーターズ京都オフィス","lat":35.004,"lon":135.764,"state":"active","id":null},{"event_id":"46288","title":"Hackin’ Honda  - 探し出せ！新しい方程式を！-","url":"https://connpass.com/event/46288/","shortener_url":null,"started_at":"2017-02-17T10:00:00.000+09:00","ended_at":"2017-02-19T20:00:00.000+09:00","limit_number":15,"address":"栃木県芳賀郡茂木町桧山120−1","place":" ツインリンクもてぎ","lat":36.532,"lon":140.225,"state":"active","id":null},{"event_id":"48905","title":"智恵の和","url":"https://connpass.com/event/48905/","shortener_url":null,"started_at":"2017-02-04T13:00:00.000+09:00","ended_at":"2017-02-04T17:00:00.000+09:00","limit_number":null,"address":"東京都港区港南 2-16-3 品川グランドセントラルタワー","place":"マイクロソフト品川本社","lat":35.6267,"lon":139.74,"state":"active","id":null},{"event_id":"48580","title":"MBSハッカソン 参加者向けkintone勉強会","url":"https://cybozu-osaka.connpass.com/event/48580/","shortener_url":null,"started_at":"2017-02-01T19:00:00.000+09:00","ended_at":"2017-02-01T21:00:00.000+09:00","limit_number":6,"address":"大阪府大阪市北区角田町8番1号 梅田阪急ビルオフィスタワー 35階","place":"サイボウズ大阪オフィス","lat":34.7023,"lon":135.499,"state":"active","id":null},{"event_id":"86124","title":"第8回よちよちAndroid名古屋支部オフライン開発ミーティング","url":"https://atnd.org/events/86124","shortener_url":null,"started_at":"2017-02-26T10:00:00.000+09:00","ended_at":"2017-02-26T12:00:00.000+09:00","limit_number":null,"address":"愛知県名古屋市中村区名駅3丁目18-5 モンマートビル5階","place":"ベースキャンプ名古屋","lat":35.1728,"lon":136.887,"state":"closed","id":null},{"event_id":"85683","title":"Unreal Engine Sapporo Meetup! (2/25)","url":"https://atnd.org/events/85683","shortener_url":null,"started_at":"2017-02-25T13:30:00.000+09:00","ended_at":"2017-02-25T17:30:00.000+09:00","limit_number":25,"address":"札幌市西区琴似2条7丁目","place":"札幌市西区民センター第4集会室","lat":43.0743,"lon":141.299,"state":"closed","id":null},{"event_id":"85848","title":"【ドローン×アイデアソン】第3回ドロンソン　＠LIONS FACILITY（東京）","url":"https://atnd.org/events/85848","shortener_url":null,"started_at":"2017-02-25T13:00:00.000+09:00","ended_at":"2017-02-25T20:00:00.000+09:00","limit_number":40,"address":"〒130-0023 東京都墨田区立川2-10-10 M・吉原ビル1階(東京駅から20分)","place":"東京23区内初ドローン練習場 LIONS FACILITY(ライオンズファシリティ)","lat":35.6812,"lon":139.767,"state":"closed","id":null},{"event_id":"85761","title":"第3回ドロンソン 「ドローン×仙北市＝みんながハッピーになれる未来」@東京都墨田区","url":"https://atnd.org/events/85761","shortener_url":null,"started_at":"2017-02-25T10:00:00.000+09:00","ended_at":"2017-02-25T20:00:00.000+09:00","limit_number":40,"address":"東京都墨田区立川2-10-10","place":"東京23区内初ドローン練習場 LIONS FACILITY(ライオンズファシリティ)","lat":35.6914,"lon":139.803,"state":"closed","id":null},{"event_id":"85905","title":"第7回よちよちAndroid名古屋支部オフライン開発ミーティング","url":"https://atnd.org/events/85905","shortener_url":null,"started_at":"2017-02-19T10:00:00.000+09:00","ended_at":"2017-02-19T12:00:00.000+09:00","limit_number":null,"address":"愛知県名古屋市中村区名駅3丁目18-5 モンマートビル5階","place":"ベースキャンプ名古屋","lat":35.1728,"lon":136.887,"state":"closed","id":null},{"event_id":"85690","title":"第6回よちよちAndroid名古屋支部オフライン開発ミーティング","url":"https://atnd.org/events/85690","shortener_url":null,"started_at":"2017-02-12T10:00:00.000+09:00","ended_at":"2017-02-12T12:00:00.000+09:00","limit_number":null,"address":"愛知県名古屋市中村区名駅3丁目18-5 モンマートビル5階","place":"ベースキャンプ名古屋","lat":35.1728,"lon":136.887,"state":"closed","id":null},{"event_id":"85381","title":"居酒屋×ロボット　アイディアソン","url":"https://atnd.org/events/85381","shortener_url":null,"started_at":"2017-02-11T12:00:00.000+09:00","ended_at":"2017-02-11T18:00:00.000+09:00","limit_number":25,"address":"東京都千代田区内神田3-22-10-1F","place":"くろきん　神田本店","lat":35.6925,"lon":139.77,"state":"closed","id":null},{"event_id":"84595","title":"AIIT起業塾 #9　ー アイデアソンー","url":"https://atnd.org/events/84595","shortener_url":null,"started_at":"2017-02-05T13:30:00.000+09:00","ended_at":"2017-02-05T18:00:00.000+09:00","limit_number":25,"address":"千代田区外神田 1-18-13 秋葉原ダイビル 12 階","place":"AIIT秋葉原サテライトキャンパス","lat":35.6992,"lon":139.772,"state":"closed","id":null},{"event_id":"85523","title":"第5回名古屋支部オフライン開発ミーティング","url":"https://atnd.org/events/85523","shortener_url":null,"started_at":"2017-02-05T10:00:00.000+09:00","ended_at":"2017-02-05T12:00:00.000+09:00","limit_number":null,"address":"愛知県名古屋市中村区名駅3丁目18-5 モンマートビル5階","place":"ベースキャンプ名古屋","lat":35.1728,"lon":136.887,"state":"closed","id":null},{"event_id":"50346","title":"SocioInfo＃13　GISを使ってGEOINTしよう","url":"https://socioinfo.connpass.com/event/50346/","shortener_url":null,"started_at":"2017-02-18T10:00:00.000+09:00","ended_at":"2017-02-19T15:00:00.000+09:00","limit_number":20,"address":"〒305-0816　茨城県つくば市学園の森3-29-6","place":"Rupo","lat":36.0938,"lon":140.092,"state":"active","id":null},{"event_id":"40935","title":"【15周年記念】またまた!?温泉合宿 in 箱根 #MyDNS.JP","url":"https://svrkcho.connpass.com/event/40935/","shortener_url":null,"started_at":"2017-02-18T13:00:00.000+09:00","ended_at":"2017-02-19T12:00:00.000+09:00","limit_number":47,"address":"神奈川県足柄下郡箱根町木賀1014","place":"KKR宮ノ下","lat":35.2455,"lon":139.055,"state":"active","id":null},{"event_id":"47590","title":"HealthTechMedBeer #02 -しくじり先生編 開発者向け-","url":"https://medpeer.connpass.com/event/47590/","shortener_url":null,"started_at":"2017-02-08T19:30:00.000+09:00","ended_at":"2017-02-08T21:30:00.000+09:00","limit_number":20,"address":"〒150-6017　東京都渋谷区恵比寿4-20-3(恵比寿ガーデンプレイスタワー17階)","place":"メドピア株式会社","lat":35.6424,"lon":139.713,"state":"active","id":null},{"event_id":"85681","title":"【学生・若手社会人向け】 あなたを変えるきっかけがある。 社会人スタッフと共に、考え抜く力を鍛える合宿型ビジネスプランコンテスト《FRI WinterCamp 2017》のご案内(2/24-26)","url":"https://atnd.org/events/85681","shortener_url":null,"started_at":"2017-02-24T13:00:00.000+09:00","ended_at":"2017-02-26T18:00:00.000+09:00","limit_number":30,"address":"","place":"代々木 国立オリンピック記念青少年総合センター","lat":null,"lon":null,"state":"closed","id":null},{"event_id":"84438","title":"あなたを変えるきっかけがある かけがえのない仲間との3日間《FRI Winter Camp 2017》のご案内","url":"https://atnd.org/events/84438","shortener_url":null,"started_at":"2017-02-24T13:00:00.000+09:00","ended_at":"2017-02-26T18:00:00.000+09:00","limit_number":30,"address":"東京都渋谷区代々木神園町3−1","place":"代々木 国立オリンピック記念青少年総合センター","lat":35.6751,"lon":139.694,"state":"closed","id":null},{"event_id":"83819","title":"201７年02月0４日『エターナル・フレイム』合宿読書会","url":"https://atnd.org/events/83819","shortener_url":null,"started_at":"2017-02-04T15:00:00.000+09:00","ended_at":"2017-02-05T09:30:00.000+09:00","limit_number":15,"address":"京都府南丹市園部町新町51-1","place":"京都府南丹市園部町『かいちや』","lat":35.1071,"lon":135.479,"state":"closed","id":null}]