[{"event_id":"53302","title":"UX MILK Workstyle 05 feat. Rakuten","url":"https://uxmilk.connpass.com/event/53302/","shortener_url":null,"started_at":"2017-03-30T10:30:00.000+09:00","ended_at":"2017-03-30T13:00:00.000+09:00","limit_number":200,"address":"〒158-0094 東京都世田谷区玉川一丁目14番1号(楽天クリムゾンハウス)","place":"楽天株式会社","lat":35.6104,"lon":139.63,"state":"active","id":null},{"event_id":"52273","title":"【学生限定】年度締めLT大会 OthloEvent#11","url":"https://othlotech.connpass.com/event/52273/","shortener_url":null,"started_at":"2017-03-25T18:00:00.000+09:00","ended_at":"2017-03-25T20:30:00.000+09:00","limit_number":25,"address":"\t 〒461-0001 愛知県名古屋市東区泉1-22-30","place":"AOI CAFE IZUMI","lat":35.1742,"lon":136.911,"state":"active","id":null},{"event_id":"52551","title":"Apitore WebAPIハンズオン Vol.1 ＠大手町","url":"https://apitore.connpass.com/event/52551/","shortener_url":null,"started_at":"2017-03-29T19:00:00.000+09:00","ended_at":"2017-03-29T21:00:00.000+09:00","limit_number":17,"address":"東京都千代田区内神田2−2−5 (光正ビル5階)","place":"SPACE BRIDD大手町 レンタルスペース5B","lat":35.6898,"lon":139.767,"state":"active","id":null},{"event_id":"51174","title":"GeoDev Meetup #4 - 地図データ可視化・アプリ作成もくもく会","url":"https://geodev.connpass.com/event/51174/","shortener_url":null,"started_at":"2017-03-29T19:00:00.000+09:00","ended_at":"2017-03-29T21:00:00.000+09:00","limit_number":18,"address":"東京都千代田区平河町2-7-1（塩崎ビル）","place":"ESRIジャパン（株）5Fセミナールーム","lat":35.6792,"lon":139.741,"state":"active","id":null},{"event_id":"52263","title":"JAWS-UG : HPC#9 \u0026 AI#5 合同勉強会","url":"https://jawsug-hpc.connpass.com/event/52263/","shortener_url":null,"started_at":"2017-03-31T19:00:00.000+09:00","ended_at":"2017-03-31T21:00:00.000+09:00","limit_number":122,"address":"東京都目黒区下目黒1-8-1 アルコタワー19F","place":"アマゾンデータサービスジャパン","lat":35.6315,"lon":139.714,"state":"active","id":null},{"event_id":"53642","title":"Kerasチュートリアル勉強会「初期化〜Scikit-learnAPI」+ アルファ碁実装など","url":"https://kikaigakushuu.connpass.com/event/53642/","shortener_url":null,"started_at":"2017-03-28T20:00:00.000+09:00","ended_at":"2017-03-28T22:00:00.000+09:00","limit_number":30,"address":"東京都千代田区神田須田町２丁目１９−２３  (野村第３ビル４階)","place":"コワーキングスペース秋葉原 Weeyble（ウィーブル)","lat":35.6966,"lon":139.772,"state":"active","id":null},{"event_id":"51798","title":"TouchDesigner User Meeting [Touch in Kansai] vol.0","url":"https://sha.connpass.com/event/51798/","shortener_url":null,"started_at":"2017-03-20T04:00:00.000+09:00","ended_at":"2017-03-20T08:00:00.000+09:00","limit_number":29,"address":"大阪府大阪市 北区大深町3番1号 グランフロント大阪 ナレッジキャピタルタワー C7階","place":"大阪イノベーションハブ","lat":34.7043,"lon":135.495,"state":"active","id":null},{"event_id":"52783","title":"人工知能ハッカソン in ジャストシステム「今回のテーマ：kerasかxgboost」見学者枠も追加","url":"https://aichatbot.connpass.com/event/52783/","shortener_url":null,"started_at":"2017-03-25T13:00:00.000+09:00","ended_at":"2017-03-25T17:00:00.000+09:00","limit_number":20,"address":"東京都新宿区西新宿6-8-1　住友不動産新宿オークタワー18F","place":"ジャストシステム","lat":35.6941,"lon":139.69,"state":"active","id":null},{"event_id":"52715","title":"【好評につき新企画】京都でプロに教わる！はじめてのSketchデザイン講座","url":"https://modelor-school.connpass.com/event/52715/","shortener_url":null,"started_at":"2017-03-24T19:30:00.000+09:00","ended_at":"2017-03-24T22:00:00.000+09:00","limit_number":12,"address":"〒602-0832　京都府京都市上京区今出川通寺町西入大原口町224番地Campusビル２階 ","place":"ロケットスペース","lat":35.0293,"lon":135.768,"state":"active","id":null},{"event_id":"52291","title":"【デジタルマーケティング業界10年超の企業が語る次の成長に向けた新規事業開発や新しい技術への取組】","url":"https://technight.connpass.com/event/52291/","shortener_url":null,"started_at":"2017-03-29T19:30:00.000+09:00","ended_at":"2017-03-29T22:00:00.000+09:00","limit_number":70,"address":"東京都新宿区西新宿2-4-1（新宿NSビル8階）","place":"株式会社インタースペース","lat":35.6882,"lon":139.694,"state":"active","id":null},{"event_id":"52240","title":"春のMeetup！ブロックチェーンの最前線と国内事例を語る会(夜の部)","url":"https://gaiax.connpass.com/event/52240/","shortener_url":null,"started_at":"2017-03-24T19:30:00.000+09:00","ended_at":"2017-03-24T22:00:00.000+09:00","limit_number":45,"address":"東京都千代田区平河町2-5-3","place":"Nagatacho GRID 地下1Fイベントスペース","lat":35.6798,"lon":139.74,"state":"active","id":null},{"event_id":"52732","title":"ARCANA Meetup #23","url":"https://s-arcana.connpass.com/event/52732/","shortener_url":null,"started_at":"2017-03-23T19:30:00.000+09:00","ended_at":"2017-03-23T22:00:00.000+09:00","limit_number":13,"address":"東京都杉並区荻窪4-33-5 ジミーフードビル3F","place":"株式会社スタジオ・アルカナ","lat":35.7038,"lon":139.626,"state":"active","id":null},{"event_id":"52191","title":"ふくもく会その26　〜もくもくフレンズ〜","url":"https://fukumoku.connpass.com/event/52191/","shortener_url":null,"started_at":"2017-03-25T04:30:00.000+09:00","ended_at":"2017-03-25T09:30:00.000+09:00","limit_number":20,"address":"福井県坂井市丸岡町熊堂3-7-1-16(福井県産業情報センター 7F)","place":"福井県産業情報センター7階コワーキングスペース","lat":36.1099,"lon":136.274,"state":"active","id":null},{"event_id":"53273","title":"第1回 UnlimitedHandハッカソン@秋葉原","url":"https://unlimitedhand.connpass.com/event/53273/","shortener_url":null,"started_at":"2017-03-25T13:00:00.000+09:00","ended_at":"2017-03-25T17:00:00.000+09:00","limit_number":10,"address":"東京都渋谷区桜丘町29-25 渋谷パールホーム703","place":"渋谷パールホーム703","lat":35.7011,"lon":139.777,"state":"active","id":null},{"event_id":"50804","title":"開発エンジニア必見！IoT企業で求められるエンジニアスキルとは","url":"https://pasonatech.connpass.com/event/50804/","shortener_url":null,"started_at":"2017-03-23T19:00:00.000+09:00","ended_at":"2017-03-23T21:00:00.000+09:00","limit_number":55,"address":"東京都新宿区西新宿6-5-1　アイランドタワー22階　","place":"パソナテック本社　22階（総合受付）","lat":35.6931,"lon":139.693,"state":"active","id":null},{"event_id":"52574","title":"人工知能ビジネスアイデアソン・ワークショップ 3/19(日)茅場町","url":"https://teamai.connpass.com/event/52574/","shortener_url":null,"started_at":"2017-03-19T01:00:00.000+09:00","ended_at":"2017-03-19T04:00:00.000+09:00","limit_number":20,"address":"東京都中央区新川1-3-4 PAビル5F","place":"コワーキングスペース茅場町 Co-Edo（コエド）","lat":35.6786,"lon":139.782,"state":"active","id":null},{"event_id":"50635","title":"第10回 Machine Learning 15minutes!","url":"https://machine-learning15minutes.connpass.com/event/50635/","shortener_url":null,"started_at":"2017-03-18T14:00:00.000+09:00","ended_at":"2017-03-18T17:30:00.000+09:00","limit_number":130,"address":"東京都中央区晴海1−8−10  晴海アイランド トリトンスクエア X37階","place":"株式会社メンバーズ   ラウンジスペース","lat":35.6575,"lon":139.782,"state":"active","id":null},{"event_id":"51515","title":"PyCon JP hack-a-thon #9 2017.03","url":"https://pyconjp-staff.connpass.com/event/51515/","shortener_url":null,"started_at":"2017-03-18T13:00:00.000+09:00","ended_at":"2017-03-18T18:00:00.000+09:00","limit_number":null,"address":"東京都東京都渋谷区 恵比寿1-19-15 ウノサワ東急ビル3階","place":"アライドアーキテクツ","lat":35.6474,"lon":139.713,"state":"active","id":null},{"event_id":"51961","title":"PyCon JP \"Meat\" UP 2017.03 in Shibuya (ジンギスカン)","url":"https://pyconjp-staff.connpass.com/event/51961/","shortener_url":null,"started_at":"2017-03-18T18:30:00.000+09:00","ended_at":"2017-03-18T21:00:00.000+09:00","limit_number":23,"address":"東京都渋谷区渋谷３-１５","place":"ひつじもん","lat":35.6554,"lon":139.706,"state":"active","id":null},{"event_id":"53241","title":"[秋葉原] 第5回 ゆるふわIoT電子工作入門","url":"https://weeyble-iot.connpass.com/event/53241/","shortener_url":null,"started_at":"2017-03-26T13:00:00.000+09:00","ended_at":"2017-03-26T18:00:00.000+09:00","limit_number":12,"address":"東京都千代田区神田須田町２丁目１９−２３ (野村第３ビル ４階)","place":"コワーキングスペース秋葉原Weeyble","lat":35.6966,"lon":139.772,"state":"active","id":null},{"event_id":"52870","title":"eeic botthon on Microsoft Azure","url":"https://connpass.com/event/52870/","shortener_url":null,"started_at":"2017-03-14T14:00:00.000+09:00","ended_at":"2017-03-14T18:00:00.000+09:00","limit_number":null,"address":"","place":"工学部2号館10階 電気系会議室5","lat":null,"lon":null,"state":"active","id":null},{"event_id":"52747","title":"TOKYO CS JAM #10 〜システム思考でCSを10倍効率化する方法〜","url":"https://csjam.connpass.com/event/52747/","shortener_url":null,"started_at":"2017-03-16T10:15:00.000+09:00","ended_at":"2017-03-16T12:45:00.000+09:00","limit_number":45,"address":"東京都港区六本木6-10-1（六本木ヒルズ森タワー18F）","place":"株式会社メルカリ","lat":35.6604,"lon":139.729,"state":"active","id":null},{"event_id":"52664","title":"技術書典2 缶詰原稿ジャムの日","url":"https://techbookfest.connpass.com/event/52664/","shortener_url":null,"started_at":"2017-03-20T04:00:00.000+09:00","ended_at":"2017-03-20T08:00:00.000+09:00","limit_number":20,"address":"東京都文京区本郷３丁目４０−１１ 柏屋 ビル 4F","place":"コワーキングスペース studio geeks","lat":35.7067,"lon":139.764,"state":"active","id":null},{"event_id":"51087","title":"【増枠】UX JAM 15","url":"https://uxmilk.connpass.com/event/51087/","shortener_url":null,"started_at":"2017-03-01T10:30:00.000+09:00","ended_at":"2017-03-01T13:00:00.000+09:00","limit_number":200,"address":"〒158-0094 東京都世田谷区玉川一丁目14番1号(楽天クリムゾンハウス)","place":"楽天株式会社","lat":35.6104,"lon":139.63,"state":"active","id":null},{"event_id":"51601","title":"2時間でつくるIoT開発ハンズオン [WioNode] in Osaka","url":"https://sha.connpass.com/event/51601/","shortener_url":null,"started_at":"2017-03-12T04:00:00.000+09:00","ended_at":"2017-03-12T08:00:00.000+09:00","limit_number":45,"address":"大阪府大阪市 北区大深町3番1号 グランフロント大阪 ナレッジキャピタルタワー C7階","place":"大阪イノベーションハブ","lat":34.7043,"lon":135.495,"state":"active","id":null},{"event_id":"52020","title":"FuraIT #25 - 久しぶりの発表大会","url":"https://furait.connpass.com/event/52020/","shortener_url":null,"started_at":"2017-03-18T13:30:00.000+09:00","ended_at":"2017-03-18T18:00:00.000+09:00","limit_number":20,"address":"北海道空知郡中富良野町南町10番11号","place":"中富良野町農村環境改善センター 視聴覚室","lat":43.4052,"lon":142.425,"state":"active","id":null},{"event_id":"52872","title":"シン・ショッカソン（第１回）","url":"https://sin-tai-sei.connpass.com/event/52872/","shortener_url":null,"started_at":"2017-03-23T10:00:00.000+09:00","ended_at":"2017-03-23T12:30:00.000+09:00","limit_number":26,"address":"〒150-0002 東京都渋谷区渋谷2丁目12−19 東建インターナショナルビル 別館4F","place":"株式会社フォーク 別館 tables","lat":35.6587,"lon":139.707,"state":"active","id":null},{"event_id":"49447","title":"はじめてのハッカソンVol.22","url":"https://hackathon.connpass.com/event/49447/","shortener_url":null,"started_at":"2017-03-11T01:00:00.000+09:00","ended_at":"2017-03-11T12:00:00.000+09:00","limit_number":30,"address":"神奈川県横浜市 西区みなとみらい3−6−1 みなとみらいセンタービル11F","place":"株式会社アットウェア","lat":35.4576,"lon":139.633,"state":"active","id":null},{"event_id":"52611","title":"【無料】【過去参加者歓迎!】初心者歓迎!スイーツを食べてプログラミングを学ぼう","url":"https://morei.connpass.com/event/52611/","shortener_url":null,"started_at":"2017-03-16T10:00:00.000+09:00","ended_at":"2017-03-16T12:15:00.000+09:00","limit_number":10,"address":"〒169-8333　東京都新宿区北新宿2-21-1　新宿フロントタワー  18F","place":"富士通クラウドテクノロジーズ","lat":35.696,"lon":139.689,"state":"active","id":null},{"event_id":"51930","title":"数学と人工知能。たったこれだけ、人工知能ビジネスの試作品を作る為に最低限必要な数学の分野とは","url":"https://study-ai.connpass.com/event/51930/","shortener_url":null,"started_at":"2017-03-11T13:30:00.000+09:00","ended_at":"2017-03-11T15:30:00.000+09:00","limit_number":15,"address":"東京都港区芝公園4-4-7","place":"スターライズタワー 3F Studio Venus(東京タワーメディアセンター内)","lat":35.6577,"lon":139.745,"state":"active","id":null},{"event_id":"52778","title":"人工知能入門講座　4月開講［最終］説明会","url":"https://study-ai.connpass.com/event/52778/","shortener_url":null,"started_at":"2017-03-18T11:00:00.000+09:00","ended_at":"2017-03-18T12:30:00.000+09:00","limit_number":10,"address":"東京都港区西麻布１-１３-１４ ","place":"ジャズBAR　＜エンディ＞（グランドピアノ付きのカフェ＆バーを貸しきって実施）","lat":35.6606,"lon":139.723,"state":"active","id":null},{"event_id":"52777","title":"人工知能入門講座　4月！新！開講説明会","url":"https://study-ai.connpass.com/event/52777/","shortener_url":null,"started_at":"2017-03-11T11:00:00.000+09:00","ended_at":"2017-03-11T12:30:00.000+09:00","limit_number":10,"address":"東京都港区芝公園4丁目4−7 東京タワースタジオ","place":"スターライズタワー 3F Studio Venus(東京タワーメディアセンター内)","lat":35.6577,"lon":139.745,"state":"active","id":null},{"event_id":"52118","title":"豊橋でVRハッカソン","url":"https://connpass.com/event/52118/","shortener_url":null,"started_at":"2017-03-19T10:00:00.000+09:00","ended_at":"2017-03-19T19:00:00.000+09:00","limit_number":12,"address":"豊橋市広小路一丁目18(ウェルプラザユメックス5階)","place":"トライアルビレッジ","lat":34.7645,"lon":137.385,"state":"active","id":null},{"event_id":"52657","title":"[秋葉原] ゆるふわIoT電子工作\u0026クラウドサーバ(AWS/GCP)構築入門","url":"https://weeyble-iot.connpass.com/event/52657/","shortener_url":null,"started_at":"2017-03-12T13:00:00.000+09:00","ended_at":"2017-03-12T18:00:00.000+09:00","limit_number":12,"address":"東京都千代田区神田須田町２丁目１９−２３ (野村第３ビル ４階)","place":"コワーキングスペース秋葉原Weeyble","lat":35.6966,"lon":139.772,"state":"active","id":null},{"event_id":"52421","title":"モノ -thinking school-「アイデアに、命をふきこもう。」","url":"https://connpass.com/event/52421/","shortener_url":null,"started_at":"2017-03-15T01:00:00.000+09:00","ended_at":"2017-03-15T09:00:00.000+09:00","limit_number":35,"address":"京都市下京区立売東町１ 京都フコク生命四条柳馬場ビル","place":"サポーターズ京都オフィス","lat":35.004,"lon":135.764,"state":"active","id":null},{"event_id":"51931","title":"４月開講　人工知能【入門】定期勉強会　説明会開催決定！","url":"https://study-ai.connpass.com/event/51931/","shortener_url":null,"started_at":"2017-03-04T11:00:00.000+09:00","ended_at":"2017-03-04T14:00:00.000+09:00","limit_number":5,"address":"東京都港区西麻布１-１３-１４ ","place":"ジャズBAR　＜エンディ＞（グランドピアノ付きのカフェ＆バーを貸しきって実施）","lat":35.6606,"lon":139.723,"state":"active","id":null},{"event_id":"47887","title":"クソサイト開発バトル #2 #kusoDevBattle","url":"https://kusodevbattle.connpass.com/event/47887/","shortener_url":null,"started_at":"2017-03-04T13:00:00.000+09:00","ended_at":"2017-03-04T19:00:00.000+09:00","limit_number":30,"address":"東京都目黒区下目黒1丁目8-1　アルコタワー17F","place":"株式会社ドリコム カフェスペース","lat":35.6315,"lon":139.714,"state":"active","id":null},{"event_id":"51644","title":"Open Data Day 2017 in GEEKLAB.NAGANO feat.NSEG","url":"https://glnagano.connpass.com/event/51644/","shortener_url":null,"started_at":"2017-03-04T13:00:00.000+09:00","ended_at":"2017-03-04T17:00:00.000+09:00","limit_number":40,"address":"長野県長野市南県町県都ビル６F","place":"ギークラボ長野","lat":36.6492,"lon":138.182,"state":"active","id":null},{"event_id":"51539","title":"【パッカソン】提供APIハンズオンセミナー（3/3）","url":"https://connpass.com/event/51539/","shortener_url":null,"started_at":"2017-03-03T19:00:00.000+09:00","ended_at":"2017-03-03T22:00:00.000+09:00","limit_number":20,"address":"大阪市中央区南本町2-1-1 1F","place":"The DECK","lat":34.683,"lon":135.506,"state":"active","id":null},{"event_id":"51765","title":"オープンデータデイ in 東京 2017","url":"https://codefortokyo.connpass.com/event/51765/","shortener_url":null,"started_at":"2017-03-04T01:00:00.000+09:00","ended_at":"2017-03-05T09:00:00.000+09:00","limit_number":50,"address":"東京都港区六本木6-15-21　ハークス六本木ビル2階","place":"国際大学グローバル・コミュニケーション・センター（GLOCOM ）","lat":35.6588,"lon":139.728,"state":"active","id":null},{"event_id":"51978","title":"3/19（日）10:00～　名古屋でVRハッカソン","url":"https://nagogebu.connpass.com/event/51978/","shortener_url":null,"started_at":"2017-03-19T10:00:00.000+09:00","ended_at":"2017-03-19T19:30:00.000+09:00","limit_number":12,"address":"愛知県 名古屋市 愛知県名古屋市中村区名駅四丁目15番地15号 名古屋綜合市場ビル","place":"フィーバー柳橋","lat":35.1697,"lon":136.888,"state":"active","id":null},{"event_id":"52076","title":"確定申告ギリギリナイト DAY2 in 神楽坂","url":"https://crossstadio.connpass.com/event/52076/","shortener_url":null,"started_at":"2017-03-11T14:00:00.000+09:00","ended_at":"2017-03-11T19:00:00.000+09:00","limit_number":10,"address":"新宿区矢来町16","place":"神楽坂クロススタジオ","lat":35.702,"lon":139.731,"state":"active","id":null},{"event_id":"51222","title":"確定申告ギリギリナイト DAY1 in 神楽坂","url":"https://crossstadio.connpass.com/event/51222/","shortener_url":null,"started_at":"2017-03-05T14:00:00.000+09:00","ended_at":"2017-03-05T19:00:00.000+09:00","limit_number":10,"address":"新宿区矢来町16","place":"神楽坂クロススタジオ","lat":35.702,"lon":139.731,"state":"active","id":null},{"event_id":"49553","title":"CA.swift #2","url":"https://cyberagent.connpass.com/event/49553/","shortener_url":null,"started_at":"2017-03-01T19:30:00.000+09:00","ended_at":"2017-03-01T21:50:00.000+09:00","limit_number":80,"address":"東京都渋谷区円山町19番1号 (渋谷プライムプラザ4F)","place":"株式会社サイバーエージェント クリエイティブラウンジ","lat":35.6565,"lon":139.695,"state":"active","id":null},{"event_id":"51533","title":"Sota講習会 【Vstone Magicを始めよう】 Part 3","url":"https://sota.connpass.com/event/51533/","shortener_url":null,"started_at":"2017-03-17T19:00:00.000+09:00","ended_at":"2017-03-17T19:50:00.000+09:00","limit_number":4,"address":"東京都千代田区外神田1-9-9 内田ビル4F","place":"ヴイストン ロボットセンター秋葉原店","lat":35.6987,"lon":139.77,"state":"active","id":null},{"event_id":"48422","title":"Web × IoT メイカーズハッカソン 【チームでの申込】","url":"https://connpass.com/event/48422/","shortener_url":null,"started_at":"2017-03-18T10:00:00.000+09:00","ended_at":"2017-03-19T19:00:00.000+09:00","limit_number":10,"address":"東京都目黒区目黒 2-11-3 (印刷工場跡地)","place":"Impact HUB Tokyo","lat":35.6339,"lon":139.708,"state":"active","id":null},{"event_id":"51018","title":"智恵の和勉強会","url":"https://connpass.com/event/51018/","shortener_url":null,"started_at":"2017-03-04T04:00:00.000+09:00","ended_at":"2017-03-04T08:00:00.000+09:00","limit_number":null,"address":"東京都港区港南 2-16-3 品川グランドセントラルタワー","place":"マイクロソフト品川本社","lat":35.6267,"lon":139.74,"state":"active","id":null},{"event_id":"86925","title":"無線シグナルの抑止装置","url":"https://atnd.org/events/86925","shortener_url":null,"started_at":"2017-03-27T09:30:00.000+09:00","ended_at":"2017-04-13T12:00:00.000+09:00","limit_number":null,"address":"","place":"","lat":null,"lon":null,"state":"closed","id":null},{"event_id":"86860","title":"第269回オフライン開発ミーティング","url":"https://atnd.org/events/86860","shortener_url":null,"started_at":"2017-03-26T01:00:00.000+09:00","ended_at":"2017-03-26T03:00:00.000+09:00","limit_number":null,"address":"東京都品川区大崎1-11-1","place":"ゲートシティ大崎B1アトリウムフリー座席","lat":35.6194,"lon":139.731,"state":"closed","id":null},{"event_id":"86819","title":"第12回よちよちAndroid名古屋支部オフライン開発ミーティング","url":"https://atnd.org/events/86819","shortener_url":null,"started_at":"2017-03-26T01:00:00.000+09:00","ended_at":"2017-03-26T03:00:00.000+09:00","limit_number":null,"address":"愛知県名古屋市中村区名駅3丁目18-5 モンマートビル5階","place":"ベースキャンプ名古屋","lat":35.1728,"lon":136.887,"state":"closed","id":null},{"event_id":"86587","title":"第11回よちよちAndroid名古屋支部オフライン開発ミーティング","url":"https://atnd.org/events/86587","shortener_url":null,"started_at":"2017-03-19T01:00:00.000+09:00","ended_at":"2017-03-19T03:00:00.000+09:00","limit_number":null,"address":"愛知県名古屋市中村区名駅3丁目18-5 モンマートビル5階","place":"ベースキャンプ名古屋","lat":35.1728,"lon":136.887,"state":"closed","id":null},{"event_id":"86474","title":"人工知能入門講座　4月開講説明会（最終）","url":"https://atnd.org/events/86474","shortener_url":null,"started_at":"2017-03-18T11:00:00.000+09:00","ended_at":"2017-03-18T12:30:00.000+09:00","limit_number":10,"address":"東京都港区西麻布2丁目13−5 ファミール西麻布ベルファース","place":"ジャズBAR　＜エンディ＞（グランドピアノ付きのカフェ＆バーを貸しきって実施）","lat":35.6606,"lon":139.723,"state":"closed","id":null},{"event_id":"86305","title":"クーリエ・ジャポン・ハッカソン Powered by 転職ドラフト","url":"https://atnd.org/events/86305","shortener_url":null,"started_at":"2017-03-18T01:30:00.000+09:00","ended_at":"2017-03-19T10:00:00.000+09:00","limit_number":30,"address":"東京都文京区音羽2-12-21","place":"講談社","lat":35.7188,"lon":139.727,"state":"closed","id":null},{"event_id":"86477","title":"第10回よちよちAndroid名古屋支部オフライン開発ミーティング","url":"https://atnd.org/events/86477","shortener_url":null,"started_at":"2017-03-12T01:00:00.000+09:00","ended_at":"2017-03-12T03:00:00.000+09:00","limit_number":null,"address":"愛知県名古屋市中村区名駅3丁目18-5 モンマートビル5階","place":"ベースキャンプ名古屋","lat":35.1728,"lon":136.887,"state":"closed","id":null},{"event_id":"86469","title":"第268回オフライン開発ミーティング","url":"https://atnd.org/events/86469","shortener_url":null,"started_at":"2017-03-12T01:00:00.000+09:00","ended_at":"2017-03-12T03:00:00.000+09:00","limit_number":null,"address":"東京都品川区大崎1-11-1","place":"ゲートシティ大崎B1アトリウムフリー座席","lat":35.6194,"lon":139.731,"state":"closed","id":null},{"event_id":"86142","title":"数学と人工知能。たったこれだけ、人工知能ビジネスの試作品を作る為に最低限必要な数学の分野とは","url":"https://atnd.org/events/86142","shortener_url":null,"started_at":"2017-03-11T13:30:00.000+09:00","ended_at":"2017-03-11T15:30:00.000+09:00","limit_number":5,"address":"東京都港区芝公園4丁目4−7 東京タワースタジオ","place":"STARRIISE-TOWER  3F Studio Venus (東京タワーメディアセンター内)","lat":35.6577,"lon":139.745,"state":"closed","id":null},{"event_id":"85540","title":"落合陽一さん、澤円さん、ちょまどさん登壇決定！CodeIQ感謝祭～聞いて触って感じるデジタルアートな1日！～ #codeiq39","url":"https://atnd.org/events/85540","shortener_url":null,"started_at":"2017-03-11T04:00:00.000+09:00","ended_at":"2017-03-11T09:30:00.000+09:00","limit_number":400,"address":"東京都千代田区丸の内1-9-2","place":"グラントウキョウサウスタワー　41F","lat":35.6786,"lon":139.767,"state":"closed","id":null},{"event_id":"86475","title":"人工知能入門講座　4月開講説明会","url":"https://atnd.org/events/86475","shortener_url":null,"started_at":"2017-03-11T11:00:00.000+09:00","ended_at":"2017-03-11T12:30:00.000+09:00","limit_number":10,"address":"東京都港区芝公園4丁目4−7 東京タワースタジオ","place":"STARRIISE-TOWER 　3F Studio Venus　(東京タワーメディアセンター内)  ","lat":35.6577,"lon":139.745,"state":"closed","id":null},{"event_id":"85835","title":"アニメ関連企業合同就職説明会「アニ・ジョブ京都2017」","url":"https://atnd.org/events/85835","shortener_url":null,"started_at":"2017-03-11T02:00:00.000+09:00","ended_at":"2017-03-11T08:00:00.000+09:00","limit_number":100,"address":"京都府京都市南区西九条寺ノ前町10-5","place":"京都コンピュータ学院 京都駅前校 4階","lat":34.985,"lon":135.753,"state":"closed","id":null},{"event_id":"85610","title":"ゲーム関連企業合同就職説明会｜JobJamKyoto2017.3.11","url":"https://atnd.org/events/85610","shortener_url":null,"started_at":"2017-03-11T02:00:00.000+09:00","ended_at":"2017-03-11T08:00:00.000+09:00","limit_number":222,"address":"京都府京都市南区西九条寺ノ前町10-5","place":"京都コンピュータ学院 京都駅前校 4階","lat":34.985,"lon":135.753,"state":"closed","id":null},{"event_id":"86222","title":"第9回よちよちAndroid名古屋支部オフライン開発ミーティング","url":"https://atnd.org/events/86222","shortener_url":null,"started_at":"2017-03-05T01:00:00.000+09:00","ended_at":"2017-03-05T03:00:00.000+09:00","limit_number":null,"address":"愛知県名古屋市中村区名駅3丁目18-5 モンマートビル5階","place":"ベースキャンプ名古屋","lat":35.1728,"lon":136.887,"state":"closed","id":null},{"event_id":"85442","title":"NTTデータ×START ME UP AWARDS　AIアイデアソン　～オト・モノ・コトでAIが繋ぐ未来～","url":"https://atnd.org/events/85442","shortener_url":null,"started_at":"2017-03-05T01:00:00.000+09:00","ended_at":"2017-03-07T23:59:59.000+09:00","limit_number":40,"address":"東京都江東区豊洲3-3-3","place":"INFORIUM豊洲イノベーションセンター","lat":35.656,"lon":139.796,"state":"closed","id":null},{"event_id":"50799","title":"Go初心者大歓迎！もくもく×LT大会！！","url":"https://go-beginners.connpass.com/event/50799/","shortener_url":null,"started_at":"2017-03-05T04:00:00.000+09:00","ended_at":"2017-03-05T09:30:00.000+09:00","limit_number":38,"address":"東京都渋谷区渋谷2-21-1 渋谷ヒカリエ17F","place":"レバレジーズ株式会社","lat":35.659,"lon":139.703,"state":"active","id":null},{"event_id":"52252","title":"PyCon JP 2017 全体MTG #4","url":"https://pyconjp-staff.connpass.com/event/52252/","shortener_url":null,"started_at":"2017-03-09T10:30:00.000+09:00","ended_at":"2017-03-09T12:30:00.000+09:00","limit_number":null,"address":"東京都渋谷区千駄ヶ谷5-32-7 ","place":"ビープラウド会議室(野村不動産南新宿ビル4F)","lat":35.6864,"lon":139.704,"state":"active","id":null},{"event_id":"48369","title":"もくもく温泉　開発合宿 #8","url":"https://mokumoku-onsen.connpass.com/event/48369/","shortener_url":null,"started_at":"2017-03-18T06:00:00.000+09:00","ended_at":"2017-03-20T09:30:00.000+09:00","limit_number":26,"address":"静岡県伊東市東松原町4番7号","place":"山喜旅館","lat":34.9725,"lon":139.098,"state":"active","id":null},{"event_id":"85691","title":"立命館大学競技プログラミング合宿2017","url":"https://atnd.org/events/85691","shortener_url":null,"started_at":"2017-03-22T03:30:00.000+09:00","ended_at":"2017-03-24T05:00:00.000+09:00","limit_number":60,"address":"滋賀県草津市野路東1-1-1","place":"クリエーションコアCC601、またはクリエーションコアCC101","lat":34.9822,"lon":135.965,"state":"closed","id":null}]