[{"event_id":"67997","title":"大阪港開港150年記念イベント「フェリーハッカソン」","url":"https://code4osaka.connpass.com/event/67997/","shortener_url":"https://goo.gl/iV3vxd","started_at":"2017-12-01T09:30:00.000+09:00","ended_at":"2017-12-03T05:00:00.000+09:00","limit_number":54,"address":"大阪市住之江区南港北2-1-10 (ATCビルITM棟 10階)","place":"大阪デザイン振興プラザ","lat":34.6373,"lon":135.413,"state":"active","id":null},{"event_id":"67440","title":"【開催中止】【内閣府主催】RESASハッカソン2017 in 沖縄","url":"https://connpass.com/event/67440/","shortener_url":"https://goo.gl/mfB3DN","started_at":"2017-12-02T00:30:00.000+09:00","ended_at":"2017-12-03T09:30:00.000+09:00","limit_number":35,"address":"沖縄県宜野湾市宇地泊558-18　","place":"Gwave 宜野湾ベイサイド情報センター","lat":26.274,"lon":127.729,"state":"active","id":null},{"event_id":"67441","title":"【内閣府主催】RESASハッカソン2017 in 京都 ～Web・IoTで創る京都のミライ～","url":"https://connpass.com/event/67441/","shortener_url":"https://goo.gl/i4ts2H","started_at":"2017-12-09T00:30:00.000+09:00","ended_at":"2017-12-10T09:30:00.000+09:00","limit_number":55,"address":"〒600-8234 京都府京都市下京区南不動堂町","place":"オムロン京都センタービル啓真館","lat":34.9865,"lon":135.754,"state":"active","id":null},{"event_id":"65171","title":"スタートアップウィークエンド真鶴 12/8-10 @里海ベース","url":"https://swmanazuru.doorkeeper.jp/events/65171","shortener_url":null,"started_at":"2017-12-08T18:50:00.000+09:00","ended_at":"2017-12-10T21:00:00.000+09:00","limit_number":20,"address":"神奈川県足柄下郡真鶴町真鶴894-1","place":"真鶴産業活性化センター（里海ベース）","lat":35.1536,"lon":139.141,"state":"active","id":null},{"event_id":"68249","title":"【学生限定】忘年会LTパーティ OthloEvent#23","url":"https://othlotech.connpass.com/event/68249/","shortener_url":null,"started_at":"2017-12-10T17:00:00.000+09:00","ended_at":"2017-12-10T20:30:00.000+09:00","limit_number":37,"address":" 愛知県名古屋市中区栄3-7-22 栄９２８ビル 4F","place":"LIB SPACE","lat":35.167,"lon":136.906,"state":"active","id":null},{"event_id":"70388","title":"智恵の和勉強会","url":"https://connpass.com/event/70388/","shortener_url":null,"started_at":"2017-12-02T04:00:00.000+09:00","ended_at":"2017-12-02T08:00:00.000+09:00","limit_number":null,"address":"東京都港区港南 2-16-3 品川グランドセントラルタワー","place":"マイクロソフト品川本社","lat":35.6267,"lon":139.74,"state":"active","id":null},{"event_id":"70398","title":"競技プログラミングの世界へようこそ!","url":"https://ladiespp.connpass.com/event/70398/","shortener_url":null,"started_at":"2017-12-03T11:00:00.000+09:00","ended_at":"2017-12-03T17:00:00.000+09:00","limit_number":40,"address":"〒106-6126 Tokyo, Minato, Roppongi, 6 Chome−10−1, 六本木ヒルズ森タワー","place":"Google Japan ","lat":35.6605,"lon":139.729,"state":"active","id":null},{"event_id":"66079","title":"第5回 Startup Weekend つくば","url":"https://swtsukuba.doorkeeper.jp/events/66079","shortener_url":null,"started_at":"2017-12-01T18:30:00.000+09:00","ended_at":"2017-12-03T21:00:00.000+09:00","limit_number":55,"address":"茨城県つくば市天王台1-1-1　総合研究棟B 1F 0112 (メイン会場) および 3A301","place":"筑波大学総合研究棟B 1F 0112 および 3A301","lat":36.1089,"lon":140.1,"state":"active","id":null},{"event_id":"70163","title":"【Mashup Awards x IoTLT】 MA IoT部門賞決勝プレゼン大会！","url":"https://iotlt.connpass.com/event/70163/","shortener_url":null,"started_at":"2017-12-09T13:00:00.000+09:00","ended_at":"2017-12-09T17:30:00.000+09:00","limit_number":98,"address":"東京都渋谷区渋谷2-12-4 (ネクストサイト渋谷10F)","place":"リレーションズ","lat":35.6598,"lon":139.702,"state":"active","id":null},{"event_id":"92130","title":"Ubuntu 17.10リリース記念 ＆ Ubuntu Weekly Recipe 500回記念オフラインミーティング17.12","url":"https://atnd.org/events/92130","shortener_url":null,"started_at":"2017-12-03T03:30:00.000+09:00","ended_at":"2017-12-03T08:00:00.000+09:00","limit_number":150,"address":"東京都港区六本木6-10-1 六本木ヒルズ森タワー","place":"グリー株式会社","lat":35.6605,"lon":139.729,"state":"closed","id":null},{"event_id":"71036","title":"【事前説明会vol.05】福岡ロボットアイデアソン-ぼくらの未来創世物語-episode.00","url":"https://bgene.connpass.com/event/71036/","shortener_url":"https://goo.gl/9kAnVR","started_at":"2017-12-16T04:00:00.000+09:00","ended_at":"2017-12-16T07:00:00.000+09:00","limit_number":25,"address":"福岡市中央区渡辺通2-7-14（パグーロ薬院７F）","place":"トラスペース００","lat":33.5828,"lon":130.402,"state":"active","id":null},{"event_id":"71035","title":"【事前説明会vol.04】福岡ロボットアイデアソン-ぼくらの未来創世物語-episode.00","url":"https://bgene.connpass.com/event/71035/","shortener_url":"https://goo.gl/zoR9Ad","started_at":"2017-12-09T04:00:00.000+09:00","ended_at":"2017-12-09T07:00:00.000+09:00","limit_number":25,"address":"北九州市小倉北区魚町3-3-20（中屋ビル　地下１階）","place":"まなびとESDステーション","lat":33.8826,"lon":130.88,"state":"active","id":null},{"event_id":"71034","title":"【事前説明会vol.03】福岡ロボットアイデアソン-ぼくらの未来創世物語-episode.00","url":"https://bgene.connpass.com/event/71034/","shortener_url":"https://goo.gl/RXmgLA","started_at":"2017-12-02T04:00:00.000+09:00","ended_at":"2017-12-02T07:00:00.000+09:00","limit_number":25,"address":"福岡市中央区渡辺通2-7-14（パグーロ薬院７F）","place":"トラスペース００","lat":33.5828,"lon":130.402,"state":"active","id":null},{"event_id":"70762","title":"【Kitchen×Tech】キッチンハッカソン2017","url":"https://oi-study.connpass.com/event/70762/","shortener_url":"https://goo.gl/QNNWy2","started_at":"2017-12-09T01:00:00.000+09:00","ended_at":"2017-12-10T12:00:00.000+09:00","limit_number":45,"address":"東京都品川区大崎一丁目11番2号 ゲートシティ大崎イーストタワー5F","place":"オイシックス・ラ・大地株式会社","lat":35.6188,"lon":139.732,"state":"active","id":null},{"event_id":"71250","title":"RESASハッカソン in 京都　懇親会","url":"https://connpass.com/event/71250/","shortener_url":"https://goo.gl/ea9yiD","started_at":"2017-12-09T18:00:00.000+09:00","ended_at":"2017-12-09T20:00:00.000+09:00","limit_number":30,"address":"〒600-8234 京都府京都市下京区南不動堂町","place":"オムロン京都センタービル啓真館","lat":34.9865,"lon":135.754,"state":"active","id":null},{"event_id":"70792","title":"第１０回名工大ハッカソン in ワンダープラネット","url":"https://connpass.com/event/70792/","shortener_url":"https://goo.gl/D3KhuN","started_at":"2017-12-03T09:30:00.000+09:00","ended_at":"2017-12-03T20:00:00.000+09:00","limit_number":60,"address":"愛知県名古屋市中区錦3-23-31(栄町ビル11F)","place":"愛知県名古屋市中区錦3-23-31","lat":35.1691,"lon":136.905,"state":"active","id":null},{"event_id":"92485","title":"【親子参加】ソビーゴで体験するロボットプログラミング","url":"https://atnd.org/events/92485","shortener_url":null,"started_at":"2017-12-09T01:30:00.000+09:00","ended_at":"2017-12-09T05:30:00.000+09:00","limit_number":12,"address":"東京都港区新橋一丁目12番9号","place":"新橋 ツクモデジタル.ライフ館　6F　イベントスーペース","lat":35.6676,"lon":139.759,"state":"closed","id":null},{"event_id":"66949","title":"IBM Cloud (Bluemix) 冬の大勉強会","url":"https://bmxug.connpass.com/event/66949/","shortener_url":null,"started_at":"2017-12-03T12:30:00.000+09:00","ended_at":"2017-12-03T21:00:00.000+09:00","limit_number":null,"address":"東京都千代田区平河町2-5-3","place":"永田町GRID","lat":35.6798,"lon":139.74,"state":"active","id":null},{"event_id":"71473","title":"Mercari AR Hackathon #0","url":"https://vrtokyo.connpass.com/event/71473/","shortener_url":"https://goo.gl/ZdNqN4","started_at":"2017-12-16T23:00:00.000+09:00","ended_at":"2017-12-17T13:00:00.000+09:00","limit_number":50,"address":"東京都港区六本木6-10-1(六本木ヒルズ森タワー18F)","place":"株式会社メルカリ 18F","lat":35.6604,"lon":139.729,"state":"active","id":null},{"event_id":"71744","title":"12月7日 VR/AR入門セミナー＠未来会議室","url":"https://kis-seminar.connpass.com/event/71744/","shortener_url":null,"started_at":"2017-12-07T13:00:00.000+09:00","ended_at":"2017-12-07T18:00:00.000+09:00","limit_number":45,"address":"熊本県熊本市中央区 下通1丁目12−27CORE21下通ビル5F","place":"未来会議室","lat":32.8001,"lon":130.708,"state":"active","id":null},{"event_id":"71713","title":"スクラム道関西★大忘年会2017","url":"https://scrumdo-kansai.connpass.com/event/71713/","shortener_url":null,"started_at":"2017-12-05T10:30:00.000+09:00","ended_at":"2017-12-05T12:30:00.000+09:00","limit_number":25,"address":"大阪府大阪市北区曽根崎２－１０－１８","place":"居酒屋 本陣","lat":34.7008,"lon":135.501,"state":"active","id":null},{"event_id":"71874","title":"＜19卒歓迎＞1Dayインターンシップ開催！","url":"https://avinton.connpass.com/event/71874/","shortener_url":null,"started_at":"2017-12-23T13:00:00.000+09:00","ended_at":"2017-12-23T17:00:00.000+09:00","limit_number":null,"address":"神奈川県横浜市神奈川区栄町2-5 ","place":"Avinton 横浜オフィス","lat":35.4696,"lon":139.627,"state":"active","id":null},{"event_id":"70592","title":"アイマスハッカソン2017","url":"https://imas.connpass.com/event/70592/","shortener_url":"https://goo.gl/KWTzfA","started_at":"2017-12-16T01:00:00.000+09:00","ended_at":"2017-12-16T11:00:00.000+09:00","limit_number":null,"address":"東京都渋谷区恵比寿 4-20-3 (恵比寿ガーデンプレイスタワー6階)","place":"クラウドワークス","lat":35.6424,"lon":139.713,"state":"active","id":null},{"event_id":"72178","title":"AkkaにPull Requestをあげようハッカソン","url":"https://jsa.connpass.com/event/72178/","shortener_url":"https://goo.gl/fRiN4y","started_at":"2017-12-02T18:00:00.000+09:00","ended_at":"2017-12-02T22:00:00.000+09:00","limit_number":3,"address":"〒160-6127　東京都新宿区西新宿8-17-1住友不動産新宿グランドタワー27F(※受付28F)","place":"株式会社セプテーニ・オリジナル 30F(入館手続きが必要なので30Fで待機してください)","lat":35.6958,"lon":139.69,"state":"active","id":null},{"event_id":"72283","title":"第3回 福岡×人工知能×「プログラミング入門」","url":"https://techjin.connpass.com/event/72283/","shortener_url":null,"started_at":"2017-12-01T19:00:00.000+09:00","ended_at":"2017-12-01T21:00:00.000+09:00","limit_number":22,"address":"福岡県福岡市中央区天神3-4-3 (大隈ビル8F)","place":"TechJIN 8Fスペース","lat":33.592,"lon":130.396,"state":"active","id":null},{"event_id":"70700","title":"#11 Creators Learning English Meetup","url":"https://clem.connpass.com/event/70700/","shortener_url":null,"started_at":"2017-12-04T19:00:00.000+09:00","ended_at":"2017-12-04T22:00:00.000+09:00","limit_number":56,"address":"東京都品川区上大崎2-13-30 (oak meguro 8階)","place":"アカツキ","lat":35.6533,"lon":139.741,"state":"active","id":null},{"event_id":"72275","title":"DCI Tokyo Review in Osaka","url":"https://dcitokyo.connpass.com/event/72275/","shortener_url":null,"started_at":"2017-12-09T15:30:00.000+09:00","ended_at":"2017-12-09T18:00:00.000+09:00","limit_number":15,"address":"大阪市中央区瓦町3-4-9 (ステーツ本町ビル8F)","place":"本町オープンソースラボ（株式会社ソウ）","lat":34.6864,"lon":135.502,"state":"active","id":null},{"event_id":"72395","title":"PPUG PayPal User Group 名古屋 キックオフ","url":"https://ppug.connpass.com/event/72395/","shortener_url":null,"started_at":"2017-12-02T18:00:00.000+09:00","ended_at":"2017-12-02T20:00:00.000+09:00","limit_number":15,"address":"愛知県名古屋市中区金山１丁目１５−１４ トーカンマンション金山 1F","place":"串たつ　金山店","lat":35.1442,"lon":136.9,"state":"active","id":null},{"event_id":"72546","title":"名古ゲ部ゲームジャム後編　12月16日（土）～12月17日（日）","url":"https://nagogebu.connpass.com/event/72546/","shortener_url":"https://goo.gl/f43XZz","started_at":"2017-12-16T01:00:00.000+09:00","ended_at":"2017-12-17T09:00:00.000+09:00","limit_number":15,"address":"愛知県名古屋市中区丸の内３丁目５－３４（セントラルコーポ５０３号室）","place":"名古屋ゲーム制作部(セントラルコーポ 503号室)","lat":35.1773,"lon":136.906,"state":"active","id":null},{"event_id":"72650","title":"scala-js-ts-importerハッカソン","url":"https://scala-tokai.connpass.com/event/72650/","shortener_url":"https://goo.gl/UEQUBh","started_at":"2017-12-03T10:00:00.000+09:00","ended_at":"2017-12-03T18:00:00.000+09:00","limit_number":null,"address":"名古屋市中区新栄1丁目29-23 (アーバンドエル新栄2階)","place":"来栖川電算","lat":35.164,"lon":136.916,"state":"active","id":null},{"event_id":"72785","title":"ブロックチェーンハッ­カソン by Team AI 12/4（月）","url":"https://teamai.connpass.com/event/72785/","shortener_url":"https://goo.gl/MwBFsE","started_at":"2017-12-04T19:00:00.000+09:00","ended_at":"2017-12-04T21:00:00.000+09:00","limit_number":10,"address":"","place":"Online","lat":35.6618,"lon":139.696,"state":"active","id":null},{"event_id":"72766","title":"GeoDev Meetup #12 - GIS LT 大会","url":"https://geodev.connpass.com/event/72766/","shortener_url":null,"started_at":"2017-12-07T19:00:00.000+09:00","ended_at":"2017-12-07T21:00:00.000+09:00","limit_number":22,"address":"東京都千代田区平河町2-7-1（塩崎ビル）","place":"ESRIジャパン（株）5Fセミナールーム","lat":35.6792,"lon":139.741,"state":"active","id":null},{"event_id":"72869","title":"はじめての JavaScript 1DAY 講習会 for Web×IoTメイカーズチャレンジ","url":"https://webiotmakers.connpass.com/event/72869/","shortener_url":null,"started_at":"2017-12-17T10:00:00.000+09:00","ended_at":"2017-12-17T17:00:00.000+09:00","limit_number":11,"address":"群馬県前橋市小屋原町1154-4","place":"共愛学園前橋国際大学","lat":36.3592,"lon":139.144,"state":"active","id":null},{"event_id":"72992","title":"TouchDesigner User Meeting [Touch in Kansai] Vol.3","url":"https://sha.connpass.com/event/72992/","shortener_url":null,"started_at":"2017-12-06T10:00:00.000+09:00","ended_at":"2017-12-06T12:00:00.000+09:00","limit_number":18,"address":"大阪府大阪市北区大深町3−1 グランフロント大阪北館7F","place":"ナレッジサロン","lat":34.7053,"lon":135.495,"state":"active","id":null},{"event_id":"72968","title":"じっくり体験できる！柏の葉IoTハッカソン：12/09 LoRaWANハンズオン＆技術相談","url":"https://kashiwanoha.connpass.com/event/72968/","shortener_url":"https://goo.gl/o6uvH3","started_at":"2017-12-09T04:00:00.000+09:00","ended_at":"2017-12-09T10:00:00.000+09:00","limit_number":30,"address":"千葉県柏市若柴178番地4　柏の葉キャンパス148街区2　ショップ＆オフィス棟6階","place":"31VENTURES KOIL","lat":35.8951,"lon":139.952,"state":"active","id":null},{"event_id":"72969","title":"交流会あり！柏の葉IoTハッカソン：12/16 LoRaWANハンズオン＆技術相談","url":"https://kashiwanoha.connpass.com/event/72969/","shortener_url":"https://goo.gl/gpiZv3","started_at":"2017-12-16T04:00:00.000+09:00","ended_at":"2017-12-16T10:00:00.000+09:00","limit_number":30,"address":"千葉県柏市若柴178番地4　柏の葉キャンパス148街区2　ショップ＆オフィス棟6階","place":"31VENTURES KOIL","lat":35.8951,"lon":139.952,"state":"active","id":null},{"event_id":"72967","title":"【増枠】UX JAM 22","url":"https://uxmilk.connpass.com/event/72967/","shortener_url":"https://goo.gl/MJvGhh","started_at":"2017-12-06T10:30:00.000+09:00","ended_at":"2017-12-06T13:00:00.000+09:00","limit_number":150,"address":"東京都中央区日本橋2-7-1 (東京日本橋タワー 27階)","place":"サイボウズ株式会社","lat":35.682,"lon":139.774,"state":"active","id":null},{"event_id":"72894","title":"【日本初上陸！Fromシリコンバレー】Fetch Robotics アイデアソン【初心者大歓迎】","url":"https://kansai-robo-dev.connpass.com/event/72894/","shortener_url":"https://goo.gl/oigDVZ","started_at":"2017-12-16T04:00:00.000+09:00","ended_at":"2017-12-17T09:00:00.000+09:00","limit_number":14,"address":"大阪市住之江区南港北2-1-10 ATCビルITM棟 6階","place":"ソフト産業プラザ イメディオ（iMedio）","lat":34.6379,"lon":135.412,"state":"active","id":null},{"event_id":"73082","title":"【忍者募集】生駒開催：子ども向けプログラミング道場（No.42）","url":"https://coderdojo-nara-ikoma.connpass.com/event/73082/","shortener_url":null,"started_at":"2017-12-02T13:00:00.000+09:00","ended_at":"2017-12-02T16:00:00.000+09:00","limit_number":14,"address":"奈良県生駒市元町1丁目7番6号","place":"市民活動推進センターららポート","lat":34.6919,"lon":135.698,"state":"active","id":null},{"event_id":"73074","title":"【大阪】【体験会】GoogleHome vs ChromeCast vs お酒を愛するエンジニア","url":"https://osaka-prg-bar.connpass.com/event/73074/","shortener_url":null,"started_at":"2017-12-06T13:00:00.000+09:00","ended_at":"2017-12-06T14:59:00.000+09:00","limit_number":6,"address":"大阪市中央区本町4丁目7-7-303","place":"KiiiyaHommachi","lat":34.6849,"lon":135.498,"state":"active","id":null},{"event_id":"73073","title":"【大阪】DeepLearning初心者による初心者のための読書会II【第４章４節】","url":"https://osaka-prg-school.connpass.com/event/73073/","shortener_url":null,"started_at":"2017-12-06T10:30:00.000+09:00","ended_at":"2017-12-06T12:45:00.000+09:00","limit_number":8,"address":"大阪市中央区本町4丁目7-7 飛鳥ビル303 ","place":"Kiiiya Hommachi","lat":34.6849,"lon":135.498,"state":"active","id":null},{"event_id":"71795","title":"広島版IoT縛りの勉強会! IoTLT広島 Vol.7","url":"https://iotlt.connpass.com/event/71795/","shortener_url":null,"started_at":"2017-12-09T13:30:00.000+09:00","ended_at":"2017-12-09T17:00:00.000+09:00","limit_number":50,"address":"広島市中区紙屋町1-4-3 (エフケイビル1F)","place":"イノベーション・ハブ・ひろしまCamps","lat":34.3941,"lon":132.459,"state":"active","id":null},{"event_id":"73134","title":"熊ゆに Unityもくもく会　2017/12/14（木）","url":"https://kumauni.connpass.com/event/73134/","shortener_url":null,"started_at":"2017-12-14T10:00:00.000+09:00","ended_at":"2017-12-14T12:00:00.000+09:00","limit_number":15,"address":"熊本県熊本市 中央区下通１丁目１２−２７","place":"未来会議室","lat":32.7998,"lon":130.708,"state":"active","id":null},{"event_id":"72593","title":"BPLL #16","url":"https://bpstudy.connpass.com/event/72593/","shortener_url":null,"started_at":"2017-12-12T12:10:00.000+09:00","ended_at":"2017-12-12T13:00:00.000+09:00","limit_number":3,"address":"渋谷区千駄ヶ谷5-32-7 野村不動産南新宿ビル4F","place":"ビープラウド会議室","lat":35.6861,"lon":139.699,"state":"active","id":null},{"event_id":"67059","title":"WikipediaTown 沼津 #6","url":"https://0168e91711e4c480d710c70399.doorkeeper.jp/events/67059","shortener_url":null,"started_at":"2017-12-03T09:30:00.000+09:00","ended_at":"2017-12-03T16:30:00.000+09:00","limit_number":10,"address":"静岡県沼津市平沼375-1","place":"浮島地区センター","lat":35.144,"lon":138.786,"state":"active","id":null},{"event_id":"67124","title":"これからの投資が面白くなる資産運用セミナー 　2018年の国内株式投資とソーシャルレンディング","url":"https://crowd-credit.doorkeeper.jp/events/67124","shortener_url":null,"started_at":"2017-12-02T10:30:00.000+09:00","ended_at":"2017-12-02T12:30:00.000+09:00","limit_number":50,"address":"東京都中央区日本橋茅場町1-8-1　茅場町一丁目平和ビル1F ","place":"FinGATE","lat":35.6806,"lon":139.779,"state":"active","id":null},{"event_id":"66675","title":"Startup Weekend 大阪@中央会計セミナールーム","url":"https://swosaka.doorkeeper.jp/events/66675","shortener_url":null,"started_at":"2017-12-22T18:00:00.000+09:00","ended_at":"2017-12-24T21:00:00.000+09:00","limit_number":30,"address":"大阪市中央区備後町3-6-2 大雅ビル","place":"中央会計セミナールーム＆オオサカンスペース","lat":34.7063,"lon":135.501,"state":"active","id":null},{"event_id":"67517","title":"\u003cホーチミン\u003e座談会","url":"https://swtokyo.doorkeeper.jp/events/67517","shortener_url":null,"started_at":"2017-12-09T08:30:00.000+09:00","ended_at":"2017-12-09T10:00:00.000+09:00","limit_number":10,"address":"","place":"JR新橋駅から徒歩5分以内のカフェ（※参加お申込みの皆様にお伝え予定）","lat":35.6597,"lon":139.716,"state":"active","id":null},{"event_id":"67789","title":"ブロックチェーンハッカソン","url":"https://team-ai.doorkeeper.jp/events/67789","shortener_url":"https://goo.gl/Tj921c","started_at":"2017-12-04T19:00:00.000+09:00","ended_at":"2017-12-04T21:00:00.000+09:00","limit_number":10,"address":"東京都渋谷区宇田川町36-17 ニューシブヤマンション202","place":"Team AIベース（ニューシブヤマンション202）","lat":35.6618,"lon":139.696,"state":"active","id":null},{"event_id":"68458","title":"IoT もくもく会 KOIL vol.14","url":"https://kashiwano-ha-geeks.connpass.com/event/68458/","shortener_url":null,"started_at":"2017-12-09T13:00:00.000+09:00","ended_at":"2017-12-09T17:00:00.000+09:00","limit_number":16,"address":"千葉県柏市若柴178 番地4 柏の葉キャンパス148 街区2 ショップ＆オフィス棟６階","place":"KOILスタジオ","lat":35.894,"lon":139.953,"state":"active","id":null},{"event_id":"73178","title":"【忍者募集】奈良開催：子ども向けプログラミング道場（No.43）","url":"https://coderdojo-nara-ikoma.connpass.com/event/73178/","shortener_url":null,"started_at":"2017-12-24T13:00:00.000+09:00","ended_at":"2017-12-24T16:00:00.000+09:00","limit_number":14,"address":"奈良県奈良市大宮町3丁目5-41 ","place":"ぷろぼの福祉ビル5F会議室","lat":34.6837,"lon":135.812,"state":"active","id":null},{"event_id":"73278","title":"ブロックチェーンハッカソン by Team AI 12/11(月)","url":"https://teamai.connpass.com/event/73278/","shortener_url":"https://goo.gl/f2fkcP","started_at":"2017-12-11T19:00:00.000+09:00","ended_at":"2017-12-11T21:00:00.000+09:00","limit_number":10,"address":"","place":"Online","lat":35.6618,"lon":139.696,"state":"active","id":null},{"event_id":"73294","title":"子ども向けプログラミングクラブ コーダー道場甲府#6","url":"https://coderdojokofu.connpass.com/event/73294/","shortener_url":null,"started_at":"2017-12-16T00:20:00.000+09:00","ended_at":"2017-12-16T02:40:00.000+09:00","limit_number":8,"address":"山梨県甲府市北口２丁目８番１号","place":"山梨県立図書館","lat":35.6685,"lon":138.57,"state":"active","id":null},{"event_id":"73347","title":"オープンＮＨＫアイデアソン2017 ＠新潟","url":"https://open-nhk.connpass.com/event/73347/","shortener_url":"https://goo.gl/JsmPCY","started_at":"2017-12-17T04:15:00.000+09:00","ended_at":"2017-12-17T08:15:00.000+09:00","limit_number":30,"address":"新潟県新潟市中央区万代島２","place":"ピアＢａｎｄａi 内 ピアＴｅｒｒａｃｅ","lat":37.9239,"lon":139.061,"state":"active","id":null},{"event_id":"73414","title":"Sota講習会 【Vstone Magicを始めよう】 Part 3（有料）","url":"https://sota.connpass.com/event/73414/","shortener_url":null,"started_at":"2017-12-09T14:00:00.000+09:00","ended_at":"2017-12-09T14:50:00.000+09:00","limit_number":4,"address":"東京都千代田区外神田1-9-9 内田ビル4F","place":"ヴイストン ロボットセンター秋葉原店","lat":35.6987,"lon":139.77,"state":"active","id":null},{"event_id":"73563","title":"【大阪】JSerもくもく会 12/29【JavaScript/monaca/ハイブリッド開発","url":"https://hackers-salon.connpass.com/event/73563/","shortener_url":null,"started_at":"2017-12-29T14:30:00.000+09:00","ended_at":"2017-12-29T21:00:00.000+09:00","limit_number":5,"address":"大阪市中央区本町４丁目７−７ 飛鳥ビル３０２","place":"Kiiiya Hommachi（2020年6月営業終了）","lat":34.6849,"lon":135.498,"state":"active","id":null},{"event_id":"73562","title":"【大阪】JSerもくもく会 12/22【JavaScript/monaca/ハイブリッド開発","url":"https://hackers-salon.connpass.com/event/73562/","shortener_url":null,"started_at":"2017-12-22T19:30:00.000+09:00","ended_at":"2017-12-22T22:00:00.000+09:00","limit_number":5,"address":"大阪市中央区本町４丁目７−７ 飛鳥ビル３０２","place":"Kiiiya Hommachi（2020年6月営業終了）","lat":34.6849,"lon":135.498,"state":"active","id":null},{"event_id":"73501","title":"JINS MEME アイデアソン(東京・飯田橋)","url":"https://jinsmeme.connpass.com/event/73501/","shortener_url":"https://goo.gl/aD23w6","started_at":"2017-12-09T00:00:00.000+09:00","ended_at":"2017-12-10T11:30:00.000+09:00","limit_number":15,"address":"東京都千代田区富士見2-10-2（飯田橋グラン・ブルーム30階）","place":"株式会社ジェイアイエヌ東京本社","lat":35.699,"lon":139.744,"state":"active","id":null},{"event_id":"73506","title":"＜法学部・ロースクール・司法修習生向け＞カケコムミートアップ","url":"https://kakekomu.connpass.com/event/73506/","shortener_url":null,"started_at":"2017-12-07T19:30:00.000+09:00","ended_at":"2017-12-07T21:00:00.000+09:00","limit_number":null,"address":"東京都渋谷区道玄坂2-10-12 (新大宗ビル3号館531号)","place":"Hive Shibuya","lat":35.6587,"lon":139.698,"state":"active","id":null},{"event_id":"73257","title":"fukuoka.ex#4 (懇親会も)：Elixirのビッグデータ分析～福岡Elixir会","url":"https://techjin.connpass.com/event/73257/","shortener_url":null,"started_at":"2017-12-22T19:00:00.000+09:00","ended_at":"2017-12-22T21:00:00.000+09:00","limit_number":25,"address":" 株式会社TechJIN  〒810-0001 福岡県福岡市中央区天神3-4-3大隈ビル8F","place":"株式会社TechJIN","lat":33.5919,"lon":130.396,"state":"active","id":null},{"event_id":"72237","title":"FESTA 2017 by Mashup Awards","url":"https://mashupawards.connpass.com/event/72237/","shortener_url":null,"started_at":"2017-12-16T13:00:00.000+09:00","ended_at":"2017-12-16T20:00:00.000+09:00","limit_number":null,"address":"東京都港区海岸2-6-24","place":"TABLOID","lat":35.6493,"lon":139.759,"state":"active","id":null},{"event_id":"92982","title":"【12/16（土）】カフェでゲームをつくってみる会","url":"https://atnd.org/events/92982","shortener_url":null,"started_at":"2017-12-16T02:00:00.000+09:00","ended_at":"2017-12-16T04:30:00.000+09:00","limit_number":3,"address":"東京都 渋谷区 神宮前 4-31-10","place":"ワーキングホリデー・コネクション 原宿","lat":35.6691,"lon":139.706,"state":"closed","id":null},{"event_id":"93073","title":"アムネスティ　ライティングマラソン2017","url":"https://atnd.org/events/93073","shortener_url":null,"started_at":"2017-12-10T04:00:00.000+09:00","ended_at":"2017-12-10T08:00:00.000+09:00","limit_number":6,"address":"大阪府大阪市北区豊崎6-6-23","place":"レトロ印刷JAM","lat":34.7148,"lon":135.501,"state":"closed","id":null},{"event_id":"93053","title":"第292回 よちよちAndroid オフライン開発ミーティング in 大崎","url":"https://atnd.org/events/93053","shortener_url":null,"started_at":"2017-12-03T01:00:00.000+09:00","ended_at":"2017-12-03T03:00:00.000+09:00","limit_number":null,"address":"東京都品川区大崎1-11-1","place":"ゲートシティ大崎B1アトリウムフリー座席","lat":35.6194,"lon":139.731,"state":"closed","id":null},{"event_id":"93019","title":"第43回よちよちAndroid名古屋支部オフライン開発ミーティング","url":"https://atnd.org/events/93019","shortener_url":null,"started_at":"2017-12-03T00:00:00.000+09:00","ended_at":"2017-12-03T03:00:00.000+09:00","limit_number":null,"address":"名古屋市中区栄三丁目18番1号 ナディアパーク デザインセンタービル6階","place":"名古屋市市民活動推進センター","lat":35.1654,"lon":136.905,"state":"closed","id":null},{"event_id":"72417","title":"[秋葉原] ゲーム企画書アイディアソン！","url":"https://weeyble-game.connpass.com/event/72417/","shortener_url":null,"started_at":"2017-12-10T04:30:00.000+09:00","ended_at":"2017-12-10T08:30:00.000+09:00","limit_number":17,"address":"東京都千代田区神田須田町２丁目１９−２３ (野村第３ビル ４階)","place":"コワーキングスペース秋葉原Weeyble","lat":35.6966,"lon":139.772,"state":"active","id":null},{"event_id":"73322","title":"LINE Developer Meetup in Tokyo #24 Bot開発者 大忘年会！","url":"https://line.connpass.com/event/73322/","shortener_url":null,"started_at":"2017-12-18T19:00:00.000+09:00","ended_at":"2017-12-18T22:00:00.000+09:00","limit_number":180,"address":"東京都新宿区新宿四丁目1番6号 JR新宿ミライナタワー","place":"LINE株式会社 新宿オフィス","lat":35.6888,"lon":139.702,"state":"active","id":null},{"event_id":"73697","title":"[秋葉原] 第14回 ゆるふわIoT電子工作入門","url":"https://weeyble-iot.connpass.com/event/73697/","shortener_url":null,"started_at":"2017-12-10T13:00:00.000+09:00","ended_at":"2017-12-10T18:00:00.000+09:00","limit_number":12,"address":"東京都千代田区神田須田町２丁目１９−２３ (野村第３ビル ４階)","place":"コワーキングスペース秋葉原Weeyble","lat":35.6966,"lon":139.772,"state":"active","id":null},{"event_id":"68002","title":"ブロックチェーンハッカソン","url":"https://team-ai.doorkeeper.jp/events/68002","shortener_url":"https://goo.gl/SVAYb5","started_at":"2017-12-11T19:00:00.000+09:00","ended_at":"2017-12-11T21:00:00.000+09:00","limit_number":10,"address":"東京都渋谷区宇田川町37−7 アットパーク渋谷宇田川町駐車場","place":"Team AIベース（ニューシブヤマンション202）","lat":35.6618,"lon":139.696,"state":"active","id":null},{"event_id":"65763","title":"第1回3Dモデリングワークショップ\u0026ハッカソンin智頭宿 テーマ「智頭宿の魅力の発掘と情報発信」","url":"https://code4tottori.doorkeeper.jp/events/65763","shortener_url":"https://goo.gl/X43QtQ","started_at":"2017-12-10T09:00:00.000+09:00","ended_at":"2017-12-10T17:00:00.000+09:00","limit_number":30,"address":"鳥取県八頭郡智頭町智頭568・569","place":"智頭町消防団本町分団屯所2階（石谷家住宅向かい）","lat":35.2666,"lon":134.228,"state":"active","id":null},{"event_id":"93148","title":"第44回よちよちAndroid名古屋支部オフライン開発ミーティング","url":"https://atnd.org/events/93148","shortener_url":null,"started_at":"2017-12-10T00:00:00.000+09:00","ended_at":"2017-12-10T03:00:00.000+09:00","limit_number":null,"address":"名古屋市中区栄三丁目18番1号 ナディアパーク デザインセンタービル6階","place":"名古屋市市民活動推進センター","lat":35.1654,"lon":136.905,"state":"closed","id":null},{"event_id":"73902","title":"うかそんイブ会議","url":"https://ukason.connpass.com/event/73902/","shortener_url":null,"started_at":"2017-12-24T05:00:00.000+09:00","ended_at":"2017-12-24T08:00:00.000+09:00","limit_number":16,"address":"東京都 千代田区 神田東紺屋町30","place":"RAKUNA 神田・秋葉原","lat":35.6931,"lon":139.775,"state":"active","id":null},{"event_id":"73287","title":"TOKYO CS JAM #15 〜ここがすごいよ！CSアウトソーサー〜","url":"https://csjam.connpass.com/event/73287/","shortener_url":"https://goo.gl/oHWmp1","started_at":"2017-12-21T10:00:00.000+09:00","ended_at":"2017-12-21T12:30:00.000+09:00","limit_number":40,"address":"東京都港区六本木6-10-1（六本木ヒルズ森タワー18F）","place":"株式会社メルカリ","lat":35.6604,"lon":139.729,"state":"active","id":null},{"event_id":"73846","title":"ブロックチェーンハッカソン by Team AI 12/18(月)","url":"https://teamai.connpass.com/event/73846/","shortener_url":"https://goo.gl/i64TgG","started_at":"2017-12-18T19:00:00.000+09:00","ended_at":"2017-12-18T21:00:00.000+09:00","limit_number":10,"address":"","place":"Online","lat":35.6618,"lon":139.696,"state":"active","id":null},{"event_id":"68325","title":"ブロックチェーンハッカソン","url":"https://team-ai.doorkeeper.jp/events/68325","shortener_url":"https://goo.gl/uJP1aW","started_at":"2017-12-18T19:00:00.000+09:00","ended_at":"2017-12-18T21:00:00.000+09:00","limit_number":10,"address":"東京都渋谷区宇田川町37−7 アットパーク渋谷宇田川町駐車場","place":"Team AIベース（ニューシブヤマンション202）","lat":35.6618,"lon":139.696,"state":"active","id":null},{"event_id":"68365","title":"Startup Weekend Tokyo :: Micro Edition #6","url":"https://swtokyo.doorkeeper.jp/events/68365","shortener_url":null,"started_at":"2017-12-08T18:30:00.000+09:00","ended_at":"2017-12-10T21:30:00.000+09:00","limit_number":15,"address":"東京都新宿区高田馬場1-28-10　三慶ビル4F","place":"Green Room in CASE-Shinjuku","lat":35.7122,"lon":139.705,"state":"active","id":null},{"event_id":"93175","title":"第293回 よちよちAndroid オフライン開発ミーティング in 大崎","url":"https://atnd.org/events/93175","shortener_url":null,"started_at":"2017-12-17T01:00:00.000+09:00","ended_at":"2017-12-19T23:59:59.000+09:00","limit_number":null,"address":"東京都品川区大崎1-11-1","place":"ゲートシティ大崎B1アトリウムフリー座席","lat":35.6194,"lon":139.731,"state":"closed","id":null},{"event_id":"70838","title":"【招待制】Mashup Battle 2ndSTAGE（ #MA_2017 ）","url":"https://mashupawards.connpass.com/event/70838/","shortener_url":null,"started_at":"2017-12-10T09:45:00.000+09:00","ended_at":"2017-12-10T20:00:00.000+09:00","limit_number":120,"address":"東京都渋谷区渋谷１丁目２３−１６ cocoti SHIBUYA（渋谷 ココチ）","place":"TOKYO CULTURE CULTURE by iTSCOM（渋谷","lat":35.6621,"lon":139.703,"state":"active","id":null},{"event_id":"74239","title":"【迫る！GGJ】オトナのUnity入門@未来会議室","url":"https://otona.connpass.com/event/74239/","shortener_url":null,"started_at":"2017-12-20T10:00:00.000+09:00","ended_at":"2017-12-20T12:00:00.000+09:00","limit_number":25,"address":"熊本県熊本市 中央区下通１丁目１２−２７","place":"未来会議室","lat":32.7998,"lon":130.708,"state":"active","id":null},{"event_id":"93322","title":"第45回よちよちAndroid名古屋支部オフライン開発ミーティング","url":"https://atnd.org/events/93322","shortener_url":null,"started_at":"2017-12-17T00:00:00.000+09:00","ended_at":"2017-12-17T03:00:00.000+09:00","limit_number":null,"address":"名古屋市中区栄三丁目18番1号 ナディアパーク デザインセンタービル6階","place":"名古屋市市民活動推進センター","lat":35.1654,"lon":136.905,"state":"closed","id":null},{"event_id":"74465","title":"学術情報APIハッカソンin鳥取（地域の研究課題を発掘しよう編）","url":"https://code4tottori.connpass.com/event/74465/","shortener_url":"https://goo.gl/9NrfLG","started_at":"2017-12-16T10:00:00.000+09:00","ended_at":"2017-12-16T18:00:00.000+09:00","limit_number":10,"address":"鳥取市湖山町南4丁目101 (鳥取大学広報センター内)","place":"鳥取大学コミュニティ・デザイン・ラボ","lat":35.5152,"lon":134.173,"state":"active","id":null},{"event_id":"74327","title":"京都市をITのチカラでよくするぞ！ソリューション提案編CodeforKyotoRevolutions","url":"https://code4kyoto.connpass.com/event/74327/","shortener_url":null,"started_at":"2017-12-17T13:00:00.000+09:00","ended_at":"2017-12-17T18:00:00.000+09:00","limit_number":20,"address":"京都府京都市中京区手洗水町647","place":"Oinai Karasuma","lat":35.006,"lon":135.76,"state":"active","id":null},{"event_id":"74383","title":"ブロックチェーンハッカソン by Team AI 12/25(月)","url":"https://teamai.connpass.com/event/74383/","shortener_url":"https://goo.gl/QFUa7g","started_at":"2017-12-25T19:00:00.000+09:00","ended_at":"2017-12-25T21:00:00.000+09:00","limit_number":10,"address":"","place":"Online","lat":35.6618,"lon":139.696,"state":"active","id":null},{"event_id":"72356","title":"忘年会2017--オープンCAE勉強会＠関東(流体など)【12/16、18:00～】","url":"https://opencae-kanto.connpass.com/event/72356/","shortener_url":null,"started_at":"2017-12-16T18:00:00.000+09:00","ended_at":"2017-12-16T20:00:00.000+09:00","limit_number":17,"address":"東京都港区新橋2-19-10 新橋マリンビル　B1F","place":"ビアケラー東京 新橋銀座口店  ","lat":35.6668,"lon":139.759,"state":"active","id":null},{"event_id":"74681","title":"Data Visualization meetup 2017","url":"https://data-visualization-japan.connpass.com/event/74681/","shortener_url":null,"started_at":"2017-12-26T10:00:00.000+09:00","ended_at":"2017-12-26T14:00:00.000+09:00","limit_number":91,"address":"東京都品川区上大崎2-13-30 Oak Meguro 10階","place":"Indeed Tokyo 目黒オフィス","lat":35.6346,"lon":139.718,"state":"active","id":null},{"event_id":"93489","title":"大晦日ハッカソン2017 #大晦日ハッカソン","url":"https://atnd.org/events/93489","shortener_url":"https://goo.gl/LWomSx","started_at":"2017-12-30T15:00:00.000+09:00","ended_at":"2017-12-31T14:59:00.000+09:00","limit_number":null,"address":"","place":"各自で","lat":null,"lon":null,"state":"closed","id":null},{"event_id":"93499","title":"≪19卒歓迎≫　1Dayインターンシップ開催！就活相談\u0026キャリアアドバイス","url":"https://atnd.org/events/93499","shortener_url":null,"started_at":"2017-12-23T04:00:00.000+09:00","ended_at":"2017-12-23T08:00:00.000+09:00","limit_number":5,"address":"神奈川県横浜市神奈川区栄町2-5","place":"Avinton横浜オフィス","lat":35.4696,"lon":139.627,"state":"closed","id":null},{"event_id":"75175","title":"激安トースターを改造して作るロティサリーチキングリル #大晦日ハッカソン","url":"https://tukuddo.connpass.com/event/75175/","shortener_url":"https://goo.gl/muRCus","started_at":"2017-12-31T12:00:00.000+09:00","ended_at":"2017-12-31T23:30:00.000+09:00","limit_number":5,"address":"鹿児島県鹿児島市泉町1-8","place":"TUKUDDO","lat":31.5925,"lon":130.559,"state":"active","id":null},{"event_id":"93719","title":"正月ハッカソン2018 #正月ハッカソン","url":"https://atnd.org/events/93719","shortener_url":null,"started_at":"2017-12-31T15:00:00.000+09:00","ended_at":"2018-01-01T15:00:00.000+09:00","limit_number":null,"address":"各自","place":"各自","lat":null,"lon":null,"state":"closed","id":null},{"event_id":"65009","title":"【年末】サーバー構築ハンズオンとかいつもの飲み会の忘年会","url":"https://svrkcho.connpass.com/event/65009/","shortener_url":null,"started_at":"2017-12-30T07:00:00.000+09:00","ended_at":"2017-12-30T15:00:00.000+09:00","limit_number":45,"address":"東京都千代田区神田佐久間町1-14 B1F 村役場","place":"村役場＠秋葉原店","lat":35.6976,"lon":139.776,"state":"active","id":null},{"event_id":"72098","title":"(第83回)Python mini Hack-a-thon","url":"https://pyhack.connpass.com/event/72098/","shortener_url":null,"started_at":"2017-12-02T02:00:00.000+09:00","ended_at":"2017-12-02T10:00:00.000+09:00","limit_number":20,"address":"渋谷区千駄ヶ谷5-32-7 野村不動産南新宿ビル4F","place":"ビープラウド会議室","lat":35.6864,"lon":139.704,"state":"active","id":null},{"event_id":"67931","title":"ぷち合宿 #36","url":"https://ydp.connpass.com/event/67931/","shortener_url":null,"started_at":"2017-12-03T00:00:00.000+09:00","ended_at":"2017-12-03T03:00:00.000+09:00","limit_number":4,"address":"大手町駅(E2出口)","place":"大手町","lat":35.6835,"lon":139.763,"state":"active","id":null},{"event_id":"67930","title":"ぷち開発合宿 #35","url":"https://ydp.connpass.com/event/67930/","shortener_url":null,"started_at":"2017-12-02T00:00:00.000+09:00","ended_at":"2017-12-02T03:00:00.000+09:00","limit_number":4,"address":"大手町駅(E2出口)","place":"大手町","lat":35.6835,"lon":139.763,"state":"active","id":null},{"event_id":"92276","title":"Drupal ONSEN vol.3 in 定山渓 (2017)","url":"https://atnd.org/events/92276","shortener_url":null,"started_at":"2017-12-02T06:00:00.000+09:00","ended_at":"2017-12-03T01:00:00.000+09:00","limit_number":null,"address":"〒061-2302 北海道札幌市南区定山渓温泉 東4丁目321","place":"ホテル 山渓苑","lat":42.9643,"lon":141.162,"state":"closed","id":null},{"event_id":"227252","title":"e-ラーニング受講　「高齢者の薬物治療」 高齢者薬物治療認定薬剤師制度スタートアップセミナー","url":"http://startupwebseminar2017-1.peatix.com","shortener_url":null,"started_at":"2017-12-30T15:00:00.000+09:00","ended_at":"2018-01-01T23:59:59.000+09:00","limit_number":null,"address":"東京都千代田区丸の内1丁目9-2","place":"薬局共創未来人財育成機構薬剤師研修センター","lat":35.6786,"lon":139.767,"state":"active","id":null},{"event_id":"328555","title":"【開催中！】＊産地応援＊ 　雹kissりんごプロジェクト2017 〜生産者から直送！旬のりんごを青森県弘前市よりお届けします！","url":"http://peatix.com/event/328555","shortener_url":null,"started_at":"2017-12-03T17:50:00.000+09:00","ended_at":"2017-12-05T23:59:59.000+09:00","limit_number":null,"address":"青森県弘前市大字乳井","place":"特定非営利活動法人Yum! Yam! SOUL SOUP KITCHEN","lat":40.5536,"lon":140.556,"state":"active","id":null},{"event_id":"316933","title":"ＰＲプランナー３次試験対応講座（2017年度冬期）","url":"http://peatix.com/event/316933","shortener_url":null,"started_at":"2017-12-05T19:00:00.000+09:00","ended_at":"2017-12-07T23:59:59.000+09:00","limit_number":null,"address":"東京都港区六本木6丁目10","place":"六本木アカデミーヒルズ49","lat":35.6604,"lon":139.729,"state":"active","id":null}]