[{"event_id":"62540","title":"カーネル／VMキャンプ #6","url":"https://connpass.com/event/62540/","shortener_url":null,"started_at":"2017-10-07T09:00:00.000+09:00","ended_at":"2017-10-09T20:00:00.000+09:00","limit_number":19,"address":" \t長野県北安曇郡白馬村神城いいもり２６０９２","place":"カンパーニュ白馬","lat":36.673,"lon":137.849,"state":"active","id":null},{"event_id":"62901","title":"たまには海外で開発合宿も良いじゃない Part 1タイ・バンコク編","url":"https://devmorning.connpass.com/event/62901/","shortener_url":null,"started_at":"2017-10-07T07:00:00.000+09:00","ended_at":"2017-10-08T01:00:00.000+09:00","limit_number":7,"address":"Sala Daeng BTS Station","place":"The Work Loft","lat":13.7285,"lon":100.534,"state":"active","id":null},{"event_id":"64285","title":"俺コン Vol.1 / Day. 2","url":"https://orecon.connpass.com/event/64285/","shortener_url":null,"started_at":"2017-10-03T19:00:00.000+09:00","ended_at":"2017-10-03T22:00:00.000+09:00","limit_number":190,"address":"東京都渋谷区渋谷2-21-1 ヒカリエ21F","place":"株式会社ディー・エヌ・エー 21F","lat":35.6591,"lon":139.704,"state":"active","id":null},{"event_id":"63769","title":"俺コン Vol.1 / Day. 1","url":"https://orecon.connpass.com/event/63769/","shortener_url":null,"started_at":"2017-10-02T19:00:00.000+09:00","ended_at":"2017-10-02T22:00:00.000+09:00","limit_number":190,"address":"東京都渋谷区渋谷2-21-1 ヒカリエ21F","place":"株式会社ディー・エヌ・エー 21F","lat":35.659,"lon":139.703,"state":"active","id":null},{"event_id":"63860","title":"スタンフォード大学d.Schoolのインストラクターが教えるデザイン思考ワークショップ","url":"https://designthinking.doorkeeper.jp/events/63860","shortener_url":null,"started_at":"2017-10-25T09:30:00.000+09:00","ended_at":"2017-10-26T17:00:00.000+09:00","limit_number":60,"address":"東京都千代田区大手町1丁目9−2 大手町フィナンシャルシティグランキューブ","place":"Global Business Hub Tokyo","lat":35.6885,"lon":139.765,"state":"active","id":null},{"event_id":"64083","title":"地方創生ハッカソン - 高知家の魅力発見 -","url":"https://connpass.com/event/64083/","shortener_url":"https://goo.gl/QWLcND","started_at":"2017-10-21T01:00:00.000+09:00","ended_at":"2017-10-22T01:00:00.000+09:00","limit_number":40,"address":"〒783-8508 高知県南国市物部乙200-1","place":"高知工業高等専門学校 専攻科棟4階 南北会議室","lat":33.5485,"lon":133.681,"state":"active","id":null},{"event_id":"65979","title":"量子コンピュータハッカソン（今回はシミュレータ）量子アニーリング＆量子ゲート","url":"https://qnn.connpass.com/event/65979/","shortener_url":"https://goo.gl/3hHzAd","started_at":"2017-10-14T11:00:00.000+09:00","ended_at":"2017-10-14T18:00:00.000+09:00","limit_number":40,"address":"東京都文京区本郷4-1-3 明和本郷ビル7F","place":"ラボカフェ本郷三丁目","lat":35.7079,"lon":139.761,"state":"active","id":null},{"event_id":"65174","title":"第13回医療オープンソースソフトウェア協議会セミナー","url":"https://moss.connpass.com/event/65174/","shortener_url":null,"started_at":"2017-10-21T14:00:00.000+09:00","ended_at":"2017-10-21T18:00:00.000+09:00","limit_number":60,"address":"東京都港区港南 2-16-3 品川グランドセントラルタワー","place":"Microsoft品川本社","lat":35.6267,"lon":139.74,"state":"active","id":null},{"event_id":"66304","title":"【増枠】emscripten \u0026 WebAssembly night !! #5","url":"https://emsn.connpass.com/event/66304/","shortener_url":null,"started_at":"2017-10-18T19:30:00.000+09:00","ended_at":"2017-10-18T22:00:00.000+09:00","limit_number":58,"address":"東京都港区六本木6-10-1(六本木ヒルズ森タワー18F)","place":"株式会社メルカリ 18F","lat":35.6604,"lon":139.729,"state":"active","id":null},{"event_id":"65499","title":"Web Music Demo Party #1","url":"https://connpass.com/event/65499/","shortener_url":null,"started_at":"2017-10-06T19:30:00.000+09:00","ended_at":"2017-10-06T22:00:00.000+09:00","limit_number":56,"address":"渋谷区渋谷2-21-1 渋谷ヒカリエ17F","place":"レバレジーズ株式会社","lat":35.659,"lon":139.703,"state":"active","id":null},{"event_id":"65550","title":"第3回 伊那市 LoRaWAN ハッカソン","url":"https://uhuru.connpass.com/event/65550/","shortener_url":"https://goo.gl/Efv77Q","started_at":"2017-10-21T04:00:00.000+09:00","ended_at":"2017-10-22T08:45:00.000+09:00","limit_number":50,"address":"長野県伊那市荒井3520番地","place":"伊那市創造館","lat":35.8389,"lon":137.957,"state":"active","id":null},{"event_id":"65496","title":"【Docker勉強会】OthloEvent@さくらインターネット #20","url":"https://othlotech.connpass.com/event/65496/","shortener_url":null,"started_at":"2017-10-28T13:30:00.000+09:00","ended_at":"2017-10-28T18:00:00.000+09:00","limit_number":30,"address":"愛知県名古屋市中村区名駅 2 - 41 - 17","place":"名駅セミナーオフィス ルームA","lat":35.1748,"lon":136.885,"state":"active","id":null},{"event_id":"66526","title":"【好評につき増席】遊びのReハック！#MA_2017 大阪ハッカソン予選","url":"https://mashupawards.connpass.com/event/66526/","shortener_url":"https://goo.gl/ac8nLo","started_at":"2017-10-07T01:00:00.000+09:00","ended_at":"2017-10-08T11:00:00.000+09:00","limit_number":36,"address":"オンライン","place":"オンライン","lat":34.6849,"lon":135.501,"state":"active","id":null},{"event_id":"63910","title":"【10/14（土）開講！第4期生募集】データ分析教育講座《10−12月》","url":"https://soleildatadojo.doorkeeper.jp/events/63910","shortener_url":null,"started_at":"2017-10-14T10:00:00.000+09:00","ended_at":"2017-12-23T17:10:00.000+09:00","limit_number":20,"address":"兵庫県尼崎市昭和通3丁目90−1","place":"税理士荒巻政文事務所（阪神尼崎駅より徒歩３分）","lat":34.7207,"lon":135.417,"state":"active","id":null},{"event_id":"64356","title":"RaspberryPi入門セミナー　「IoTをはじめよう！」","url":"https://iwami-ict.doorkeeper.jp/events/64356","shortener_url":null,"started_at":"2017-10-21T14:00:00.000+09:00","ended_at":"2017-10-21T17:00:00.000+09:00","limit_number":10,"address":"島根県益田市元町11−26 市立市民学習センター","place":"益田市民学習センター","lat":34.6747,"lon":131.841,"state":"active","id":null},{"event_id":"64724","title":"【受講無料！10/1（日）】データ分析教育講座・受け身編","url":"https://soleildatadojo.doorkeeper.jp/events/64724","shortener_url":null,"started_at":"2017-10-01T14:00:00.000+09:00","ended_at":"2017-10-01T17:10:00.000+09:00","limit_number":15,"address":"兵庫県尼崎市昭和通3丁目90−1","place":"税理士荒巻政文事務所","lat":34.7207,"lon":135.417,"state":"active","id":null},{"event_id":"64920","title":"スタートアップの始め方（SW神戸プレイベント）","url":"https://swkobe.doorkeeper.jp/events/64920","shortener_url":null,"started_at":"2017-10-09T17:00:00.000+09:00","ended_at":"2017-10-09T19:00:00.000+09:00","limit_number":20,"address":"大阪府大阪市北区鶴野町1 関西大学梅田キャンパス","place":"StartupCafeOsaka","lat":34.7063,"lon":135.501,"state":"active","id":null},{"event_id":"66724","title":"Sota講習会 【Vstone Magicを始めよう】 Part 3（有料）","url":"https://sota.connpass.com/event/66724/","shortener_url":null,"started_at":"2017-10-06T19:00:00.000+09:00","ended_at":"2017-10-06T19:50:00.000+09:00","limit_number":4,"address":"東京都千代田区外神田1-9-9 内田ビル4F","place":"ヴイストン ロボットセンター秋葉原店","lat":35.6987,"lon":139.77,"state":"active","id":null},{"event_id":"66579","title":"IoT×API de 街ハック！#MA_2017 名古屋ハッカソン予選","url":"https://mashupawards.connpass.com/event/66579/","shortener_url":"https://goo.gl/WTS4U5","started_at":"2017-10-14T01:00:00.000+09:00","ended_at":"2017-10-15T09:30:00.000+09:00","limit_number":30,"address":"名古屋市昭和区御器所町","place":"名古屋工業大学 講堂 (NITech Hall) 2階 ラーニングコモンズ","lat":35.157,"lon":136.926,"state":"active","id":null},{"event_id":"66490","title":"【更に増員決定】初心者向けUnityハンズオン【名古屋】","url":"https://mashup-nagoya.connpass.com/event/66490/","shortener_url":null,"started_at":"2017-10-22T04:00:00.000+09:00","ended_at":"2017-10-22T08:00:00.000+09:00","limit_number":40,"address":"愛知県名古屋市中村区名駅4-2-28","place":"名古屋第二埼玉ビル","lat":35.1717,"lon":136.888,"state":"active","id":null},{"event_id":"67010","title":"アーバンデータチャレンジ2017 in 石川 Vol.2 アイデアソン","url":"https://cfk.connpass.com/event/67010/","shortener_url":"https://goo.gl/Tnhp2d","started_at":"2017-10-15T04:30:00.000+09:00","ended_at":"2017-10-15T08:00:00.000+09:00","limit_number":null,"address":"石川県金沢市武蔵町14番31号","place":"ITビジネスプラザ武蔵","lat":36.5713,"lon":136.655,"state":"active","id":null},{"event_id":"91105","title":"＊未経験歓迎＊世界で活躍するエンジニアが最新の技術トピックについてお話しします！","url":"https://atnd.org/events/91105","shortener_url":null,"started_at":"2017-10-13T10:00:00.000+09:00","ended_at":"2017-10-13T12:00:00.000+09:00","limit_number":7,"address":"神奈川県 横浜市 神奈川区 栄町2-5","place":"Avintonジャパン株式会社","lat":35.4696,"lon":139.627,"state":"closed","id":null},{"event_id":"67177","title":"Fukuoka CS JAM #3 〜山口油屋福太郎×メルカリ CSとホスピタリティと私〜","url":"https://csjam.connpass.com/event/67177/","shortener_url":"https://goo.gl/kR7nMv","started_at":"2017-10-13T10:30:00.000+09:00","ended_at":"2017-10-13T12:10:00.000+09:00","limit_number":20,"address":"福岡市博多区博多駅東2-5-28 (博多偕成ビル4F)","place":"株式会社メルカリ 福岡オフィス","lat":33.5878,"lon":130.423,"state":"active","id":null},{"event_id":"67297","title":"【ハッカソン】エンジニアの食健康習慣をHACKする「健康ハッカソン」","url":"https://supporterz-seminar.connpass.com/event/67297/","shortener_url":"https://goo.gl/4pLNQU","started_at":"2017-10-07T10:00:00.000+09:00","ended_at":"2017-10-07T20:00:00.000+09:00","limit_number":40,"address":"東京都渋谷区道玄坂1-9-5","place":"渋谷スクエアA 11F","lat":35.6573,"lon":139.699,"state":"active","id":null},{"event_id":"66909","title":"IBM Cloud（Bluemix） × IoT はじめてのハッカソン Vol.29","url":"https://hackathon.connpass.com/event/66909/","shortener_url":"https://goo.gl/aKcNh1","started_at":"2017-10-14T01:00:00.000+09:00","ended_at":"2017-10-14T10:00:00.000+09:00","limit_number":35,"address":"東京都中央区日本橋箱崎町１９−２１","place":"日本アイ・ビー・エム(株)","lat":35.6791,"lon":139.787,"state":"active","id":null},{"event_id":"67504","title":"ブロックチェーンハッ­カソン by Team AI 10/2(月)","url":"https://teamai.connpass.com/event/67504/","shortener_url":"https://goo.gl/LjFr59","started_at":"2017-10-02T19:00:00.000+09:00","ended_at":"2017-10-02T21:00:00.000+09:00","limit_number":10,"address":"","place":"Online","lat":35.6618,"lon":139.696,"state":"active","id":null},{"event_id":"67448","title":"【北海道情報専門学校】JPHACKS2017説明会","url":"https://giveryengineersupport.connpass.com/event/67448/","shortener_url":null,"started_at":"2017-10-05T15:45:00.000+09:00","ended_at":"2017-10-05T17:00:00.000+09:00","limit_number":null,"address":"〒003-0806 北海道札幌市白石区菊水6条3丁目4-28","place":"北海道情報専門学校","lat":43.056,"lon":141.38,"state":"active","id":null},{"event_id":"67204","title":"会津ハッカソン予選 #MA_2017 求むトガった作品！！ with UDC2017","url":"https://mashupawards.connpass.com/event/67204/","shortener_url":"https://goo.gl/t2x13n","started_at":"2017-10-28T01:00:00.000+09:00","ended_at":"2017-10-29T10:30:00.000+09:00","limit_number":35,"address":"会津若松市一箕町鶴賀上居合90","place":"会津大学 講義等 M9教室","lat":37.5238,"lon":139.939,"state":"active","id":null},{"event_id":"67596","title":"【サポーターズCoLab勉強会】Sansanが考えるユーザー目線でのプロダクト開発に必要な事","url":"https://supporterz-seminar.connpass.com/event/67596/","shortener_url":null,"started_at":"2017-10-12T19:30:00.000+09:00","ended_at":"2017-10-12T21:00:00.000+09:00","limit_number":20,"address":"東京都渋谷区道玄坂1-9-5","place":"渋谷スクエアA 11F","lat":35.6573,"lon":139.699,"state":"active","id":null},{"event_id":"67438","title":"【東北大学】JPHACKS2017説明会","url":"https://giveryengineersupport.connpass.com/event/67438/","shortener_url":null,"started_at":"2017-10-03T16:30:00.000+09:00","ended_at":"2017-10-03T18:00:00.000+09:00","limit_number":null,"address":"〒980-8579 仙台市青葉区荒巻字青葉6-6","place":"東北大学","lat":38.2556,"lon":140.835,"state":"active","id":null},{"event_id":"67450","title":"TOKYO CS JAM #13 〜ヤッホー×メルカリ おもいやり隊と考える\"究極のおもてなし\"〜","url":"https://csjam.connpass.com/event/67450/","shortener_url":"https://goo.gl/hBZu5C","started_at":"2017-10-02T10:00:00.000+09:00","ended_at":"2017-10-02T12:30:00.000+09:00","limit_number":40,"address":"東京都港区六本木6-10-1（六本木ヒルズ森タワー18F）","place":"株式会社メルカリ","lat":35.6604,"lon":139.729,"state":"active","id":null},{"event_id":"67554","title":"【サポーターズCoLab勉強会】LINEを使ったチャットボット入門(ハンズオン)","url":"https://supporterz-seminar.connpass.com/event/67554/","shortener_url":null,"started_at":"2017-10-12T19:45:00.000+09:00","ended_at":"2017-10-12T21:15:00.000+09:00","limit_number":30,"address":"東京都渋谷区道玄坂１丁目９−５","place":"渋谷スクエアA 11F","lat":35.6573,"lon":139.699,"state":"active","id":null},{"event_id":"67446","title":"【北海道大学】JPHACKS2017説明会","url":"https://giveryengineersupport.connpass.com/event/67446/","shortener_url":null,"started_at":"2017-10-05T12:15:00.000+09:00","ended_at":"2017-10-05T12:45:00.000+09:00","limit_number":null,"address":"〒060-0808 北海道札幌市北区北8条西5丁目","place":"北海道大学","lat":43.078,"lon":141.34,"state":"active","id":null},{"event_id":"67432","title":"【内閣府主催】RESASハッカソン2017 in 北海道 ～Web・IoTで創る北海道のミライ～","url":"https://connpass.com/event/67432/","shortener_url":"https://goo.gl/jis1E4","started_at":"2017-10-28T00:30:00.000+09:00","ended_at":"2017-10-29T09:30:00.000+09:00","limit_number":35,"address":"〒003-0005 札幌市白石区東札幌5条1丁目1－1","place":"ICC -インタークロス・クリエイティブ・センター-","lat":43.0562,"lon":141.386,"state":"active","id":null},{"event_id":"67666","title":"人材データハッカソ­ン by Team AI 10/6(金)","url":"https://teamai.connpass.com/event/67666/","shortener_url":"https://goo.gl/LQMk7M","started_at":"2017-10-06T19:00:00.000+09:00","ended_at":"2017-10-06T21:00:00.000+09:00","limit_number":10,"address":"","place":"Online","lat":35.6618,"lon":139.696,"state":"active","id":null},{"event_id":"67665","title":"医療データハッカソ­ン by Team AI 10/5(木)","url":"https://teamai.connpass.com/event/67665/","shortener_url":"https://goo.gl/K9aRXw","started_at":"2017-10-05T10:00:00.000+09:00","ended_at":"2017-10-05T12:00:00.000+09:00","limit_number":10,"address":"","place":"Online","lat":35.6618,"lon":139.696,"state":"active","id":null},{"event_id":"67664","title":"金融データハッカソ­ン by Team AI 10/4(水)","url":"https://teamai.connpass.com/event/67664/","shortener_url":"https://goo.gl/WaH7vw","started_at":"2017-10-04T10:00:00.000+09:00","ended_at":"2017-10-04T12:00:00.000+09:00","limit_number":10,"address":"","place":"Online","lat":35.6618,"lon":139.696,"state":"active","id":null},{"event_id":"67202","title":"カナザワオープンイノベーションハッカソン #ma_2017 金沢予選","url":"https://mashupawards.connpass.com/event/67202/","shortener_url":"https://goo.gl/ehBdaj","started_at":"2017-10-21T01:00:00.000+09:00","ended_at":"2017-10-22T10:30:00.000+09:00","limit_number":60,"address":"金沢市武蔵町14番31号","place":"ITビジネスプラザ武蔵","lat":36.5714,"lon":136.655,"state":"active","id":null},{"event_id":"67697","title":"「第2回TouchDesigner超入門」「第19回エフェクターミニハッカソン」","url":"https://effectorhack.connpass.com/event/67697/","shortener_url":"https://goo.gl/uYEGCL","started_at":"2017-10-01T13:30:00.000+09:00","ended_at":"2017-10-01T18:30:00.000+09:00","limit_number":30,"address":"東京都渋谷区渋谷1-7-7(住友不動産青山通ビル13階)","place":"CRI・ミドルウェアC会議室","lat":35.6605,"lon":139.706,"state":"active","id":null},{"event_id":"67744","title":"【サポーターズCoLab勉強会】WebエンジニアのためのMySQLデータ構造基礎","url":"https://supporterz-seminar.connpass.com/event/67744/","shortener_url":null,"started_at":"2017-10-11T19:30:00.000+09:00","ended_at":"2017-10-11T21:00:00.000+09:00","limit_number":40,"address":"東京都渋谷区道玄坂1-9-5","place":"渋谷スクエアA 11F","lat":35.6573,"lon":139.699,"state":"active","id":null},{"event_id":"67449","title":"【公立はこだて未来大学】JPHACKS2017説明会","url":"https://giveryengineersupport.connpass.com/event/67449/","shortener_url":null,"started_at":"2017-10-04T12:10:00.000+09:00","ended_at":"2017-10-04T12:50:00.000+09:00","limit_number":null,"address":"","place":"484教室","lat":null,"lon":null,"state":"active","id":null},{"event_id":"67833","title":"子ども向けプログラミングクラブ コーダー道場甲府#4","url":"https://coderdojokofu.connpass.com/event/67833/","shortener_url":null,"started_at":"2017-10-29T00:20:00.000+09:00","ended_at":"2017-10-29T02:40:00.000+09:00","limit_number":8,"address":"山梨県甲府市北口２丁目８番１号","place":"山梨県立図書館","lat":35.6685,"lon":138.57,"state":"active","id":null},{"event_id":"67807","title":"技術書典3 缶詰原稿ジャムの日","url":"https://techbookfest.connpass.com/event/67807/","shortener_url":"https://goo.gl/hXttMv","started_at":"2017-10-01T04:00:00.000+09:00","ended_at":"2017-10-01T08:00:00.000+09:00","limit_number":30,"address":"東京都中央区日本橋２丁目７ 日本橋２丁目７-１ 日本橋 タワー ２７階","place":"サイボウズ・東京オフィス","lat":35.6821,"lon":139.774,"state":"active","id":null},{"event_id":"67797","title":"We Are PureScripters #3 初心者歓迎 関数型JavaScript LT大会","url":"https://weps.connpass.com/event/67797/","shortener_url":null,"started_at":"2017-10-20T19:30:00.000+09:00","ended_at":"2017-10-20T21:30:00.000+09:00","limit_number":25,"address":"","place":"","lat":null,"lon":null,"state":"active","id":null},{"event_id":"67458","title":"【サポーターズCoLab勉強会】カンヌ受賞者が語るクリエイティブ ☓ テクノロジーの実例や現場の裏側","url":"https://supporterz-seminar.connpass.com/event/67458/","shortener_url":null,"started_at":"2017-10-05T19:30:00.000+09:00","ended_at":"2017-10-05T21:30:00.000+09:00","limit_number":40,"address":"東京都渋谷区道玄坂１丁目９−５","place":"渋谷スクエアA 11F","lat":35.6573,"lon":139.699,"state":"active","id":null},{"event_id":"66932","title":"【サポーターズCoLab勉強会】開発プロセスを改善したら、社内コミュニケーションも円滑になった話。","url":"https://supporterz-seminar.connpass.com/event/66932/","shortener_url":null,"started_at":"2017-10-04T19:45:00.000+09:00","ended_at":"2017-10-04T21:15:00.000+09:00","limit_number":20,"address":"東京都渋谷区道玄坂1-9-5","place":"渋谷スクエアA 11F","lat":35.6573,"lon":139.699,"state":"active","id":null},{"event_id":"66841","title":"【サポーターズCoLab勉強会】実践Laravel","url":"https://supporterz-seminar.connpass.com/event/66841/","shortener_url":null,"started_at":"2017-10-04T19:30:00.000+09:00","ended_at":"2017-10-04T21:00:00.000+09:00","limit_number":20,"address":"東京都渋谷区道玄坂1-9-5","place":"渋谷スクエアA 11F","lat":35.6573,"lon":139.699,"state":"active","id":null},{"event_id":"67179","title":"【サポーターズCoLab勉強会】Docker入門","url":"https://supporterz-seminar.connpass.com/event/67179/","shortener_url":null,"started_at":"2017-10-03T19:45:00.000+09:00","ended_at":"2017-10-03T21:15:00.000+09:00","limit_number":40,"address":"東京都渋谷区道玄坂１丁目９−５","place":"渋谷スクエアA 11F","lat":35.6573,"lon":139.699,"state":"active","id":null},{"event_id":"67112","title":"【サポーターズCoLab勉強会】サーバーレスアプリケーションのすすめ","url":"https://supporterz-seminar.connpass.com/event/67112/","shortener_url":null,"started_at":"2017-10-03T19:30:00.000+09:00","ended_at":"2017-10-03T21:00:00.000+09:00","limit_number":20,"address":"東京都渋谷区道玄坂1-9-5","place":"渋谷スクエアA 11F","lat":35.6573,"lon":139.699,"state":"active","id":null},{"event_id":"67144","title":"【サポーターズCoLab勉強会】20代エンジニアのキャリア論","url":"https://supporterz-seminar.connpass.com/event/67144/","shortener_url":null,"started_at":"2017-10-02T19:30:00.000+09:00","ended_at":"2017-10-02T21:30:00.000+09:00","limit_number":20,"address":"東京都渋谷区道玄坂1-9-5","place":"渋谷スクエアA 11F","lat":35.6573,"lon":139.699,"state":"active","id":null},{"event_id":"91296","title":"第286回 よちよちAndroid オフライン開発ミーティング in 大崎","url":"https://atnd.org/events/91296","shortener_url":null,"started_at":"2017-10-01T01:00:00.000+09:00","ended_at":"2017-10-01T03:00:00.000+09:00","limit_number":null,"address":"東京都品川区大崎1-11-1","place":"ゲートシティ大崎B1アトリウムフリー座席","lat":35.6194,"lon":139.731,"state":"closed","id":null},{"event_id":"67823","title":"第二回　PCNひろしま　こども向けプログラミング教室","url":"https://pcn-hiroshima.connpass.com/event/67823/","shortener_url":null,"started_at":"2017-10-07T07:10:00.000+09:00","ended_at":"2017-10-07T09:15:00.000+09:00","limit_number":12,"address":"広島県広島市南区京橋町1−7(広島京橋ビルディング)","place":"fabbit広島駅前","lat":34.3946,"lon":132.473,"state":"active","id":null},{"event_id":"91330","title":"第35回よちよちAndroid名古屋支部オフライン開発ミーティング","url":"https://atnd.org/events/91330","shortener_url":null,"started_at":"2017-10-01T00:00:00.000+09:00","ended_at":"2017-10-01T03:00:00.000+09:00","limit_number":null,"address":"名古屋市中区栄三丁目18番1号 ナディアパーク デザインセンタービル6階","place":"名古屋市市民活動推進センター","lat":35.1654,"lon":136.905,"state":"closed","id":null},{"event_id":"67844","title":"チャレンジ！オープンガバナンス＆アーバンデータチャレンジ2017キックオフCodeforKyoto","url":"https://code4kyoto.connpass.com/event/67844/","shortener_url":null,"started_at":"2017-10-07T05:00:00.000+09:00","ended_at":"2017-10-07T09:00:00.000+09:00","limit_number":20,"address":"京都府京都市中京区手洗水町647","place":"Oinai Karasuma","lat":35.006,"lon":135.76,"state":"active","id":null},{"event_id":"67718","title":"第2回 Unity勉強会【初心者も大歓迎！】","url":"https://chiikiokoshi-vr.connpass.com/event/67718/","shortener_url":null,"started_at":"2017-10-22T13:00:00.000+09:00","ended_at":"2017-10-22T18:00:00.000+09:00","limit_number":30,"address":"島根県松江市津田町301番地","place":"AJITO","lat":35.4609,"lon":133.066,"state":"active","id":null},{"event_id":"67955","title":"【サポーターズCoLab勉強会】新規システムのためのLaravel導入とユースケース駆動開発の話","url":"https://supporterz-seminar.connpass.com/event/67955/","shortener_url":null,"started_at":"2017-10-10T19:45:00.000+09:00","ended_at":"2017-10-10T21:15:00.000+09:00","limit_number":20,"address":"東京都渋谷区道玄坂1-9-5","place":"渋谷スクエアA 11F","lat":35.6573,"lon":139.699,"state":"active","id":null},{"event_id":"67948","title":"LIGあいであそん Vol.1","url":"https://lig.connpass.com/event/67948/","shortener_url":null,"started_at":"2017-10-13T10:00:00.000+09:00","ended_at":"2017-10-13T13:30:00.000+09:00","limit_number":50,"address":"〒110-0015 東京都台東区東上野２丁目１８−７ 共同ビル上野","place":"株式会社LIG/いいオフィス","lat":35.7103,"lon":139.777,"state":"active","id":null},{"event_id":"91342","title":"【全応募70名突破】 急成長ベンチャー6社CEOと直接話せる交流会 Vol.3","url":"https://atnd.org/events/91342","shortener_url":null,"started_at":"2017-10-10T10:00:00.000+09:00","ended_at":"2017-10-10T12:30:00.000+09:00","limit_number":30,"address":"東京都渋谷区円山町28-3(いちご渋谷道玄坂ビル5F)","place":"株式会社Branding Engineer","lat":35.6559,"lon":139.695,"state":"closed","id":null},{"event_id":"68084","title":"クラッピーチャレンジ in ヒャッカソン(Clap@thon)","url":"https://sin-tai-sei.connpass.com/event/68084/","shortener_url":"https://goo.gl/RDsGXY","started_at":"2017-10-01T02:00:00.000+09:00","ended_at":"2017-10-01T09:00:00.000+09:00","limit_number":118,"address":"東京都品川区平塚１-６-18","place":"蜃気楼カフェ ヱリクサー（ＡＲＩザサードビル4F）","lat":35.6157,"lon":139.716,"state":"active","id":null},{"event_id":"68035","title":"【サポーターズCoLab勉強会】Seleniumを使ったブラウザテスト(E2Eテスト)の導","url":"https://supporterz-seminar.connpass.com/event/68035/","shortener_url":null,"started_at":"2017-10-18T19:45:00.000+09:00","ended_at":"2017-10-18T21:15:00.000+09:00","limit_number":20,"address":"東京都渋谷区道玄坂1-9-5","place":"渋谷スクエアA 11F","lat":35.6573,"lon":139.699,"state":"active","id":null},{"event_id":"67999","title":"【サポーターズCoLab勉強会】フル活用！コードだけじゃなくチームもGithub管理術","url":"https://supporterz-seminar.connpass.com/event/67999/","shortener_url":null,"started_at":"2017-10-11T19:45:00.000+09:00","ended_at":"2017-10-11T21:15:00.000+09:00","limit_number":20,"address":"東京都渋谷区道玄坂1-9-5","place":"渋谷スクエアA 11F","lat":35.6573,"lon":139.699,"state":"active","id":null},{"event_id":"66937","title":"PPUG  #4 - PayPalが使えるECサービス徹底解剖！ -","url":"https://ppug.connpass.com/event/66937/","shortener_url":null,"started_at":"2017-10-12T19:00:00.000+09:00","ended_at":"2017-10-12T22:00:00.000+09:00","limit_number":37,"address":"〒150-0002 東京都渋谷区渋谷２丁目２２−３　渋谷東口ビル 11F","place":"新しい働き方ラボ","lat":35.6586,"lon":139.704,"state":"active","id":null},{"event_id":"67973","title":"ゲームジャム高梁2017","url":"https://okauni.connpass.com/event/67973/","shortener_url":"https://goo.gl/LKXTzd","started_at":"2017-10-21T00:00:00.000+09:00","ended_at":"2017-10-22T11:00:00.000+09:00","limit_number":69,"address":"〒716-0007 岡山県高梁市奥万田町３７５２−１","place":"吉備国際大学 国際交流会館","lat":34.7959,"lon":133.623,"state":"active","id":null},{"event_id":"68085","title":"Panjiva: グローバルサプライチェーンを可視化し、知見を得る","url":"https://connpass.com/event/68085/","shortener_url":null,"started_at":"2017-10-26T14:45:00.000+09:00","ended_at":"2017-10-26T16:45:00.000+09:00","limit_number":40,"address":"Japan, 〒102-0093 Tokyo, Chiyoda, Hirakawacho, 2 Chome−７ ＰＭＯ平河町","place":"ベイシス・テクノロジー株式会社","lat":35.679,"lon":139.74,"state":"active","id":null},{"event_id":"67912","title":"UX MILK Workstyle 09 feat. freee","url":"https://uxmilk.connpass.com/event/67912/","shortener_url":null,"started_at":"2017-10-11T10:30:00.000+09:00","ended_at":"2017-10-11T12:45:00.000+09:00","limit_number":150,"address":"東京都品川区西五反田2-8-1 (五反田ファーストビル 9F)","place":"freee株式会社","lat":35.6268,"lon":139.722,"state":"active","id":null},{"event_id":"68136","title":"【サポーターズCoLab勉強会】20代エンジニアのキャリア論","url":"https://supporterz-seminar.connpass.com/event/68136/","shortener_url":null,"started_at":"2017-10-17T19:30:00.000+09:00","ended_at":"2017-10-17T21:30:00.000+09:00","limit_number":30,"address":"東京都渋谷区道玄坂1-9-5","place":"渋谷スクエアA 11F","lat":35.6573,"lon":139.699,"state":"active","id":null},{"event_id":"68134","title":"【サポーターズCoLab勉強会】真のUniversal JavaScript入門","url":"https://supporterz-seminar.connpass.com/event/68134/","shortener_url":null,"started_at":"2017-10-18T19:30:00.000+09:00","ended_at":"2017-10-18T21:00:00.000+09:00","limit_number":20,"address":"東京都渋谷区道玄坂1-9-5","place":"渋谷スクエアA 11F","lat":35.6573,"lon":139.699,"state":"active","id":null},{"event_id":"67517","title":"メディア×テクノロジー デジタル時代のメディアの挑戦","url":"https://onajp.connpass.com/event/67517/","shortener_url":null,"started_at":"2017-10-30T19:00:00.000+09:00","ended_at":"2017-10-30T21:30:00.000+09:00","limit_number":120,"address":"大阪市北区大深町3番1号　グランフロント大阪 ナレッジキャピタルタワーC 7階","place":"大阪イノベーションハブ","lat":34.7059,"lon":135.495,"state":"active","id":null},{"event_id":"68099","title":"汎用人工知能を創ろう!勉強会 by Team AI 10/12(木)","url":"https://teamai.connpass.com/event/68099/","shortener_url":null,"started_at":"2017-10-12T19:00:00.000+09:00","ended_at":"2017-10-12T21:00:00.000+09:00","limit_number":10,"address":"東京都渋谷区渋谷2-17-3","place":"渋谷アイビスビル401号室 ","lat":35.6593,"lon":139.705,"state":"active","id":null},{"event_id":"68253","title":"【忍者募集】生駒開催：子ども向けプログラミング道場（No.39）","url":"https://coderdojo-nara-ikoma.connpass.com/event/68253/","shortener_url":null,"started_at":"2017-10-07T13:00:00.000+09:00","ended_at":"2017-10-07T16:00:00.000+09:00","limit_number":14,"address":"奈良県生駒市元町1丁目7番6号","place":"市民活動推進センターららポート","lat":34.6919,"lon":135.698,"state":"active","id":null},{"event_id":"68233","title":"【サポーターズCoLab勉強会】元COBOLerが送るSIerからWeb系への転職方法概論","url":"https://supporterz-seminar.connpass.com/event/68233/","shortener_url":null,"started_at":"2017-10-24T19:30:00.000+09:00","ended_at":"2017-10-24T21:00:00.000+09:00","limit_number":20,"address":"東京都渋谷区道玄坂1-9-5","place":"渋谷スクエアA 11F","lat":35.6573,"lon":139.699,"state":"active","id":null},{"event_id":"68118","title":"【大阪】現役フリーランスエンジニア3名に聞く！独立前に知っておきたい“フリーランスノウハウ”","url":"https://connpass.com/event/68118/","shortener_url":null,"started_at":"2017-10-18T19:30:00.000+09:00","ended_at":"2017-10-18T21:00:00.000+09:00","limit_number":15,"address":"大阪府大阪市北区梅田1丁目11番4-923号(大阪駅前第4ビル9階)","place":"ジョーズビジネスセンター　大会議室","lat":34.6999,"lon":135.499,"state":"active","id":null},{"event_id":"68192","title":"マーケティングデー­タハッカソン by Team AI 10/13(金)","url":"https://teamai.connpass.com/event/68192/","shortener_url":"https://goo.gl/jQb8o8","started_at":"2017-10-13T19:00:00.000+09:00","ended_at":"2017-10-13T21:00:00.000+09:00","limit_number":10,"address":"東京都渋谷区渋谷2-17-3","place":"渋谷アイビスビル401号室 ","lat":35.6593,"lon":139.705,"state":"active","id":null},{"event_id":"68313","title":"【サポーターズCoLab勉強会】AWS vs GCP 今から作るならどっちがいいの！？","url":"https://supporterz-seminar.connpass.com/event/68313/","shortener_url":null,"started_at":"2017-10-19T20:00:00.000+09:00","ended_at":"2017-10-19T21:30:00.000+09:00","limit_number":20,"address":"東京都渋谷区道玄坂1-9-5","place":"渋谷スクエアA 11F","lat":35.6573,"lon":139.699,"state":"active","id":null},{"event_id":"68263","title":"ブロックチェーンハッ­カソン by Team AI 10/16(月)","url":"https://teamai.connpass.com/event/68263/","shortener_url":"https://goo.gl/f2dKDT","started_at":"2017-10-16T19:00:00.000+09:00","ended_at":"2017-10-16T21:00:00.000+09:00","limit_number":10,"address":"東京都渋谷区渋谷2-17-3","place":"渋谷アイビスビル401号室 ","lat":35.6593,"lon":139.705,"state":"active","id":null},{"event_id":"68258","title":"自然言語データハッ­カソン by Team AI 10/14(土)","url":"https://teamai.connpass.com/event/68258/","shortener_url":"https://goo.gl/ZKorMo","started_at":"2017-10-14T14:00:00.000+09:00","ended_at":"2017-10-14T16:00:00.000+09:00","limit_number":10,"address":"東京都渋谷区渋谷2-17-3","place":"渋谷アイビスビル401号室 ","lat":35.6593,"lon":139.705,"state":"active","id":null},{"event_id":"68285","title":"【神戸大学】JPHACKS2017説明会","url":"https://giveryengineersupport.connpass.com/event/68285/","shortener_url":null,"started_at":"2017-10-05T15:10:00.000+09:00","ended_at":"2017-10-05T15:40:00.000+09:00","limit_number":null,"address":"","place":"神戸大学 工学部校舎　C3-201教室","lat":null,"lon":null,"state":"active","id":null},{"event_id":"68283","title":"【同志社大学】JPHACKS2017説明会","url":"https://giveryengineersupport.connpass.com/event/68283/","shortener_url":null,"started_at":"2017-10-04T12:15:00.000+09:00","ended_at":"2017-10-04T12:55:00.000+09:00","limit_number":null,"address":"","place":"香知館103","lat":null,"lon":null,"state":"active","id":null},{"event_id":"68280","title":"【関西大学】JPHACKS2017説明会","url":"https://giveryengineersupport.connpass.com/event/68280/","shortener_url":null,"started_at":"2017-10-06T15:30:00.000+09:00","ended_at":"2017-10-06T16:00:00.000+09:00","limit_number":null,"address":"〒569-1095 大阪府高槻市霊仙寺町2丁目1番1号","place":"関西大学 高槻キャンパス","lat":34.878,"lon":135.576,"state":"active","id":null},{"event_id":"67451","title":"【九州工業大学】JPHACKS2017説明会","url":"https://giveryengineersupport.connpass.com/event/67451/","shortener_url":null,"started_at":"2017-10-03T18:00:00.000+09:00","ended_at":"2017-10-03T18:30:00.000+09:00","limit_number":null,"address":"〒820-8502　福岡県飯塚市川津680-4","place":"九州工業大学　飯塚キャンパス","lat":33.6535,"lon":130.673,"state":"active","id":null},{"event_id":"68273","title":"【京都コンピュータ学院】JPHACKS2017説明会","url":"https://giveryengineersupport.connpass.com/event/68273/","shortener_url":null,"started_at":"2017-10-04T17:00:00.000+09:00","ended_at":"2017-10-04T17:30:00.000+09:00","limit_number":null,"address":"京都市南区西九条寺ノ前町10-5 京都駅前校","place":"E510教室","lat":34.985,"lon":135.753,"state":"active","id":null},{"event_id":"67460","title":"【北九州市立大学】JPHACKS2017説明会","url":"https://giveryengineersupport.connpass.com/event/67460/","shortener_url":null,"started_at":"2017-10-02T17:15:00.000+09:00","ended_at":"2017-10-02T18:00:00.000+09:00","limit_number":null,"address":"〒808-0135　福岡県北九州市若松区ひびきの１番１号","place":"北九州市立大学ひびきのキャンパス","lat":33.8896,"lon":130.714,"state":"active","id":null},{"event_id":"65027","title":"林業★ナイト in Sapporo ","url":"https://hph2016.doorkeeper.jp/events/65027","shortener_url":null,"started_at":"2017-10-10T19:30:00.000+09:00","ended_at":"2017-10-10T21:30:00.000+09:00","limit_number":50,"address":"札幌市中央区南二条西二丁目　富樫ビル（ザ・ダイソー）Ｂ１","place":"シネマカフェ","lat":43.0584,"lon":141.356,"state":"active","id":null},{"event_id":"65278","title":"Rubyとmrubyを活用したプログラミング教育アイディアソン","url":"https://rubyassociation.doorkeeper.jp/events/65278","shortener_url":"https://goo.gl/BMcSvr","started_at":"2017-10-03T14:30:00.000+09:00","ended_at":"2017-10-03T17:00:00.000+09:00","limit_number":30,"address":" 島根県松江市朝日町478−18","place":"松江テルサ大会議室","lat":35.464,"lon":133.062,"state":"active","id":null},{"event_id":"65276","title":"パラレルキャリアの始め方","url":"https://swtokyo.doorkeeper.jp/events/65276","shortener_url":null,"started_at":"2017-10-07T13:00:00.000+09:00","ended_at":"2017-10-07T14:30:00.000+09:00","limit_number":15,"address":"東京都千代田区大手町2-6-1","place":"fabbit大手町","lat":35.6845,"lon":139.769,"state":"active","id":null},{"event_id":"65299","title":"クラウドファンディングの始め方","url":"https://swtokyo.doorkeeper.jp/events/65299","shortener_url":null,"started_at":"2017-10-07T15:00:00.000+09:00","ended_at":"2017-10-07T17:00:00.000+09:00","limit_number":35,"address":"東京都千代田区大手町2-6-1","place":"fabbit大手町","lat":35.6845,"lon":139.769,"state":"active","id":null},{"event_id":"65217","title":"SWコミュニティメンバーの交流イベント (2017.10)","url":"https://swtokyo.doorkeeper.jp/events/65217","shortener_url":null,"started_at":"2017-10-11T19:30:00.000+09:00","ended_at":"2017-10-11T21:30:00.000+09:00","limit_number":21,"address":"東京都千代田区神田錦町1丁目17-1 NK第一ビル 6F.7F","place":"Birth KANDA","lat":35.6911,"lon":139.764,"state":"active","id":null},{"event_id":"65645","title":"中南米の文化もわかる！ラテン諸国の金融からスペイン語を学ぶ♪","url":"https://crowd-credit.doorkeeper.jp/events/65645","shortener_url":null,"started_at":"2017-10-04T19:00:00.000+09:00","ended_at":"2017-10-04T21:00:00.000+09:00","limit_number":20,"address":"東京都 中央区日本橋 茅場町 1-5-8 東京証券会館1F","place":"CAFE SALVADOR Business Salon","lat":35.6806,"lon":139.779,"state":"active","id":null},{"event_id":"65610","title":"自分の思考パターンを打ち破れ！”新しい”アイディアの見つけ方。〜Startup Weekend Tokyo Space プレイベント 第2弾〜","url":"https://swtokyo.doorkeeper.jp/events/65610","shortener_url":null,"started_at":"2017-10-06T19:00:00.000+09:00","ended_at":"2017-10-06T21:00:00.000+09:00","limit_number":30,"address":"東京都千代田区大手町2-6-1　朝日生命大手町ビル","place":"fabbit 大手町","lat":35.6845,"lon":139.769,"state":"active","id":null},{"event_id":"64468","title":"『GovHack 千葉市』LINE@を活用したあなたのアイデアで自治体をもっと身近に","url":"https://hackcamp.doorkeeper.jp/events/64468","shortener_url":null,"started_at":"2017-10-13T18:00:00.000+09:00","ended_at":"2017-10-14T20:00:00.000+09:00","limit_number":30,"address":"千葉県 千葉市 美浜区若葉３丁目1-21","place":"幕張BASE×LIBRARY","lat":35.6458,"lon":140.052,"state":"active","id":null},{"event_id":"68412","title":"熊ゆに Unityもくもく会　2017/10/11（水）","url":"https://kumauni.connpass.com/event/68412/","shortener_url":null,"started_at":"2017-10-11T10:00:00.000+09:00","ended_at":"2017-10-11T12:00:00.000+09:00","limit_number":11,"address":"熊本県熊本市 中央区下通１丁目１２−２７","place":"未来会議室","lat":32.7998,"lon":130.708,"state":"active","id":null},{"event_id":"68565","title":"(中級)FinTechデータ分析ハッカソン by Team AI 10/18(水)","url":"https://teamai.connpass.com/event/68565/","shortener_url":"https://goo.gl/dEyQfT","started_at":"2017-10-18T19:00:00.000+09:00","ended_at":"2017-10-18T21:00:00.000+09:00","limit_number":10,"address":"東京都渋谷区渋谷2-17-3","place":"渋谷アイビスビル401号室 ","lat":35.6593,"lon":139.705,"state":"active","id":null},{"event_id":"68463","title":"【電気通信大学】JPHACKS2017説明会","url":"https://giveryengineersupport.connpass.com/event/68463/","shortener_url":null,"started_at":"2017-10-11T18:00:00.000+09:00","ended_at":"2017-10-11T18:30:00.000+09:00","limit_number":null,"address":"〒182-8585　東京都調布市調布ヶ丘1-5-1","place":"電気通信大学","lat":35.6557,"lon":139.544,"state":"active","id":null},{"event_id":"68486","title":"【サポーターズCoLab勉強会】スナップショットテストのすゝめ","url":"https://supporterz-seminar.connpass.com/event/68486/","shortener_url":null,"started_at":"2017-10-19T19:45:00.000+09:00","ended_at":"2017-10-19T21:15:00.000+09:00","limit_number":20,"address":"東京都渋谷区道玄坂1-9-5","place":"渋谷スクエアA 11F","lat":35.6573,"lon":139.699,"state":"active","id":null},{"event_id":"67700","title":"【サポーターズCoLab勉強会】iOS ViewControllerの責務分けを考える","url":"https://supporterz-seminar.connpass.com/event/67700/","shortener_url":null,"started_at":"2017-10-10T19:30:00.000+09:00","ended_at":"2017-10-10T21:00:00.000+09:00","limit_number":20,"address":"東京都渋谷区道玄坂1-9-5","place":"渋谷スクエアA 11F","lat":35.6573,"lon":139.699,"state":"active","id":null},{"event_id":"68649","title":"【勉強会】NewRelic / Elasticsearch ではじめるSREに必要な性能監視入門","url":"https://supporterz-seminar.connpass.com/event/68649/","shortener_url":null,"started_at":"2017-10-26T19:30:00.000+09:00","ended_at":"2017-10-26T21:00:00.000+09:00","limit_number":20,"address":"東京都渋谷区道玄坂1-9-5","place":"渋谷スクエアA 11F","lat":35.6573,"lon":139.699,"state":"active","id":null},{"event_id":"68641","title":"『GovHack 千葉市』LINE@を活用したあなたのアイデアで自治体をもっと身近に","url":"https://connpass.com/event/68641/","shortener_url":null,"started_at":"2017-10-13T09:00:00.000+09:00","ended_at":"2017-10-14T12:30:00.000+09:00","limit_number":null,"address":"千葉市美浜区若葉3-1-21（幕張BASE×LIBRARY）","place":"幕張BASE×LIBRARY","lat":35.6487,"lon":140.053,"state":"active","id":null},{"event_id":"68749","title":"【サポーターズCoLab勉強会】初めてのVue.js","url":"https://supporterz-seminar.connpass.com/event/68749/","shortener_url":null,"started_at":"2017-10-26T19:45:00.000+09:00","ended_at":"2017-10-26T21:15:00.000+09:00","limit_number":20,"address":"東京都渋谷区道玄坂1-9-5","place":"渋谷スクエアA 11F","lat":35.6573,"lon":139.699,"state":"active","id":null},{"event_id":"68726","title":"Medicalデータ分析ハッカソン by Team AI 10/19(木)","url":"https://teamai.connpass.com/event/68726/","shortener_url":"https://goo.gl/xJDu4v","started_at":"2017-10-19T19:00:00.000+09:00","ended_at":"2017-10-19T21:00:00.000+09:00","limit_number":10,"address":"東京都渋谷区渋谷2-17-3","place":"渋谷アイビスビル401号室 ","lat":35.6593,"lon":139.705,"state":"active","id":null},{"event_id":"91598","title":"第36回よちよちAndroid名古屋支部オフライン開発ミーティング","url":"https://atnd.org/events/91598","shortener_url":null,"started_at":"2017-10-15T00:00:00.000+09:00","ended_at":"2017-10-15T03:00:00.000+09:00","limit_number":null,"address":"名古屋市中区栄三丁目18番1号 ナディアパーク デザインセンタービル6階","place":"名古屋市市民活動推進センター","lat":35.1654,"lon":136.905,"state":"closed","id":null},{"event_id":"68771","title":"シビックテックにおける創造的社会活動の研究会 第1回","url":"https://cfk.connpass.com/event/68771/","shortener_url":null,"started_at":"2017-10-23T10:00:00.000+09:00","ended_at":"2017-10-23T12:00:00.000+09:00","limit_number":35,"address":"金沢市本町2-15-１","place":"北陸先端科学技術大学院大学 金沢駅前オフィス（ポルテ金沢12F）","lat":36.5763,"lon":136.649,"state":"active","id":null},{"event_id":"68876","title":"[秋葉原] 第12回 ゆるふわIoT電子工作入門","url":"https://weeyble-iot.connpass.com/event/68876/","shortener_url":null,"started_at":"2017-10-15T13:00:00.000+09:00","ended_at":"2017-10-15T18:00:00.000+09:00","limit_number":12,"address":"東京都千代田区神田須田町２丁目１９−２３ (野村第３ビル ４階)","place":"コワーキングスペース秋葉原Weeyble","lat":35.6966,"lon":139.772,"state":"active","id":null},{"event_id":"68832","title":"第2回 どっぷり勉強会 ~画像認識~ in 柏の葉","url":"https://jam-digital.connpass.com/event/68832/","shortener_url":null,"started_at":"2017-10-11T10:00:00.000+09:00","ended_at":"2017-10-11T12:00:00.000+09:00","limit_number":13,"address":"千葉県柏市 若柴178番地4 柏の葉キャンパス148 街区2 ショップ＆オフィス棟6階","place":"柏の葉オープンイノベーションラボ(KOIL)","lat":35.894,"lon":139.953,"state":"active","id":null},{"event_id":"68786","title":"（中級）人材データハッカソ­­ン by Team AI 10/20(金)","url":"https://teamai.connpass.com/event/68786/","shortener_url":"https://goo.gl/M4xmAa","started_at":"2017-10-20T19:00:00.000+09:00","ended_at":"2017-10-20T21:00:00.000+09:00","limit_number":10,"address":"東京都渋谷区渋谷2-17-3","place":"渋谷アイビスビル401号室 ","lat":35.6593,"lon":139.705,"state":"active","id":null},{"event_id":"68525","title":"fukuoka.ex#3 (懇親会も)：プログラミング入門＆もくもく会 ～福岡Elixir会～","url":"https://techjin.connpass.com/event/68525/","shortener_url":null,"started_at":"2017-10-27T19:00:00.000+09:00","ended_at":"2017-10-27T21:00:00.000+09:00","limit_number":21,"address":" 株式会社TechJIN  〒810-0001 福岡県福岡市中央区天神3-4-3大隈ビル8F","place":"株式会社TechJIN","lat":33.5919,"lon":130.396,"state":"active","id":null},{"event_id":"67625","title":"Unityでゲームを作ろう！vol.1","url":"https://osaka.connpass.com/event/67625/","shortener_url":null,"started_at":"2017-10-20T10:00:00.000+09:00","ended_at":"2017-10-20T12:30:00.000+09:00","limit_number":30,"address":"オンライン","place":"オンライン","lat":34.6849,"lon":135.501,"state":"active","id":null},{"event_id":"68964","title":"World MoveIt! Day Tokyo","url":"https://rosjp.connpass.com/event/68964/","shortener_url":null,"started_at":"2017-10-19T11:00:00.000+09:00","ended_at":"2017-10-19T18:00:00.000+09:00","limit_number":40,"address":"東京都千代田区有楽町2-10-1(東京交通会館ビル6階)","place":"LEAGUE有楽町","lat":35.675,"lon":139.764,"state":"active","id":null},{"event_id":"68948","title":"【サポーターズCoLab勉強会】Writing Lint for Ruby","url":"https://supporterz-seminar.connpass.com/event/68948/","shortener_url":null,"started_at":"2017-10-24T19:45:00.000+09:00","ended_at":"2017-10-24T21:15:00.000+09:00","limit_number":20,"address":"東京都渋谷区道玄坂1-9-5","place":"渋谷スクエアA 11F","lat":35.6573,"lon":139.699,"state":"active","id":null},{"event_id":"68922","title":"1か月で人工知能を活用したヒアリ分類サービスを作り人工知能の基礎を学ぼう！【説明会】","url":"https://study-ai.connpass.com/event/68922/","shortener_url":null,"started_at":"2017-10-21T13:00:00.000+09:00","ended_at":"2017-10-21T14:30:00.000+09:00","limit_number":null,"address":"","place":"渋谷駅徒歩数分","lat":35.6603,"lon":139.706,"state":"active","id":null},{"event_id":"91628","title":"1か月で人工知能を活用したヒアリ分類サービスを作り人工知能の基礎を学ぼう！【説明会】","url":"https://atnd.org/events/91628","shortener_url":null,"started_at":"2017-10-21T13:00:00.000+09:00","ended_at":"2017-10-21T14:30:00.000+09:00","limit_number":5,"address":"東京都渋谷区渋谷 1-8-3TOC第1ビル2階","place":"みんなの会議室　渋谷宮益坂","lat":35.6603,"lon":139.706,"state":"closed","id":null},{"event_id":"91707","title":"【親子参加】ロボット制作＆プログラミング体験ワークショップ","url":"https://atnd.org/events/91707","shortener_url":null,"started_at":"2017-10-14T10:30:00.000+09:00","ended_at":"2017-10-14T15:30:00.000+09:00","limit_number":10,"address":"東京都港区新橋一丁目12番9号","place":"新橋ツクモデジタル.ライフ館　6F　イベントスペース（JR新橋駅より歩いてすぐ）","lat":35.6676,"lon":139.759,"state":"closed","id":null},{"event_id":"69002","title":"Lean Architecture / DCI Evening","url":"https://mpdosaka.connpass.com/event/69002/","shortener_url":null,"started_at":"2017-10-18T18:30:00.000+09:00","ended_at":"2017-10-18T21:00:00.000+09:00","limit_number":25,"address":"東京都新宿区西新宿8-17-1 (住友不動産新宿グランドタワー12F)","place":"ポート株式会社 本社","lat":35.696,"lon":139.691,"state":"active","id":null},{"event_id":"69162","title":"【増枠！】【受講生1000人突破！】今から学ぶ機械学習","url":"https://kikagaku.connpass.com/event/69162/","shortener_url":null,"started_at":"2017-10-25T19:30:00.000+09:00","ended_at":"2017-10-25T21:30:00.000+09:00","limit_number":15,"address":"豊島区池袋2-72-8 笹井ビル 2F","place":"株式会社キカガク 池袋オフィス（池袋駅北口徒歩８分）","lat":35.7363,"lon":139.71,"state":"active","id":null},{"event_id":"69098","title":"【増枠！】【受講生1000人突破！】今から学ぶ機械学習","url":"https://kikagaku.connpass.com/event/69098/","shortener_url":null,"started_at":"2017-10-18T19:30:00.000+09:00","ended_at":"2017-10-18T21:30:00.000+09:00","limit_number":15,"address":"豊島区池袋2-72-8 笹井ビル 2F","place":"株式会社キカガク 池袋オフィス（池袋駅北口徒歩８分）","lat":35.7363,"lon":139.71,"state":"active","id":null},{"event_id":"69143","title":"BokepMesum","url":"https://connpass.com/event/69143/","shortener_url":null,"started_at":"2017-10-15T00:30:00.000+09:00","ended_at":"2017-10-15T02:30:00.000+09:00","limit_number":null,"address":"","place":"","lat":null,"lon":null,"state":"active","id":null},{"event_id":"91725","title":"第287回 よちよちAndroid オフライン開発ミーティング in 大崎","url":"https://atnd.org/events/91725","shortener_url":null,"started_at":"2017-10-15T00:00:00.000+09:00","ended_at":"2017-10-15T03:00:00.000+09:00","limit_number":null,"address":"東京都品川区大崎1-11-1","place":"ゲートシティ大崎B1アトリウムフリー座席","lat":35.6194,"lon":139.731,"state":"closed","id":null},{"event_id":"68722","title":"ITもの作りワークショップ（ハッカソン）@高知 #MA_2017","url":"https://mashupawards.connpass.com/event/68722/","shortener_url":"https://goo.gl/UF1cBw","started_at":"2017-10-28T10:00:00.000+09:00","ended_at":"2017-10-29T20:00:00.000+09:00","limit_number":30,"address":"高知市永国寺町6-28","place":"高知県立大学・高知工科大学 永国寺キャンパス地域連携棟４階「多目的ホール」","lat":33.5632,"lon":133.535,"state":"active","id":null},{"event_id":"69309","title":"【サポーターズCoLab勉強会】はてなエンジニアが贈るはじめてのMackerel","url":"https://supporterz-seminar.connpass.com/event/69309/","shortener_url":null,"started_at":"2017-10-31T19:30:00.000+09:00","ended_at":"2017-10-31T21:30:00.000+09:00","limit_number":20,"address":"東京都渋谷区道玄坂1-9-5","place":"渋谷スクエアA 11F","lat":35.6573,"lon":139.699,"state":"active","id":null},{"event_id":"68924","title":"1か月で人工知能を活用したヒアリ分類サービスを作り人工知能の基礎を学ぼう！【説明会】","url":"https://study-ai.connpass.com/event/68924/","shortener_url":null,"started_at":"2017-10-28T13:00:00.000+09:00","ended_at":"2017-10-28T14:30:00.000+09:00","limit_number":null,"address":"","place":"渋谷駅徒歩数分","lat":35.6603,"lon":139.706,"state":"active","id":null},{"event_id":"69148","title":"【中止】会津ハッカソン連動ハンズオン！ #ma_2017","url":"https://mashupawards.connpass.com/event/69148/","shortener_url":"https://goo.gl/Sx7mvo","started_at":"2017-10-27T19:00:00.000+09:00","ended_at":"2017-10-27T21:30:00.000+09:00","limit_number":20,"address":"会津若松市一箕町鶴賀上居合90","place":"会津大学 講義等 M9教室","lat":37.5238,"lon":139.939,"state":"active","id":null},{"event_id":"62463","title":"第2回Fukuoka Raspberry Pi JAM","url":"https://fukuras.connpass.com/event/62463/","shortener_url":"https://goo.gl/EPNHgD","started_at":"2017-10-30T10:00:00.000+09:00","ended_at":"2017-10-30T12:00:00.000+09:00","limit_number":20,"address":"福岡県福岡市博多区博多駅東1-12-17 (オフィスニューガイア博多駅前3F)","place":"スタートアップカフェBASES","lat":33.5909,"lon":130.423,"state":"active","id":null},{"event_id":"91629","title":"1か月で人工知能を活用したヒアリ分類サービスを作り人工知能の基礎を学ぼう！【説明会】","url":"https://atnd.org/events/91629","shortener_url":null,"started_at":"2017-10-28T13:00:00.000+09:00","ended_at":"2017-10-28T14:30:00.000+09:00","limit_number":5,"address":"","place":"渋谷駅徒歩数分","lat":null,"lon":null,"state":"closed","id":null},{"event_id":"91058","title":"ロボット×人工知能 ～音声認識で革命が起こる～","url":"https://atnd.org/events/91058","shortener_url":null,"started_at":"2017-10-28T01:00:00.000+09:00","ended_at":"2017-10-28T03:00:00.000+09:00","limit_number":30,"address":"〒169-0072 東京都新宿区 大久保1-7-18 アサヒニューシティビル 4F","place":"〒169-0072 東京都新宿区 大久保1-7-18 アサヒニューシティビル 4F","lat":35.7008,"lon":139.705,"state":"closed","id":null},{"event_id":"69293","title":"新世紀 ショッカソン","url":"https://sin-tai-sei.connpass.com/event/69293/","shortener_url":"https://goo.gl/FRZ2iq","started_at":"2017-10-21T02:00:00.000+09:00","ended_at":"2017-10-21T09:00:00.000+09:00","limit_number":10,"address":"東京都千代田区神田須田町2-19-34 KOWAビル6F","place":"（株）ビット・トレード・ワン 東京デザイン室 6F バルコニー付き会議室","lat":35.6964,"lon":139.772,"state":"active","id":null},{"event_id":"69328","title":"汎用人工知能(AGI)を創ろう!研究会 by Team AI 10/26(木)","url":"https://teamai.connpass.com/event/69328/","shortener_url":null,"started_at":"2017-10-26T19:00:00.000+09:00","ended_at":"2017-10-26T21:00:00.000+09:00","limit_number":10,"address":"東京都渋谷区渋谷2-17-3","place":"渋谷アイビスビル401号室 ","lat":35.6593,"lon":139.705,"state":"active","id":null},{"event_id":"69462","title":"【好評につき新企画】初心者でもアプリが作れる!? iPhoneアプリ入門講座","url":"https://modelor-school.connpass.com/event/69462/","shortener_url":null,"started_at":"2017-10-27T19:30:00.000+09:00","ended_at":"2017-10-27T21:30:00.000+09:00","limit_number":null,"address":"〒606-8204 京都市左京区田中下柳町7-2","place":"かぜのね","lat":35.0299,"lon":135.774,"state":"active","id":null},{"event_id":"69450","title":"クラウディア窓辺生誕祭2017","url":"https://claudia.connpass.com/event/69450/","shortener_url":null,"started_at":"2017-10-20T11:00:00.000+09:00","ended_at":"2017-10-20T14:00:00.000+09:00","limit_number":33,"address":"東京都千代田区外神田3-2-13 山口ビルB1F","place":"JAM AKIHABARA","lat":35.7004,"lon":139.77,"state":"active","id":null},{"event_id":"69454","title":"【サポーターズCoLab勉強会】サルでもわかるオープンデータ入門","url":"https://supporterz-seminar.connpass.com/event/69454/","shortener_url":null,"started_at":"2017-10-31T19:45:00.000+09:00","ended_at":"2017-10-31T21:15:00.000+09:00","limit_number":20,"address":"東京都渋谷区道玄坂1-9-5","place":"渋谷スクエアA 11F","lat":35.6573,"lon":139.699,"state":"active","id":null},{"event_id":"68315","title":"BPLL #14","url":"https://bpstudy.connpass.com/event/68315/","shortener_url":null,"started_at":"2017-10-31T12:10:00.000+09:00","ended_at":"2017-10-31T13:00:00.000+09:00","limit_number":3,"address":"渋谷区千駄ヶ谷5-32-7 野村不動産南新宿ビル4F","place":"ビープラウド会議室","lat":35.6861,"lon":139.699,"state":"active","id":null},{"event_id":"69547","title":"【19新卒学生限定】顔認識技術をビジネスに応用する 機械学習勉強会","url":"https://dreamarts.connpass.com/event/69547/","shortener_url":null,"started_at":"2017-10-28T04:00:00.000+09:00","ended_at":"2017-10-28T10:00:00.000+09:00","limit_number":10,"address":"東京都渋谷区恵比寿4-20-3 恵比寿ガーデンプレイスタワー 31F","place":"株式会社ドリーム・アーツ東京本社","lat":35.6421,"lon":139.714,"state":"active","id":null},{"event_id":"69540","title":"【仕切り直し！】クラウディア窓辺生誕祭2017","url":"https://claudia.connpass.com/event/69540/","shortener_url":null,"started_at":"2017-10-20T11:00:00.000+09:00","ended_at":"2017-10-20T14:00:00.000+09:00","limit_number":22,"address":"東京都千代田区外神田3-2-13 山口ビルB1F","place":"JAM AKIHABARA","lat":35.7004,"lon":139.77,"state":"active","id":null},{"event_id":"69520","title":"ブロックチェーンハッ­­カソン by Team AI 10/30(月)","url":"https://teamai.connpass.com/event/69520/","shortener_url":"https://goo.gl/kZTvs5","started_at":"2017-10-30T19:00:00.000+09:00","ended_at":"2017-10-30T21:00:00.000+09:00","limit_number":10,"address":"東京都渋谷区渋谷2-17-3","place":"渋谷アイビスビル401号室 ","lat":35.6593,"lon":139.705,"state":"active","id":null},{"event_id":"69519","title":"(中級)自然言語データハッ­­カソン by Team AI 10/28(土)","url":"https://teamai.connpass.com/event/69519/","shortener_url":"https://goo.gl/8qt2pB","started_at":"2017-10-28T14:00:00.000+09:00","ended_at":"2017-10-28T16:00:00.000+09:00","limit_number":10,"address":"東京都渋谷区渋谷2-17-3","place":"渋谷アイビスビル401号室 ","lat":35.6593,"lon":139.705,"state":"active","id":null},{"event_id":"69669","title":"熊ゆに Unityもくもく会　2017/10/25（水）","url":"https://kumauni.connpass.com/event/69669/","shortener_url":null,"started_at":"2017-10-25T10:00:00.000+09:00","ended_at":"2017-10-25T12:00:00.000+09:00","limit_number":15,"address":"熊本県熊本市 中央区下通１丁目１２−２７","place":"未来会議室","lat":32.7998,"lon":130.708,"state":"active","id":null},{"event_id":"91892","title":"第37回よちよちAndroid名古屋支部オフライン開発ミーティング","url":"https://atnd.org/events/91892","shortener_url":null,"started_at":"2017-10-22T00:00:00.000+09:00","ended_at":"2017-10-22T03:00:00.000+09:00","limit_number":null,"address":"名古屋市中区栄三丁目18番1号 ナディアパーク デザインセンタービル6階","place":"名古屋市市民活動推進センター","lat":35.1654,"lon":136.905,"state":"closed","id":null},{"event_id":"69803","title":"TOKYO CS JAM #14 〜相談祭り！サーベイと内製ツールと顧客満足度〜","url":"https://csjam.connpass.com/event/69803/","shortener_url":"https://goo.gl/1JtXsX","started_at":"2017-10-26T10:15:00.000+09:00","ended_at":"2017-10-26T12:45:00.000+09:00","limit_number":15,"address":"東京都港区六本木6-10-1（六本木ヒルズ森タワー18F）","place":"株式会社メルカリ","lat":35.6604,"lon":139.729,"state":"active","id":null},{"event_id":"91941","title":"【延期10/22→29】第288回 よちよちAndroid オフライン開発ミーティング in 大崎","url":"https://atnd.org/events/91941","shortener_url":null,"started_at":"2017-10-29T01:00:00.000+09:00","ended_at":"2017-10-29T03:00:00.000+09:00","limit_number":null,"address":"東京都品川区大崎1-11-1","place":"ゲートシティ大崎B1アトリウムフリー座席","lat":35.6194,"lon":139.731,"state":"closed","id":null},{"event_id":"65214","title":"ふくもく会 その33 〜モクモクマスターSideMA〜","url":"https://fukumoku.connpass.com/event/65214/","shortener_url":null,"started_at":"2017-10-28T10:00:00.000+09:00","ended_at":"2017-10-29T18:00:00.000+09:00","limit_number":20,"address":"福井県坂井市丸岡町熊堂3-7-1-16(福井県産業情報センター 7F)","place":"福井県産業情報センター　7F コワーキングスペース","lat":36.1098,"lon":136.273,"state":"active","id":null},{"event_id":"69957","title":"XR Gamejamに向けてUnityを勉強しよう！","url":"https://hsc.connpass.com/event/69957/","shortener_url":"https://goo.gl/wnJGDc","started_at":"2017-10-29T04:00:00.000+09:00","ended_at":"2017-10-29T09:00:00.000+09:00","limit_number":24,"address":"広島市中区大手町1丁目5-3","place":"サテライトキャンパス広島","lat":34.3946,"lon":132.455,"state":"active","id":null},{"event_id":"70248","title":"自然言語データハッ­カソン by Team AI 10/27(金)","url":"https://teamai.connpass.com/event/70248/","shortener_url":"https://goo.gl/kyRt5G","started_at":"2017-10-27T19:00:00.000+09:00","ended_at":"2017-10-27T21:00:00.000+09:00","limit_number":10,"address":"東京都渋谷区渋谷2-17-3","place":"渋谷アイビスビル401号室 ","lat":35.6593,"lon":139.705,"state":"active","id":null},{"event_id":"68811","title":"【大阪】DeepLearning初心者による初心者のための読書会【第３章５節】","url":"https://osaka-prg-school.connpass.com/event/68811/","shortener_url":null,"started_at":"2017-10-25T10:00:00.000+09:00","ended_at":"2017-10-25T13:00:00.000+09:00","limit_number":8,"address":"大阪市中央区本町4丁目7-7 飛鳥ビル303 ","place":"Kiiiya Hommachi","lat":34.6849,"lon":135.498,"state":"active","id":null},{"event_id":"68672","title":"【大阪】JSerもくもく会 10/17【JavaScript/monaca/ハイブリッド開発","url":"https://hackers-salon.connpass.com/event/68672/","shortener_url":null,"started_at":"2017-10-17T19:30:00.000+09:00","ended_at":"2017-10-17T22:30:00.000+09:00","limit_number":5,"address":"大阪市中央区本町４丁目７−７ 飛鳥ビル３０２","place":"Kiiiya Hommachi（2020年6月営業終了）","lat":34.6849,"lon":135.498,"state":"active","id":null},{"event_id":"69608","title":"【大阪・ディープラーニング】Hackers' Salon 10/20【もくもく会・質問会】","url":"https://hackers-salon.connpass.com/event/69608/","shortener_url":null,"started_at":"2017-10-20T11:00:00.000+09:00","ended_at":"2017-10-20T18:30:00.000+09:00","limit_number":5,"address":"大阪市中央区本町４丁目７−７ 飛鳥ビル３０２","place":"Kiiiya Hommachi（2020年6月営業終了）","lat":34.6849,"lon":135.498,"state":"active","id":null},{"event_id":"69317","title":"【大阪】KansaiRoboDev #7【ロボット】","url":"https://kansai-robo-dev.connpass.com/event/69317/","shortener_url":null,"started_at":"2017-10-24T10:30:00.000+09:00","ended_at":"2017-10-24T12:30:00.000+09:00","limit_number":10,"address":"大阪市中央区本町４丁目７−７−３０３","place":"Kiiiya Hommachi","lat":34.6849,"lon":135.498,"state":"active","id":null},{"event_id":"70370","title":"【大阪】【体験会】GoogleHomeを肴に酒を飲む会","url":"https://osaka-prg-bar.connpass.com/event/70370/","shortener_url":null,"started_at":"2017-10-25T13:00:00.000+09:00","ended_at":"2017-10-25T14:59:00.000+09:00","limit_number":null,"address":"大阪市中央区本町4丁目7-7-303","place":"KiiiyaHommachi","lat":34.6849,"lon":135.498,"state":"active","id":null},{"event_id":"70355","title":"【大阪】【体験会】GoogleHomeビアバッシュ×アイデアソン【緊急開催】","url":"https://osaka-prg-bar.connpass.com/event/70355/","shortener_url":"https://goo.gl/Mnk2Tu","started_at":"2017-10-07T10:00:00.000+09:00","ended_at":"2017-10-07T14:59:00.000+09:00","limit_number":null,"address":"大阪市中央区本町4丁目7-7-303","place":"KiiiyaHommachi","lat":34.6849,"lon":135.498,"state":"active","id":null},{"event_id":"70371","title":"【大阪】DeepLearning初心者による初心者のための読書会II【第１章】","url":"https://osaka-prg-school.connpass.com/event/70371/","shortener_url":null,"started_at":"2017-10-25T10:30:00.000+09:00","ended_at":"2017-10-25T12:30:00.000+09:00","limit_number":8,"address":"大阪市中央区瓦町3−4−9 ステーツ本町ビル8F（株式会社ソウ内）","place":"本町オープンソースラボ","lat":34.6863,"lon":135.502,"state":"active","id":null},{"event_id":"65983","title":"【Why R?】触ってみよう！Ｒ基礎講座【10/29（日）午前】","url":"https://soleildatadojo.doorkeeper.jp/events/65983","shortener_url":null,"started_at":"2017-10-29T10:00:00.000+09:00","ended_at":"2017-10-29T13:10:00.000+09:00","limit_number":18,"address":"兵庫県尼崎市昭和通3丁目90−1","place":"税理士荒巻政文事務所","lat":34.7207,"lon":135.417,"state":"active","id":null},{"event_id":"66085","title":"Startup Weekend Tokyo :: Micro Edition #4","url":"https://swtokyo.doorkeeper.jp/events/66085","shortener_url":null,"started_at":"2017-10-27T18:30:00.000+09:00","ended_at":"2017-10-29T21:30:00.000+09:00","limit_number":15,"address":"東京都新宿区高田馬場1丁目27−2","place":"Green Room in CASE-Shinjuku","lat":35.7122,"lon":139.705,"state":"active","id":null},{"event_id":"66076","title":"『GovHack 生駒市』〜LINE@を活用したあなたのアイデアで自治体をもっと身近に〜","url":"https://hackcamp.doorkeeper.jp/events/66076","shortener_url":null,"started_at":"2017-10-27T18:30:00.000+09:00","ended_at":"2017-10-28T18:30:00.000+09:00","limit_number":30,"address":"奈良県生駒市高山町8916－5","place":"イコマド（10/27）、奈良先端科学技術大学院大学（10/28）","lat":34.7309,"lon":135.734,"state":"active","id":null},{"event_id":"66084","title":"スタートアップ・ダイアログ","url":"https://swtokyo.doorkeeper.jp/events/66084","shortener_url":null,"started_at":"2017-10-29T15:30:00.000+09:00","ended_at":"2017-10-29T17:00:00.000+09:00","limit_number":15,"address":"東京都千代田区大手町2-6-1","place":"fabbit大手町","lat":35.6845,"lon":139.769,"state":"active","id":null},{"event_id":"66095","title":"いわみくと MeetUp！vol.22 （いわみICT協議会定例会 ）","url":"https://iwami-ict.doorkeeper.jp/events/66095","shortener_url":null,"started_at":"2017-10-27T18:30:00.000+09:00","ended_at":"2017-10-27T20:00:00.000+09:00","limit_number":40,"address":"島根県浜田市黒川町3748番地1","place":"浜田市立中央図書館多目的ホール","lat":34.6773,"lon":131.839,"state":"active","id":null},{"event_id":"65585","title":"動くチームの作り方","url":"https://swtokyo.doorkeeper.jp/events/65585","shortener_url":null,"started_at":"2017-10-29T13:00:00.000+09:00","ended_at":"2017-10-29T15:00:00.000+09:00","limit_number":20,"address":"東京都千代田区大手町2-6-1","place":"fabbit大手町","lat":35.6845,"lon":139.769,"state":"active","id":null},{"event_id":"92139","title":"第38回よちよちAndroid名古屋支部オフライン開発ミーティング","url":"https://atnd.org/events/92139","shortener_url":null,"started_at":"2017-10-29T00:00:00.000+09:00","ended_at":"2017-10-29T03:00:00.000+09:00","limit_number":null,"address":"名古屋市中区栄三丁目18番1号 ナディアパーク デザインセンタービル6階","place":"名古屋市市民活動推進センター","lat":35.1654,"lon":136.905,"state":"closed","id":null},{"event_id":"70417","title":"10/30(月)19:30〜IVS Launch Pad × WAVEピッチ","url":"https://svmeetup.connpass.com/event/70417/","shortener_url":null,"started_at":"2017-10-30T19:30:00.000+09:00","ended_at":"2017-10-30T21:00:00.000+09:00","limit_number":60,"address":"〒150-0043東京都渋谷区道玄坂2-10-12 新大宗ビル3号館531号","place":"#HiveShibuya","lat":35.6587,"lon":139.698,"state":"active","id":null},{"event_id":"67908","title":"ぷち開発合宿 #28","url":"https://ydp.connpass.com/event/67908/","shortener_url":null,"started_at":"2017-10-22T00:00:00.000+09:00","ended_at":"2017-10-22T03:00:00.000+09:00","limit_number":4,"address":"大手町駅(E2出口)","place":"大手町","lat":35.6835,"lon":139.763,"state":"active","id":null},{"event_id":"67905","title":"ぷち開発合宿 #25","url":"https://ydp.connpass.com/event/67905/","shortener_url":null,"started_at":"2017-10-08T00:00:00.000+09:00","ended_at":"2017-10-08T03:00:00.000+09:00","limit_number":4,"address":"大手町駅(E2出口)","place":"大手町","lat":35.6835,"lon":139.763,"state":"active","id":null},{"event_id":"67924","title":"ぷち開発合宿 #30","url":"https://ydp.connpass.com/event/67924/","shortener_url":null,"started_at":"2017-10-29T00:00:00.000+09:00","ended_at":"2017-10-29T03:00:00.000+09:00","limit_number":4,"address":"大手町駅(E2出口)","place":"大手町","lat":35.6835,"lon":139.763,"state":"active","id":null},{"event_id":"67923","title":"ぷち開発合宿 #29","url":"https://ydp.connpass.com/event/67923/","shortener_url":null,"started_at":"2017-10-28T00:00:00.000+09:00","ended_at":"2017-10-28T03:00:00.000+09:00","limit_number":4,"address":"大手町駅(E2出口)","place":"大手町","lat":35.6835,"lon":139.763,"state":"active","id":null},{"event_id":"67907","title":"ぷち開発合宿 #27","url":"https://ydp.connpass.com/event/67907/","shortener_url":null,"started_at":"2017-10-21T00:00:00.000+09:00","ended_at":"2017-10-21T03:00:00.000+09:00","limit_number":4,"address":"大手町駅(E2出口)","place":"大手町","lat":35.6835,"lon":139.763,"state":"active","id":null},{"event_id":"67906","title":"ぷち開発合宿 #26","url":"https://ydp.connpass.com/event/67906/","shortener_url":null,"started_at":"2017-10-14T00:00:00.000+09:00","ended_at":"2017-10-14T03:00:00.000+09:00","limit_number":4,"address":"大手町駅(E2出口)","place":"大手町","lat":35.6835,"lon":139.763,"state":"active","id":null},{"event_id":"67904","title":"ぷち開発合宿 #24","url":"https://ydp.connpass.com/event/67904/","shortener_url":null,"started_at":"2017-10-07T00:00:00.000+09:00","ended_at":"2017-10-07T03:00:00.000+09:00","limit_number":4,"address":"大手町駅(E2出口)","place":"大手町","lat":35.6835,"lon":139.763,"state":"active","id":null},{"event_id":"64072","title":"ぷち開発合宿 #23","url":"https://ydp.connpass.com/event/64072/","shortener_url":null,"started_at":"2017-10-01T00:00:00.000+09:00","ended_at":"2017-10-01T03:00:00.000+09:00","limit_number":4,"address":"大手町駅(E2出口)","place":"大手町","lat":35.6835,"lon":139.763,"state":"active","id":null},{"event_id":"91686","title":"美しく健康に「幸せになる食べ方」旬野菜ヴィーガンサラダ+スムージー+ヨガ付!@アシックスコネクション東京","url":"https://atnd.org/events/91686","shortener_url":null,"started_at":"2017-10-28T00:30:00.000+09:00","ended_at":"2017-10-28T02:00:00.000+09:00","limit_number":null,"address":"東京都墨田区吾妻橋1-23-8先","place":"アシックスコネクション東京","lat":35.7104,"lon":139.801,"state":"closed","id":null},{"event_id":"91685","title":"美しく健康に「幸せになる食べ方」旬野菜ヴィーガンサラダ+スムージー+ヨガ付!@アシックスコネクション東京","url":"https://atnd.org/events/91685","shortener_url":null,"started_at":"2017-10-17T02:30:00.000+09:00","ended_at":"2017-10-17T04:00:00.000+09:00","limit_number":null,"address":"東京都墨田区吾妻橋1-23-8先","place":"アシックスコネクション東京","lat":35.7104,"lon":139.801,"state":"closed","id":null},{"event_id":"91684","title":"美しく健康に「幸せになる食べ方」旬野菜ヴィーガンサラダ+スムージー+ヨガ付!@アシックスコネクション東京","url":"https://atnd.org/events/91684","shortener_url":null,"started_at":"2017-10-14T00:30:00.000+09:00","ended_at":"2017-10-14T02:00:00.000+09:00","limit_number":null,"address":"東京都墨田区吾妻橋1-23-8先","place":"アシックスコネクション東京","lat":35.7104,"lon":139.801,"state":"closed","id":null},{"event_id":"38018496346","title":"Employer Showcases (EST) - Cincinnati","url":"https://www.eventbrite.com/e/employer-showcases-est-cincinnati-tickets-38018496346","shortener_url":null,"started_at":"2017-10-31T15:30:00.000+09:00","ended_at":"2022-07-22T18:00:00.000+09:00","limit_number":null,"address":null,"place":"online","lat":null,"lon":null,"state":"active","id":null}]