[{"event_id":"60649","title":"BIMハッカソン vol.2","url":"https://connpass.com/event/60649/","shortener_url":"https://goo.gl/kzKMm7","started_at":"2017-09-02T09:30:00.000+09:00","ended_at":"2017-09-03T18:30:00.000+09:00","limit_number":30,"address":"東京都大田区西蒲田5-23-22","place":"日本工学院専門学校 蒲田キャンパス","lat":35.5646,"lon":139.715,"state":"active","id":null},{"event_id":"88857","title":"AIIT起業塾 #10　ー アイデアソン at SPACES ー","url":"https://atnd.org/events/88857","shortener_url":"https://goo.gl/9wLsom","started_at":"2017-09-24T04:00:00.000+09:00","ended_at":"2017-09-24T09:00:00.000+09:00","limit_number":38,"address":"東京都千代田区 大手町 1-6-1 大手町ビル1F","place":"大手町ビル1階　SPACES","lat":35.6865,"lon":139.764,"state":"closed","id":null},{"event_id":null,"title":"国境なき医師団日本 人道援助における外科治療のためのハッカソン／Hackathon for humanitarian surgical care","url":"http://www.msf.or.jp/information/detail/info_3484.html","shortener_url":"https://goo.gl/X3E3V2","started_at":"2017-09-16T09:00:00.000+09:00","ended_at":"2017-09-17T18:30:00.000+09:00","limit_number":null,"address":"東京都新宿区早稲田町27 早稲田大学40号館","place":"国境なき医師団日本事務局","lat":35.7057,"lon":139.721,"state":"active","id":null},{"event_id":"61689","title":"Startup Weekend 大阪@Startup Cafe Osaka","url":"https://swosaka.doorkeeper.jp/events/61689","shortener_url":null,"started_at":"2017-09-08T18:00:00.000+09:00","ended_at":"2017-09-10T21:00:00.000+09:00","limit_number":30,"address":"大阪府大阪市北区鶴野町1 関西大学梅田キャンパス","place":"Startup Cafe Osaka","lat":34.7063,"lon":135.501,"state":"active","id":null},{"event_id":"62760","title":"【アイデアソン】横川ゾンビナイトの来場者に楽しんでもらえるエンターテインメントコンテンツを作ろう！","url":"https://hsc.connpass.com/event/62760/","shortener_url":"https://goo.gl/ZGhh3Y","started_at":"2017-09-03T04:00:00.000+09:00","ended_at":"2017-09-03T07:00:00.000+09:00","limit_number":20,"address":"広島市中区大手町2丁目2-13","place":"デジタルものづくりスペース デジハコ（株式会社ワールドエリアネットワークス）ザ・ガーデンプレイス紙屋町 5F ","lat":34.393,"lon":132.456,"state":"active","id":null},{"event_id":"62793","title":"【第4回】Startup Weekend 浜松","url":"https://startupweekend-hamamatsu.doorkeeper.jp/events/62793","shortener_url":null,"started_at":"2017-09-29T18:00:00.000+09:00","ended_at":"2017-10-01T21:00:00.000+09:00","limit_number":30,"address":"静岡県浜松市中区城北3丁目5−1 事務棟","place":"静岡大学浜松キャンパス 情報学部棟2号館情25教室 / 高柳会館","lat":34.7247,"lon":137.718,"state":"active","id":null},{"event_id":"61761","title":"【第二回】Startup Weekend 福井","url":"https://swfukui.doorkeeper.jp/events/61761","shortener_url":null,"started_at":"2017-09-22T18:00:00.000+09:00","ended_at":"2017-09-24T21:00:00.000+09:00","limit_number":30,"address":"福井県福井市重立町28−43 福山通運福井(支)","place":"ふくい産業支援センター","lat":36.083,"lon":136.28,"state":"active","id":null},{"event_id":"63272","title":"セピアキャット UDC2017〜百花繚乱〜","url":"https://0168e91711e4c480d710c70399.doorkeeper.jp/events/63272","shortener_url":null,"started_at":"2017-09-02T09:30:00.000+09:00","ended_at":"2017-09-02T16:30:00.000+09:00","limit_number":100,"address":"静岡県三島市本町3−35","place":"三島市市民活動センター会議室","lat":35.1194,"lon":138.914,"state":"active","id":null},{"event_id":"63332","title":"Startup Weekend Tokyo Micro Editionの説明会 #2","url":"https://swtokyo.doorkeeper.jp/events/63332","shortener_url":null,"started_at":"2017-09-01T19:00:00.000+09:00","ended_at":"2017-09-01T21:00:00.000+09:00","limit_number":30,"address":"東京都新宿区高田馬場1丁目27−2","place":"CASE-Shinjuku","lat":35.7122,"lon":139.705,"state":"active","id":null},{"event_id":"60681","title":"レッドハッカソンひろしま 2017","url":"https://hmcn.connpass.com/event/60681/","shortener_url":"https://goo.gl/SGFgdu","started_at":"2017-09-23T10:00:00.000+09:00","ended_at":"2017-09-24T17:00:00.000+09:00","limit_number":30,"address":"広島市中区紙屋町1-4-3 (エフケイビル1F)","place":"イノベーション・ハブ・ひろしまCamps","lat":34.3941,"lon":132.459,"state":"active","id":null},{"event_id":"61159","title":"\u003c\u003cハッカソン開催\u003e\u003eHEPT アイデアソン \u0026 ハッカソン 2017","url":"https://hept.connpass.com/event/61159/","shortener_url":"https://goo.gl/6YDBhY","started_at":"2017-09-02T00:30:00.000+09:00","ended_at":"2017-09-03T07:30:00.000+09:00","limit_number":20,"address":"静岡県浜松市中区城北3-5-1","place":"静岡大学情報学部","lat":34.7249,"lon":137.718,"state":"active","id":null},{"event_id":"63586","title":"【これでプログラミング入門は完璧！】（学生限定）(参加フォームへのご記入をお願い致します）","url":"https://hacktokyo.connpass.com/event/63586/","shortener_url":null,"started_at":"2017-09-02T18:30:00.000+09:00","ended_at":"2017-09-02T21:30:00.000+09:00","limit_number":30,"address":"渋谷","place":"渋谷","lat":35.6618,"lon":139.704,"state":"active","id":null},{"event_id":"63512","title":"ペッパソン2017西の陣〜\"AIやIoT\"をPepperと絡めて技術で勝負！〜","url":"https://mashupawards.connpass.com/event/63512/","shortener_url":null,"started_at":"2017-09-16T01:00:00.000+09:00","ended_at":"2017-09-17T11:00:00.000+09:00","limit_number":50,"address":"大阪府大阪市北区鶴野町1−5","place":"KANDAI Me RISE 4F - 関西大学 梅田キャンパス 4F","lat":34.7065,"lon":135.501,"state":"active","id":null},{"event_id":"63410","title":"【大阪】MR（Mixed Reality）コンテンツを作ってみよう【Unity】","url":"https://osaka-driven-dev.connpass.com/event/63410/","shortener_url":null,"started_at":"2017-09-02T05:00:00.000+09:00","ended_at":"2017-09-02T07:30:00.000+09:00","limit_number":16,"address":"大阪市淀川区西中島5-12-12 エムオーテックス新大阪ビル4階","place":"エムオーテックス株式会社（MOTEX Inc.） 4F セミナールーム","lat":34.7293,"lon":135.499,"state":"active","id":null},{"event_id":"63851","title":"アーバンデータチャレンジ2017 in 石川 キックオフアイデアソン","url":"https://cfk.connpass.com/event/63851/","shortener_url":"https://goo.gl/N7kdR4","started_at":"2017-09-03T04:30:00.000+09:00","ended_at":"2017-09-03T08:00:00.000+09:00","limit_number":null,"address":"石川県金沢市武蔵町14番31号","place":"ITビジネスプラザ武蔵","lat":36.5713,"lon":136.655,"state":"active","id":null},{"event_id":"63441","title":"アーバンデータチャレンジ静岡キックオフ！","url":"https://0168e91711e4c480d710c70399.doorkeeper.jp/events/63441","shortener_url":null,"started_at":"2017-09-10T13:00:00.000+09:00","ended_at":"2017-09-10T18:00:00.000+09:00","limit_number":30,"address":"静岡県沼津市大手町3丁目4−5 わたやす沼津駅前本店","place":"ラクーン3F たかラボ","lat":35.1015,"lon":138.86,"state":"active","id":null},{"event_id":"63495","title":"データサイエンスセミナー\u0026交流会@Osaka Innovation Hub～【AIビジネス化の事例とその課題】","url":"https://soleildatadojo.doorkeeper.jp/events/63495","shortener_url":null,"started_at":"2017-09-16T15:00:00.000+09:00","ended_at":"2017-09-16T19:00:00.000+09:00","limit_number":80,"address":"大阪府大阪市北区大深町3−1","place":"大阪イノベーションハブ","lat":34.7053,"lon":135.495,"state":"active","id":null},{"event_id":"63824","title":"電通大生限定！「機械学習」勉強会 part2","url":"https://ueqareer.connpass.com/event/63824/","shortener_url":null,"started_at":"2017-09-01T14:00:00.000+09:00","ended_at":"2017-09-01T18:00:00.000+09:00","limit_number":null,"address":"","place":"電気通信大学西１１号館５F会議室","lat":null,"lon":null,"state":"active","id":null},{"event_id":"63855","title":"【開催確定】南九州ハッカソン！Pepper、kintone、mbedを使い倒せ","url":"https://mashupawards.connpass.com/event/63855/","shortener_url":"https://goo.gl/4vXeKM","started_at":"2017-09-02T01:00:00.000+09:00","ended_at":"2017-09-03T11:00:00.000+09:00","limit_number":20,"address":"鹿児島県鹿児島市泉町１４−１２","place":"TUKUDDO","lat":31.5934,"lon":130.561,"state":"active","id":null},{"event_id":"63885","title":"【関西開催】一日速習人工知能入門講座  [説明会]","url":"https://study-ai.connpass.com/event/63885/","shortener_url":null,"started_at":"2017-09-02T13:00:00.000+09:00","ended_at":"2017-09-02T14:30:00.000+09:00","limit_number":10,"address":"大阪府大阪市北区太融寺町2−14 大原簿記法律専門学校梅田校","place":"梅田貸会議室ハピネス-Happiness-","lat":34.7022,"lon":135.505,"state":"active","id":null},{"event_id":"89182","title":"【9/9-9/10(土・日)】第8回UE4ぷちコン ゲームジャム","url":"https://atnd.org/events/89182","shortener_url":"https://goo.gl/QmVu4v","started_at":"2017-09-09T01:30:00.000+09:00","ended_at":"2017-09-10T11:00:00.000+09:00","limit_number":29,"address":"東京都品川区大崎5-6-2 都五反田ビル西館 8F","place":"株式会社ヒストリア","lat":35.6227,"lon":139.724,"state":"closed","id":null},{"event_id":"90084","title":"【関西開催】一日速習人工知能入門講座 [説明会]","url":"https://atnd.org/events/90084","shortener_url":null,"started_at":"2017-09-02T13:00:00.000+09:00","ended_at":"2017-09-02T14:30:00.000+09:00","limit_number":10,"address":"大阪府大阪市北区太融寺町2−14 大原簿記法律専門学校梅田校","place":"梅田貸会議室ハピネス-Happiness-","lat":34.7022,"lon":135.505,"state":"closed","id":null},{"event_id":"64001","title":"Mashup Awards 2017 キックオフ","url":"https://mashupawards.connpass.com/event/64001/","shortener_url":null,"started_at":"2017-09-04T19:30:00.000+09:00","ended_at":"2017-09-04T22:00:00.000+09:00","limit_number":100,"address":"東京都中央区銀座7-2-6 ヒューリック銀座７丁目第２ビル","place":"MTLcafe（ゼクシィ縁結び脇の外階段より地下へ）","lat":35.6708,"lon":139.761,"state":"active","id":null},{"event_id":"64102","title":"【好評につき増員】ペッパソン2017東の陣〜\"AIやIoT\"をPepperと絡めて技術で勝負！〜","url":"https://mashupawards.connpass.com/event/64102/","shortener_url":null,"started_at":"2017-09-23T01:00:00.000+09:00","ended_at":"2017-09-24T11:00:00.000+09:00","limit_number":85,"address":"東京都港区虎ノ門4-3-13 ヒューリック神谷町ビル 4F","place":"uhuru（ヒューリック神谷町ビル 4F）","lat":35.6637,"lon":139.744,"state":"active","id":null},{"event_id":"64177","title":"あいますえんじにあ Meetup in 京都","url":"https://imas.connpass.com/event/64177/","shortener_url":null,"started_at":"2017-09-02T06:00:00.000+09:00","ended_at":"2017-09-02T10:00:00.000+09:00","limit_number":15,"address":"京都府京都市中京区高宮町206(御池ビル 8F)","place":"株式会社はてな 京都オフィス セミナールーム","lat":35.0112,"lon":135.762,"state":"active","id":null},{"event_id":"63732","title":"WCK Meeting vol.53「動画コンテンツ×アイデアソン」","url":"https://kochiweb.doorkeeper.jp/events/63732","shortener_url":"https://goo.gl/4mnas6","started_at":"2017-09-02T10:00:00.000+09:00","ended_at":"2017-09-03T12:00:00.000+09:00","limit_number":null,"address":"高知県香美市土佐山田町平山459","place":"ほっと平山","lat":33.6516,"lon":133.687,"state":"active","id":null},{"event_id":"63147","title":"Startup Weekend Tokyo Health Care @ ゼロワンブースター 20170929-1001","url":"https://swtokyo.doorkeeper.jp/events/63147","shortener_url":null,"started_at":"2017-09-29T18:30:00.000+09:00","ended_at":"2017-10-01T21:30:00.000+09:00","limit_number":50,"address":"東京都港区東麻布1丁目7 桜田通り","place":"株式会社ゼロワンブースター","lat":35.6577,"lon":139.744,"state":"active","id":null},{"event_id":"63840","title":"Wikipedia Town 沼津 #4","url":"https://0168e91711e4c480d710c70399.doorkeeper.jp/events/63840","shortener_url":null,"started_at":"2017-09-30T09:15:00.000+09:00","ended_at":"2017-09-30T16:30:00.000+09:00","limit_number":null,"address":"静岡県沼津市御幸町15 市民文化センター","place":"","lat":35.0953,"lon":138.866,"state":"active","id":null},{"event_id":"63859","title":"【新・ビールとオムツの法則を発見しよう！】相関ルールを使ったデータマイニングワークショップ《9/30（土）午後・10/7（土）開催》@阪神尼崎","url":"https://soleildatadojo.doorkeeper.jp/events/63859","shortener_url":null,"started_at":"2017-09-30T14:00:00.000+09:00","ended_at":"2017-10-07T18:00:00.000+09:00","limit_number":18,"address":"兵庫県尼崎市昭和通3丁目90−1","place":"税理士荒巻政文事務所（阪神尼崎駅から徒歩３分）","lat":34.7207,"lon":135.417,"state":"active","id":null},{"event_id":"63897","title":"ヘルスケアスタートアップの最新動向の紹介 \u003cSWT Healthcare プレイベント \u003e ","url":"https://swtokyo.doorkeeper.jp/events/63897","shortener_url":null,"started_at":"2017-09-04T19:00:00.000+09:00","ended_at":"2017-09-04T20:30:00.000+09:00","limit_number":35,"address":"東京都渋谷区神南1丁目20−8 ダンスファッションチャコット渋谷本店","place":"TECH LAB PAAK","lat":35.6619,"lon":139.7,"state":"active","id":null},{"event_id":"64417","title":"MA2017南九州の公式ハッカソンイベント連動企画、kintoneハンズオン！！","url":"https://mashupawards.connpass.com/event/64417/","shortener_url":"https://goo.gl/Ly6T4u","started_at":"2017-09-01T18:30:00.000+09:00","ended_at":"2017-09-01T21:00:00.000+09:00","limit_number":8,"address":"鹿児島県鹿児島市泉町１４−１２","place":"TUKUDDO","lat":31.5934,"lon":130.561,"state":"active","id":null},{"event_id":"64042","title":"はじめてのハッカソン Vol.27","url":"https://hackathon.connpass.com/event/64042/","shortener_url":"https://goo.gl/NNZntb","started_at":"2017-09-23T01:45:00.000+09:00","ended_at":"2017-09-23T09:00:00.000+09:00","limit_number":30,"address":"東京都中央区新川１丁目３−４ ＰＡビル5階","place":"コワーキングスペース茅場町 Co-Edo（コエド）","lat":35.6786,"lon":139.782,"state":"active","id":null},{"event_id":"64322","title":"福井ハッカソン予選 #MA_2017 求むトガった作品！！","url":"https://mashupawards.connpass.com/event/64322/","shortener_url":"https://goo.gl/1jrPDj","started_at":"2017-09-09T01:00:00.000+09:00","ended_at":"2017-09-10T11:00:00.000+09:00","limit_number":22,"address":"福井県福井県坂井市丸岡町熊堂3-7-1-16 ソフトパークふくい内　福井県産業情報センタービル","place":"福井県産業情報センタービル 2F 会議室A・B","lat":36.1098,"lon":136.273,"state":"active","id":null},{"event_id":"64572","title":"kintone x DataSpider ハンズオン バトル","url":"https://hmcn.connpass.com/event/64572/","shortener_url":null,"started_at":"2017-09-07T19:00:00.000+09:00","ended_at":"2017-09-07T21:30:00.000+09:00","limit_number":20,"address":"広島市中区大手町2丁目2-13 (ザ・ガーデンプレイス紙屋町 5F)","place":" デジタルものづくりスペース デジハコ","lat":34.393,"lon":132.456,"state":"active","id":null},{"event_id":"64634","title":"Cloud Developers Circle #3 - Container Jam","url":"https://cdevc.connpass.com/event/64634/","shortener_url":"https://goo.gl/HFVaPz","started_at":"2017-09-20T10:00:00.000+09:00","ended_at":"2017-09-20T12:00:00.000+09:00","limit_number":55,"address":"東京都港区虎ノ門1-23-1 （虎ノ門ヒルズ森タワー16F）","place":"日本ビジネスシステムズ株式会社","lat":35.6673,"lon":139.749,"state":"active","id":null},{"event_id":"64889","title":"シビックテックナイト(第23回)","url":"https://codefortoyama.connpass.com/event/64889/","shortener_url":null,"started_at":"2017-09-14T10:00:00.000+09:00","ended_at":"2017-09-14T11:45:00.000+09:00","limit_number":20,"address":"富山県富山市新総曲輪４−１８","place":"富山県民会館","lat":36.6954,"lon":137.212,"state":"active","id":null},{"event_id":"59451","title":"量子アニーリング on GPGPU（Yahoo!本社での開催のため参加規約あり）","url":"https://qnn.connpass.com/event/59451/","shortener_url":null,"started_at":"2017-09-22T18:30:00.000+09:00","ended_at":"2017-09-22T20:30:00.000+09:00","limit_number":100,"address":"東京都 千代田区紀尾井町1-3 東京ガーデンテラス紀尾井町 ヤフー株式会社","place":"Yahoo! LODGE","lat":35.6795,"lon":139.737,"state":"active","id":null},{"event_id":"64748","title":"新宿 Geek Lounge#2 Scala Meetup (※日本語通訳あり)","url":"https://shinjuku-geek-lounge.connpass.com/event/64748/","shortener_url":null,"started_at":"2017-09-05T20:00:00.000+09:00","ended_at":"2017-09-05T22:00:00.000+09:00","limit_number":53,"address":"東京都新宿区西新宿8-17-1","place":"セプテーニグループ（27Fカフェスペース）","lat":35.696,"lon":139.691,"state":"active","id":null},{"event_id":"63827","title":"ML_hack!","url":"https://ueqareer.connpass.com/event/63827/","shortener_url":null,"started_at":"2017-09-09T10:00:00.000+09:00","ended_at":"2017-09-10T18:00:00.000+09:00","limit_number":null,"address":"","place":"電気通信大学アライアンスセンター100周年記念ホール","lat":null,"lon":null,"state":"active","id":null},{"event_id":"64950","title":"Sota講習会 【Vstone Magicを始めよう】 Part 3（有料）","url":"https://sota.connpass.com/event/64950/","shortener_url":null,"started_at":"2017-09-08T19:00:00.000+09:00","ended_at":"2017-09-08T19:50:00.000+09:00","limit_number":4,"address":"東京都千代田区外神田1-9-9 内田ビル4F","place":"ヴイストン ロボットセンター秋葉原店","lat":35.6987,"lon":139.77,"state":"active","id":null},{"event_id":"65113","title":"自然言語データハッ­カソン by Team AI  9/2(土)","url":"https://teamai.connpass.com/event/65113/","shortener_url":"https://goo.gl/4zYhhQ","started_at":"2017-09-02T05:00:00.000+09:00","ended_at":"2017-09-02T07:00:00.000+09:00","limit_number":10,"address":"","place":"Online","lat":35.6618,"lon":139.696,"state":"active","id":null},{"event_id":"65111","title":"マーケティングデー­タハッカソン by Team AI 9/1(金)","url":"https://teamai.connpass.com/event/65111/","shortener_url":"https://goo.gl/heCThF","started_at":"2017-09-01T10:00:00.000+09:00","ended_at":"2017-09-01T12:00:00.000+09:00","limit_number":10,"address":"","place":"Online","lat":35.6618,"lon":139.696,"state":"active","id":null},{"event_id":"65089","title":"【9/23 (土) プレ講座】特別セッション「未経験者でも１週間で作れる！VRコンテンツ開発講座」","url":"https://connpass.com/event/65089/","shortener_url":null,"started_at":"2017-09-23T13:00:00.000+09:00","ended_at":"2017-09-23T17:00:00.000+09:00","limit_number":20,"address":"〒101-0052 東京都千代田区神田小川町３丁目２８−１０","place":"お茶の水スクールオブビジネス","lat":35.6953,"lon":139.763,"state":"active","id":null},{"event_id":"65241","title":"シェーダー: \b\bグラフィックスプログラミングのブラックアート","url":"https://codechrysalis.connpass.com/event/65241/","shortener_url":null,"started_at":"2017-09-08T19:00:00.000+09:00","ended_at":"2017-09-08T20:30:00.000+09:00","limit_number":20,"address":"東京都港区元麻布3-1-35(VORT元麻布B2)","place":"Code Chrysalis","lat":35.658,"lon":139.728,"state":"active","id":null},{"event_id":"65220","title":"子ども向けプログラミングクラブ コーダー道場甲府#3","url":"https://coderdojokofu.connpass.com/event/65220/","shortener_url":null,"started_at":"2017-09-24T01:20:00.000+09:00","ended_at":"2017-09-24T02:40:00.000+09:00","limit_number":8,"address":"山梨県甲府市北口２丁目８番１号","place":"山梨県立図書館","lat":35.6685,"lon":138.57,"state":"active","id":null},{"event_id":"64366","title":"Mackerel Drink Up #6 Osaka","url":"https://mackerelio.connpass.com/event/64366/","shortener_url":null,"started_at":"2017-09-26T10:00:00.000+09:00","ended_at":"2017-09-26T12:00:00.000+09:00","limit_number":22,"address":"大阪市淀川区西中島5-12-12 エムオーテックス新大阪ビル","place":"エムオーテックス株式会社","lat":34.7293,"lon":135.499,"state":"active","id":null},{"event_id":"65218","title":"【学生\u0026U-28社会人応募可】株式会社わたしは“フリースタイル”人工知能ハッカソン・アイディアソン","url":"https://connpass.com/event/65218/","shortener_url":"https://goo.gl/Pk1jLR","started_at":"2017-09-16T01:00:00.000+09:00","ended_at":"2017-09-16T09:30:00.000+09:00","limit_number":9,"address":"東京都新宿区西新宿３－１５－５ ライオンズマンション西新宿・４２２","place":"株式会社わたしはオフィス","lat":35.6842,"lon":139.69,"state":"active","id":null},{"event_id":"65116","title":"Monacaとオープンデータで作るスマホアプリワークショップ＋ハッカソン","url":"https://connpass.com/event/65116/","shortener_url":"https://goo.gl/GJpDVh","started_at":"2017-09-23T04:00:00.000+09:00","ended_at":"2017-09-23T08:00:00.000+09:00","limit_number":20,"address":"兵庫県神戸市北区山田町下谷上字中一里山14-1","place":"しあわせの村","lat":34.7086,"lon":135.116,"state":"active","id":null},{"event_id":"65392","title":"【学生限定】Progateで学ぶWebアプリ初心者勉強会@sharebase.InC","url":"https://othlotech.connpass.com/event/65392/","shortener_url":null,"started_at":"2017-09-24T13:00:00.000+09:00","ended_at":"2017-09-24T17:00:00.000+09:00","limit_number":20,"address":"愛知県名古屋市中区錦1丁目15−8(アミティエ錦第1ビル6F)","place":"sharebase.InC","lat":35.1689,"lon":136.892,"state":"active","id":null},{"event_id":"64767","title":"第1回 iOS もくもく勉強会 ~ベットタウン巡業~ in 柏の葉","url":"https://jam-digital.connpass.com/event/64767/","shortener_url":null,"started_at":"2017-09-06T10:00:00.000+09:00","ended_at":"2017-09-06T12:00:00.000+09:00","limit_number":13,"address":"千葉県柏市 若柴178番地4 柏の葉キャンパス148 街区2 ショップ＆オフィス棟6階","place":"柏の葉オープンイノベーションラボ(KOIL)","lat":35.894,"lon":139.953,"state":"active","id":null},{"event_id":"65542","title":"人材データハッカソ­ン by Team AI 9/5(火)","url":"https://teamai.connpass.com/event/65542/","shortener_url":"https://goo.gl/QTmPpc","started_at":"2017-09-05T19:00:00.000+09:00","ended_at":"2017-09-05T21:00:00.000+09:00","limit_number":8,"address":"","place":"Online","lat":35.6618,"lon":139.696,"state":"active","id":null},{"event_id":"65520","title":"智恵の和勉強会","url":"https://connpass.com/event/65520/","shortener_url":null,"started_at":"2017-09-02T04:00:00.000+09:00","ended_at":"2017-09-02T08:00:00.000+09:00","limit_number":null,"address":"東京都港区港南 2-16-3 品川グランドセントラルタワー","place":"マイクロソフト品川本社","lat":35.6267,"lon":139.74,"state":"active","id":null},{"event_id":"65698","title":"お座敷ハッカソン","url":"https://connpass.com/event/65698/","shortener_url":"https://goo.gl/uiZbZp","started_at":"2017-09-09T10:00:00.000+09:00","ended_at":"2017-09-10T16:00:00.000+09:00","limit_number":40,"address":"茨城県水戸市三湯町1105","place":"内原鉱泉　湯泉荘","lat":36.369,"lon":140.343,"state":"active","id":null},{"event_id":"65682","title":"医療データハッカソ­ン by Team AI 9/7(木)","url":"https://teamai.connpass.com/event/65682/","shortener_url":"https://goo.gl/YTcUsG","started_at":"2017-09-07T10:00:00.000+09:00","ended_at":"2017-09-07T12:00:00.000+09:00","limit_number":10,"address":"","place":"Online","lat":35.6618,"lon":139.696,"state":"active","id":null},{"event_id":"65681","title":"金融データハッカソ­ン by Team AI 9/6(水)","url":"https://teamai.connpass.com/event/65681/","shortener_url":"https://goo.gl/783Gew","started_at":"2017-09-06T10:00:00.000+09:00","ended_at":"2017-09-06T12:00:00.000+09:00","limit_number":10,"address":"","place":"Online","lat":35.6618,"lon":139.696,"state":"active","id":null},{"event_id":"65398","title":"[未経験からAIエンジニアを目指す] 　人工知能入門講座　 [定員10名　限定]","url":"https://study-ai.connpass.com/event/65398/","shortener_url":null,"started_at":"2017-09-03T14:00:00.000+09:00","ended_at":"2017-09-03T14:40:00.000+09:00","limit_number":10,"address":"東京都新宿区西新宿7丁目1−7 新宿ダイカンプラザA館","place":"スペイシー会議室　ダイカンプラザA館５０１号室(新宿駅D5出口より徒歩１分)","lat":35.6945,"lon":139.699,"state":"active","id":null},{"event_id":"65531","title":"名古ゲ部ゲームジャム　9月30日（土）～10月1日（日）","url":"https://nagogebu.connpass.com/event/65531/","shortener_url":"https://goo.gl/ASi7nb","started_at":"2017-09-30T01:00:00.000+09:00","ended_at":"2017-10-01T09:00:00.000+09:00","limit_number":15,"address":"愛知県名古屋市中区丸の内３丁目５－３４（セントラルコーポ５０３号室）","place":"名古屋ゲーム制作部(セントラルコーポ 503号室)","lat":35.1773,"lon":136.906,"state":"active","id":null},{"event_id":"65572","title":"アイデアソンver. はじめてのハッカソン Vol.28","url":"https://hackathon.connpass.com/event/65572/","shortener_url":"https://goo.gl/x1fnnp","started_at":"2017-09-09T05:00:00.000+09:00","ended_at":"2017-09-09T08:30:00.000+09:00","limit_number":20,"address":"神田須田町2丁目19−23　野村第3ビル４階","place":"コワーキングスペース秋葉原 Weeyble(ウィーブル)","lat":35.6965,"lon":139.772,"state":"active","id":null},{"event_id":"90558","title":"[未経験からAIエンジニアを目指す] 　人工知能入門講座　 [定員10名　限定 　　無料説明会]","url":"https://atnd.org/events/90558","shortener_url":null,"started_at":"2017-09-03T14:00:00.000+09:00","ended_at":"2017-09-03T14:40:00.000+09:00","limit_number":5,"address":"東京都新宿区西新宿7丁目1−7 新宿ダイカンプラザA館","place":"スペイシー会議室　ダイカンプラザA館５０１号室　(新宿駅D5出口より徒歩１分)","lat":35.6945,"lon":139.699,"state":"closed","id":null},{"event_id":"65778","title":"UX MILK Workstyle 08 feat. KAYAC","url":"https://uxmilk.connpass.com/event/65778/","shortener_url":null,"started_at":"2017-09-13T19:30:00.000+09:00","ended_at":"2017-09-13T22:00:00.000+09:00","limit_number":200,"address":"〒102-0093 東京都千代田区平河町2-5-3 (永田町GRID 6F)","place":"Nagatacho GRID","lat":35.6798,"lon":139.74,"state":"active","id":null},{"event_id":"65728","title":"TUT HACK DAY 2017","url":"https://makeallthings.connpass.com/event/65728/","shortener_url":null,"started_at":"2017-09-12T10:00:00.000+09:00","ended_at":"2017-09-13T22:00:00.000+09:00","limit_number":30,"address":"東京都八王子市南町２−３ クレーガルテン 3F","place":"コワーキングスペース「419」","lat":35.6586,"lon":139.334,"state":"active","id":null},{"event_id":"65581","title":"おおがきロボット×AI ハッカソン予選 #MA_2017 AI・ロボットで作る未来のライフスタイル","url":"https://mashupawards.connpass.com/event/65581/","shortener_url":"https://goo.gl/qSPbQ4","started_at":"2017-09-30T01:00:00.000+09:00","ended_at":"2017-10-01T11:00:00.000+09:00","limit_number":40,"address":"岐阜県大垣市今宿6-52-16","place":"ソフトピアジャパン ドリーム・コア2F メッセ","lat":35.3679,"lon":136.637,"state":"active","id":null},{"event_id":"65668","title":"【大阪】KansaiRoboDev #6 -PIZZAスペシャル-【ロボット】","url":"https://kansai-robo-dev.connpass.com/event/65668/","shortener_url":null,"started_at":"2017-09-30T19:00:00.000+09:00","ended_at":"2017-09-30T22:00:00.000+09:00","limit_number":12,"address":"大阪市中央区本町４丁目７−７−３０３","place":"Kiiiya Hommachi","lat":34.6849,"lon":135.498,"state":"active","id":null},{"event_id":"65630","title":"【大阪】JSerもくもく会 09/21【JavaScript/monaca/ハイブリッド開発】","url":"https://hackers-salon.connpass.com/event/65630/","shortener_url":null,"started_at":"2017-09-21T13:30:00.000+09:00","ended_at":"2017-09-21T18:00:00.000+09:00","limit_number":5,"address":"大阪市中央区本町４丁目７−７ 飛鳥ビル３０２","place":"Kiiiya Hommachi（2020年6月営業終了）","lat":34.6849,"lon":135.498,"state":"active","id":null},{"event_id":"65628","title":"【大阪】JSerもくもく会 09/12【JavaScript/monaca/ハイブリッド開発","url":"https://hackers-salon.connpass.com/event/65628/","shortener_url":null,"started_at":"2017-09-12T19:30:00.000+09:00","ended_at":"2017-09-12T22:30:00.000+09:00","limit_number":5,"address":"大阪市中央区本町４丁目７−７ 飛鳥ビル３０２","place":"Kiiiya Hommachi（2020年6月営業終了）","lat":34.6849,"lon":135.498,"state":"active","id":null},{"event_id":"65627","title":"【大阪】JSerもくもく会 09/10【JavaScript/monaca/ハイブリッド開発","url":"https://hackers-salon.connpass.com/event/65627/","shortener_url":null,"started_at":"2017-09-10T13:30:00.000+09:00","ended_at":"2017-09-10T18:00:00.000+09:00","limit_number":5,"address":"大阪市中央区本町４丁目７−７ 飛鳥ビル３０２","place":"Kiiiya Hommachi（2020年6月営業終了）","lat":34.6849,"lon":135.498,"state":"active","id":null},{"event_id":"65071","title":"【大阪・ディープラーニング】Hackers' Salon 09/04【もくもく会】","url":"https://hackers-salon.connpass.com/event/65071/","shortener_url":null,"started_at":"2017-09-04T11:00:00.000+09:00","ended_at":"2017-09-04T18:30:00.000+09:00","limit_number":5,"address":"大阪市中央区本町４丁目７−７ 飛鳥ビル３０２","place":"Kiiiya Hommachi（2020年6月営業終了）","lat":34.6849,"lon":135.498,"state":"active","id":null},{"event_id":"65631","title":"【大阪】JSerもくもく会 09/26【JavaScript/monaca/ハイブリッド開発】","url":"https://hackers-salon.connpass.com/event/65631/","shortener_url":null,"started_at":"2017-09-26T19:30:00.000+09:00","ended_at":"2017-09-26T22:30:00.000+09:00","limit_number":5,"address":"大阪市中央区本町４丁目７−７ 飛鳥ビル３０２","place":"Kiiiya Hommachi（2020年6月営業終了）","lat":34.6849,"lon":135.498,"state":"active","id":null},{"event_id":"64706","title":"【大阪】KANSAI AI PUB（関西×人工知能×場）#0","url":"https://deep-learning-osaka.connpass.com/event/64706/","shortener_url":null,"started_at":"2017-09-20T22:00:00.000+09:00","ended_at":"2017-09-20T23:59:00.000+09:00","limit_number":8,"address":"大阪市中央区本町４丁目７−７−３０3","place":"KiiiyaHommachi","lat":34.6849,"lon":135.498,"state":"active","id":null},{"event_id":"64485","title":"【大阪】XRミーティング #7【AR/CR/MR/SR/VR】","url":"https://osaka-driven-dev.connpass.com/event/64485/","shortener_url":null,"started_at":"2017-09-06T11:00:00.000+09:00","ended_at":"2017-09-06T12:30:00.000+09:00","limit_number":10,"address":"大阪市中央区本町4丁目7-7-303","place":"Kiiiya Hommachi","lat":34.6849,"lon":135.498,"state":"active","id":null},{"event_id":"64486","title":"【大阪】Microsoft HoloLens体験会 2017/09/06【MR/複合現実】","url":"https://osaka-driven-dev.connpass.com/event/64486/","shortener_url":null,"started_at":"2017-09-06T10:00:00.000+09:00","ended_at":"2017-09-06T11:00:00.000+09:00","limit_number":6,"address":"大阪市中央区本町4丁目7-7-303","place":"Kiiiya Hommachi","lat":34.6849,"lon":135.498,"state":"active","id":null},{"event_id":"65340","title":"オオサカプログラミングスクール「Javaerだらけのディープラーニング研究会 第５章」","url":"https://osaka-prg-school.connpass.com/event/65340/","shortener_url":null,"started_at":"2017-09-20T19:30:00.000+09:00","ended_at":"2017-09-20T21:30:00.000+09:00","limit_number":10,"address":"大阪市中央区瓦町3−4−9 ステーツ本町ビル8F（株式会社ソウ内）","place":"本町オープンソースラボ","lat":34.6805,"lon":135.502,"state":"active","id":null},{"event_id":"65844","title":"【宜野湾】アプリ開発　ハッカソン","url":"https://connpass.com/event/65844/","shortener_url":"https://goo.gl/qSyh7t","started_at":"2017-09-30T10:00:00.000+09:00","ended_at":"2017-09-30T18:00:00.000+09:00","limit_number":null,"address":"〒901 - 2223 沖縄県宜野湾市大山7-10-14 プロト宜野湾沖縄本社第2ビル","place":"CODE BASE OKINAWA","lat":26.2842,"lon":127.745,"state":"active","id":null},{"event_id":"90695","title":"第31回よちよちAndroid名古屋支部オフライン開発ミーティング","url":"https://atnd.org/events/90695","shortener_url":null,"started_at":"2017-09-03T00:00:00.000+09:00","ended_at":"2017-09-03T03:00:00.000+09:00","limit_number":null,"address":"名古屋市中区栄三丁目18番1号 ナディアパーク デザインセンタービル6階","place":"名古屋市市民活動推進センター","lat":35.1654,"lon":136.905,"state":"closed","id":null},{"event_id":"65856","title":"【大阪】大阪でも第8回UE4ぷちコン ゲームジャム","url":"https://osaka-driven-dev.connpass.com/event/65856/","shortener_url":"https://goo.gl/tNpBnu","started_at":"2017-09-09T01:30:00.000+09:00","ended_at":"2017-09-10T11:00:00.000+09:00","limit_number":19,"address":"大阪市北区中之島3-3-3  中之島三井ビルディング10F","place":" 株式会社Razest","lat":34.6932,"lon":135.494,"state":"active","id":null},{"event_id":"65924","title":"「嫌われAIの命名」Release Party","url":"https://connpass.com/event/65924/","shortener_url":null,"started_at":"2017-09-16T20:00:00.000+09:00","ended_at":"2017-09-16T23:00:00.000+09:00","limit_number":null,"address":"東京都港区南青山 1-15-18リーラ乃木坂B1F","place":"Club CACTUS","lat":35.6681,"lon":139.727,"state":"active","id":null},{"event_id":"65857","title":"【大阪】【初心者向け】オオサカプログラミングスクール「ElasticSearchを2時間で理解する」","url":"https://osaka-prg-school.connpass.com/event/65857/","shortener_url":null,"started_at":"2017-09-13T19:30:00.000+09:00","ended_at":"2017-09-13T21:30:00.000+09:00","limit_number":14,"address":"大阪市中央区本町4丁目7-7 飛鳥ビル303 ","place":"Kiiiya Hommachi","lat":34.6849,"lon":135.498,"state":"active","id":null},{"event_id":"66042","title":"汎用人工知能を創ろう!勉強会 by Team AI 9/14(木)","url":"https://teamai.connpass.com/event/66042/","shortener_url":null,"started_at":"2017-09-14T19:00:00.000+09:00","ended_at":"2017-09-14T21:00:00.000+09:00","limit_number":9,"address":"","place":"Online","lat":35.6618,"lon":139.696,"state":"active","id":null},{"event_id":"66041","title":"強化学習勉強会 by Team AI 9/13(水)","url":"https://teamai.connpass.com/event/66041/","shortener_url":"https://goo.gl/94xn35","started_at":"2017-09-13T19:00:00.000+09:00","ended_at":"2017-09-13T21:00:00.000+09:00","limit_number":10,"address":"","place":"Online","lat":35.6618,"lon":139.696,"state":"active","id":null},{"event_id":"90731","title":"第283回 よちよちAndroid オフライン開発ミーティング in 大崎","url":"https://atnd.org/events/90731","shortener_url":null,"started_at":"2017-09-03T01:00:00.000+09:00","ended_at":"2017-09-03T03:00:00.000+09:00","limit_number":null,"address":"東京都品川区大崎1-11-1","place":"ゲートシティ大崎B1アトリウムフリー座席","lat":35.6194,"lon":139.731,"state":"closed","id":null},{"event_id":"66131","title":"自然言語データハッ­カソン by Team AI  9/16(土)","url":"https://teamai.connpass.com/event/66131/","shortener_url":"https://goo.gl/bmmzPy","started_at":"2017-09-16T05:00:00.000+09:00","ended_at":"2017-09-16T07:00:00.000+09:00","limit_number":10,"address":"","place":"Online","lat":35.6618,"lon":139.696,"state":"active","id":null},{"event_id":"66130","title":"マーケティングデー­タハッカソン by Team AI 9/15(金)","url":"https://teamai.connpass.com/event/66130/","shortener_url":"https://goo.gl/DSsYJm","started_at":"2017-09-15T10:00:00.000+09:00","ended_at":"2017-09-15T12:00:00.000+09:00","limit_number":10,"address":"","place":"Online","lat":35.6618,"lon":139.696,"state":"active","id":null},{"event_id":"66118","title":"子ども向けプログラミング道場：コーダー道場21回目@泉北","url":"https://coderdojo-sakai.connpass.com/event/66118/","shortener_url":null,"started_at":"2017-09-17T01:00:00.000+09:00","ended_at":"2017-09-17T07:30:00.000+09:00","limit_number":26,"address":"堺市南区茶山台1丁2番1号","place":"泉ヶ丘センタービル　第5集会室","lat":34.4967,"lon":135.512,"state":"active","id":null},{"event_id":"66238","title":"【大阪・ディープラーニング】Hackers' Salon 09/23【もくもく会】","url":"https://hackers-salon.connpass.com/event/66238/","shortener_url":null,"started_at":"2017-09-23T11:00:00.000+09:00","ended_at":"2017-09-23T18:30:00.000+09:00","limit_number":5,"address":"大阪市中央区本町４丁目７−７−３０3","place":"KiiiyaHommachi","lat":34.6849,"lon":135.498,"state":"active","id":null},{"event_id":"90460","title":"ロボット×人工知能　音声認識で革命が起きる！","url":"https://atnd.org/events/90460","shortener_url":null,"started_at":"2017-09-30T01:00:00.000+09:00","ended_at":"2017-09-30T03:00:00.000+09:00","limit_number":30,"address":"東京都中野区新井5丁目29-1 西武信用金庫新井薬師ビル4階","place":"ShannnonLab株式会社　中野開発室 4F 応接室","lat":35.7161,"lon":139.671,"state":"closed","id":null},{"event_id":"66357","title":"【忍者募集】生駒開催：子ども向けプログラミング道場（No.38）（今回は午前中開催です）","url":"https://coderdojo-nara-ikoma.connpass.com/event/66357/","shortener_url":null,"started_at":"2017-09-16T09:00:00.000+09:00","ended_at":"2017-09-16T12:00:00.000+09:00","limit_number":14,"address":"奈良県生駒市元町1丁目7番6号","place":"市民活動推進センターららポート","lat":34.6919,"lon":135.698,"state":"active","id":null},{"event_id":"66134","title":"ブロックチェーンハッ­カソン by Team AI 9/18(月)","url":"https://teamai.connpass.com/event/66134/","shortener_url":"https://goo.gl/Rk6RgJ","started_at":"2017-09-18T19:00:00.000+09:00","ended_at":"2017-09-18T21:00:00.000+09:00","limit_number":10,"address":"","place":"Online","lat":35.6618,"lon":139.696,"state":"active","id":null},{"event_id":"65219","title":"Osaka Mix Leap LT #0 - ヤフー大阪で行う学生LT会","url":"https://yahoo-osaka.connpass.com/event/65219/","shortener_url":null,"started_at":"2017-09-15T18:00:00.000+09:00","ended_at":"2017-09-15T20:00:00.000+09:00","limit_number":45,"address":"大阪府大阪市北区大深町4-20 グランフロント大阪 タワーA 37階","place":"ヤフー株式会社 大阪グランフロントオフィス","lat":34.7054,"lon":135.495,"state":"active","id":null},{"event_id":"90873","title":"第32回よちよちAndroid名古屋支部オフライン開発ミーティング","url":"https://atnd.org/events/90873","shortener_url":null,"started_at":"2017-09-10T00:00:00.000+09:00","ended_at":"2017-09-10T03:00:00.000+09:00","limit_number":null,"address":"名古屋市中区栄三丁目18番1号 ナディアパーク デザインセンタービル6階","place":"名古屋市市民活動推進センター","lat":35.1654,"lon":136.905,"state":"closed","id":null},{"event_id":"66454","title":"「TouchDesigner超入門」「第18回エフェクターミニハッカソン」","url":"https://effectorhack.connpass.com/event/66454/","shortener_url":"https://goo.gl/49DNnG","started_at":"2017-09-09T13:00:00.000+09:00","ended_at":"2017-09-09T18:00:00.000+09:00","limit_number":30,"address":"東京都渋谷区渋谷1-7-7(住友不動産青山通ビル13階)","place":"CRI・ミドルウェアC会議室","lat":35.6605,"lon":139.706,"state":"active","id":null},{"event_id":"66289","title":"【大阪】DeepLearning初心者による初心者のための読書会","url":"https://osaka-prg-school.connpass.com/event/66289/","shortener_url":null,"started_at":"2017-09-18T13:30:00.000+09:00","ended_at":"2017-09-18T16:30:00.000+09:00","limit_number":4,"address":"大阪市中央区本町4丁目7-7 飛鳥ビル303 ","place":"Kiiiya Hommachi","lat":34.6849,"lon":135.498,"state":"active","id":null},{"event_id":"66384","title":"[未経験からAIエンジニアを目指す] 　人工知能入門講座　 [定員10名　限定]","url":"https://study-ai.connpass.com/event/66384/","shortener_url":null,"started_at":"2017-09-08T20:00:00.000+09:00","ended_at":"2017-09-08T20:40:00.000+09:00","limit_number":10,"address":"東京都新宿区新宿5丁目11−23 八千代ビル","place":"新宿三丁目駅徒歩4分 新宿会議室倶楽部　Room B ","lat":35.6931,"lon":139.708,"state":"active","id":null},{"event_id":"66391","title":"[未経験からAIエンジニアを目指す] 　人工知能入門講座　 [定員10名　限定]","url":"https://study-ai.connpass.com/event/66391/","shortener_url":null,"started_at":"2017-09-10T14:00:00.000+09:00","ended_at":"2017-09-10T14:40:00.000+09:00","limit_number":10,"address":"東京都新宿区新宿5丁目11−23 八千代ビル","place":"新宿三丁目駅徒歩4分 新宿会議室倶楽部　Room B ","lat":35.6931,"lon":139.708,"state":"active","id":null},{"event_id":"90889","title":"[未経験からAIエンジニアを目指す] 　人工知能入門講座　 [定員10名　限定 　　無料説明会]","url":"https://atnd.org/events/90889","shortener_url":null,"started_at":"2017-09-10T14:00:00.000+09:00","ended_at":"2017-09-10T14:40:00.000+09:00","limit_number":5,"address":"、東京都渋谷区 玉川通り","place":"渋谷駅2分","lat":35.658,"lon":139.702,"state":"closed","id":null},{"event_id":"90888","title":"[未経験からAIエンジニアを目指す] 　人工知能入門講座　 [定員10名　限定 　　無料説明会]","url":"https://atnd.org/events/90888","shortener_url":null,"started_at":"2017-09-10T14:00:00.000+09:00","ended_at":"2017-09-10T14:40:00.000+09:00","limit_number":5,"address":"、東京都渋谷区 玉川通り","place":"渋谷駅2分","lat":35.658,"lon":139.702,"state":"closed","id":null},{"event_id":"90899","title":"第284回 よちよちAndroid オフライン開発ミーティング in 大崎","url":"https://atnd.org/events/90899","shortener_url":null,"started_at":"2017-09-10T01:00:00.000+09:00","ended_at":"2017-09-10T03:00:00.000+09:00","limit_number":null,"address":"東京都品川区大崎1-11-1","place":"ゲートシティ大崎B1アトリウムフリー座席","lat":35.6194,"lon":139.731,"state":"closed","id":null},{"event_id":"90882","title":"[未経験からAIエンジニアを目指す] 　人工知能入門講座　 [定員10名　限定 　　無料説明会]","url":"https://atnd.org/events/90882","shortener_url":null,"started_at":"2017-09-08T20:00:00.000+09:00","ended_at":"2017-09-08T20:40:00.000+09:00","limit_number":5,"address":"、東京都渋谷区 玉川通り","place":"渋谷駅2分","lat":35.658,"lon":139.702,"state":"closed","id":null},{"event_id":"66559","title":"【大阪・ディープラーニング】Hackers' Salon 09/19【もくもく会】","url":"https://hackers-salon.connpass.com/event/66559/","shortener_url":null,"started_at":"2017-09-19T11:00:00.000+09:00","ended_at":"2017-09-19T18:30:00.000+09:00","limit_number":5,"address":"大阪市中央区本町４丁目７−７ 飛鳥ビル３０２","place":"Kiiiya Hommachi（2020年6月営業終了）","lat":34.6849,"lon":135.498,"state":"active","id":null},{"event_id":"65735","title":"「DeepLearning×画像解析」ライトニングトークイベント！by IMACEL Academy","url":"https://lpixel.connpass.com/event/65735/","shortener_url":null,"started_at":"2017-09-29T19:30:00.000+09:00","ended_at":"2017-09-29T21:30:00.000+09:00","limit_number":75,"address":"東京都文京区本郷5丁目24-5 (角川本郷ビル6F)","place":"Φcafe(ファイカフェ)- 人類とAIの黄金関係を創造する場 -","lat":35.7092,"lon":139.761,"state":"active","id":null},{"event_id":"66404","title":"第2回 福岡×人工知能×「利用・活用!!」","url":"https://techjin.connpass.com/event/66404/","shortener_url":null,"started_at":"2017-09-29T19:00:00.000+09:00","ended_at":"2017-09-29T21:00:00.000+09:00","limit_number":27,"address":"福岡県福岡市中央区天神3-4-3 (大隈ビル8F)","place":"TechJIN 8Fスペース","lat":33.592,"lon":130.396,"state":"active","id":null},{"event_id":"66409","title":"【Hackathon】横川ゾンビナイトの来場者に楽しんでもらえるエンタメコンテンツを作ろう!","url":"https://hsc.connpass.com/event/66409/","shortener_url":"https://goo.gl/9LqYKS","started_at":"2017-09-30T00:00:00.000+09:00","ended_at":"2017-10-01T10:00:00.000+09:00","limit_number":20,"address":"広島市中区大手町2丁目2-13","place":"デジタルものづくりスペース デジハコ（株式会社ワールドエリアネットワークス）ザ・ガーデンプレイス紙屋町 5F ","lat":34.393,"lon":132.456,"state":"active","id":null},{"event_id":"66622","title":"AI勉強会 in Miyazaki 〜Pythonハンズオン","url":"https://ai-miyazaki.connpass.com/event/66622/","shortener_url":null,"started_at":"2017-09-21T19:00:00.000+09:00","ended_at":"2017-09-21T21:00:00.000+09:00","limit_number":15,"address":"宮崎市柳丸町85番地","place":"スパークジャパン株式会社","lat":31.9266,"lon":131.432,"state":"active","id":null},{"event_id":"66529","title":"[秋葉原] 第11回 ゆるふわIoT電子工作入門","url":"https://weeyble-iot.connpass.com/event/66529/","shortener_url":null,"started_at":"2017-09-17T13:00:00.000+09:00","ended_at":"2017-09-17T18:00:00.000+09:00","limit_number":12,"address":"東京都千代田区神田須田町２丁目１９−２３ (野村第３ビル ４階)","place":"コワーキングスペース秋葉原Weeyble","lat":35.6966,"lon":139.772,"state":"active","id":null},{"event_id":"63913","title":"\u003cご好評につき増員させていただきました！\u003e【1万円からはじめる新しい資産運用】ソーシャルレンディング（投資型クラウドファンディング）はじめて講座","url":"https://crowd-credit.doorkeeper.jp/events/63913","shortener_url":null,"started_at":"2017-09-14T19:00:00.000+09:00","ended_at":"2017-09-14T21:00:00.000+09:00","limit_number":70,"address":"東京都中央区日本橋茅場町1丁目8−3 郵船茅場町ビル","place":"FinGATE","lat":35.6802,"lon":139.779,"state":"active","id":null},{"event_id":"63969","title":"KITハッカソン2017夏「コドモノベーション」","url":"https://kithackation.doorkeeper.jp/events/63969","shortener_url":"https://goo.gl/A9mLou","started_at":"2017-09-15T14:30:00.000+09:00","ended_at":"2017-09-17T17:00:00.000+09:00","limit_number":50,"address":"石川県白山市白峰ニ−110","place":"石川県白山市白峰村　白峰中学校跡地","lat":36.1781,"lon":136.626,"state":"active","id":null},{"event_id":"64320","title":"日本一の学生エンジニアを決定するハッカソン･イベント「HACKER WARS」","url":"https://goodfind.doorkeeper.jp/events/64320","shortener_url":"https://goo.gl/tfXAVF","started_at":"2017-09-17T10:00:00.000+09:00","ended_at":"2017-09-18T21:00:00.000+09:00","limit_number":50,"address":"東京都港区南青山2丁目6−15 南青山ガーデンコート","place":"Goodfindセミナールーム 東京都港区南青山2-11-17 第一法規本社ビル 3F","lat":35.6716,"lon":139.722,"state":"active","id":null},{"event_id":"64530","title":"【NEW】オルタナティブ投資の新潮流～個人投資家の新しい選択肢～（資産運用イノベーション協会）","url":"https://crowd-credit.doorkeeper.jp/events/64530","shortener_url":null,"started_at":"2017-09-25T19:00:00.000+09:00","ended_at":"2017-09-25T21:00:00.000+09:00","limit_number":40,"address":"東京都中央区日本橋茅場町1丁目8−3 郵船茅場町ビル","place":"FinGATE","lat":35.6802,"lon":139.779,"state":"active","id":null},{"event_id":"64469","title":"GovHack 神戸市","url":"https://hackcamp.doorkeeper.jp/events/64469","shortener_url":null,"started_at":"2017-09-15T18:00:00.000+09:00","ended_at":"2017-09-16T19:30:00.000+09:00","limit_number":30,"address":"兵庫県神戸市中央区小野浜町1−4 デザイン・クリエイティブセンター神戸","place":"KIITO：デザイン・クリエイティブセンター神戸","lat":34.6851,"lon":135.199,"state":"active","id":null},{"event_id":"64802","title":"Startup Weekend Tokyo :: Micro Edition #3","url":"https://swtokyo.doorkeeper.jp/events/64802","shortener_url":null,"started_at":"2017-09-29T18:30:00.000+09:00","ended_at":"2017-10-01T21:30:00.000+09:00","limit_number":15,"address":"東京都新宿区高田馬場1丁目27−2","place":"Green Room in CASE-Shinjuku","lat":35.7122,"lon":139.705,"state":"active","id":null},{"event_id":"66189","title":"水曜ワトソンカフェ　vol.3","url":"https://w2cafe.connpass.com/event/66189/","shortener_url":null,"started_at":"2017-09-27T19:30:00.000+09:00","ended_at":"2017-09-27T22:30:00.000+09:00","limit_number":15,"address":"東京都渋谷区 渋谷3-26-16 第五叶ビル 6F","place":"co-ba shibuya","lat":35.6541,"lon":139.706,"state":"active","id":null},{"event_id":"91020","title":"第33回よちよちAndroid名古屋支部オフライン開発ミーティング","url":"https://atnd.org/events/91020","shortener_url":null,"started_at":"2017-09-17T00:00:00.000+09:00","ended_at":"2017-09-17T03:00:00.000+09:00","limit_number":null,"address":"名古屋市中区栄三丁目18番1号 ナディアパーク デザインセンタービル6階","place":"名古屋市市民活動推進センター","lat":35.1654,"lon":136.905,"state":"closed","id":null},{"event_id":"65853","title":"Shizuoka Dev Cafe #9","url":"https://shizupkadevcafe.connpass.com/event/65853/","shortener_url":null,"started_at":"2017-09-27T10:00:00.000+09:00","ended_at":"2017-09-27T12:00:00.000+09:00","limit_number":10,"address":"静岡県静岡市葵区御幸町６ 静岡セントラルビル","place":"デジタルハリウッドSTUDIO静岡","lat":34.9742,"lon":138.387,"state":"active","id":null},{"event_id":"66818","title":"[未経験からAIエンジニアを目指す] 　人工知能入門講座　 [定員10名　限定]","url":"https://study-ai.connpass.com/event/66818/","shortener_url":null,"started_at":"2017-09-17T13:00:00.000+09:00","ended_at":"2017-09-17T15:00:00.000+09:00","limit_number":10,"address":"東京都渋谷区渋谷 1-8-3TOC第1ビル2階","place":"みんなの会議室2-1　渋谷宮益坂","lat":35.6603,"lon":139.706,"state":"active","id":null},{"event_id":"66784","title":"SHIMANE GREEN JAM #2","url":"https://sgj.connpass.com/event/66784/","shortener_url":"https://goo.gl/wjPzWG","started_at":"2017-09-15T10:00:00.000+09:00","ended_at":"2017-09-15T12:00:00.000+09:00","limit_number":null,"address":"島根県松江市朝日町478-18","place":"松江テルサ別館 オープンソースラボ","lat":35.464,"lon":133.062,"state":"active","id":null},{"event_id":"66819","title":"[未経験からAIエンジニアを目指す] 　人工知能入門講座　 [定員10名　限定]","url":"https://study-ai.connpass.com/event/66819/","shortener_url":null,"started_at":"2017-09-15T20:00:00.000+09:00","ended_at":"2017-09-15T21:00:00.000+09:00","limit_number":10,"address":"東京都新宿区新宿5丁目11−23 八千代ビル","place":"新宿三丁目駅徒歩4分 新宿会議室倶楽部　Room B ","lat":35.6931,"lon":139.708,"state":"active","id":null},{"event_id":"66333","title":"【9/21】CodeSprintミートアップ＃1　～就活準備スタート！～","url":"https://connpass.com/event/66333/","shortener_url":null,"started_at":"2017-09-21T17:00:00.000+09:00","ended_at":"2017-09-21T19:00:00.000+09:00","limit_number":15,"address":"東京都渋谷区南平台町15-13（帝都渋谷ビル8F）","place":"CodeSprint運営事務局（株式会社ギブリー内）","lat":35.6554,"lon":139.695,"state":"active","id":null},{"event_id":"66288","title":"GeoDev Meetup #10 - 地図データ（位置情報、地理情報）可視化・アプリ作成もくもく会","url":"https://geodev.connpass.com/event/66288/","shortener_url":null,"started_at":"2017-09-29T19:00:00.000+09:00","ended_at":"2017-09-29T21:00:00.000+09:00","limit_number":18,"address":"東京都千代田区平河町2-7-1（塩崎ビル）","place":"ESRIジャパン（株）5Fセミナールーム","lat":35.6792,"lon":139.741,"state":"active","id":null},{"event_id":"91072","title":"【Engineer Meetup！】リードコンサルタントとざっくばらんに話せる会！ #01","url":"https://atnd.org/events/91072","shortener_url":null,"started_at":"2017-09-22T10:00:00.000+09:00","ended_at":"2017-09-22T12:00:00.000+09:00","limit_number":7,"address":"神奈川県 横浜市 神奈川区 栄町2-5","place":"Avintonジャパン株式会社","lat":35.4696,"lon":139.627,"state":"closed","id":null},{"event_id":"66970","title":"I/Oもくもく会（プログラム、電子工作、原稿執筆…）","url":"https://ioio.connpass.com/event/66970/","shortener_url":null,"started_at":"2017-09-24T11:00:00.000+09:00","ended_at":"2017-09-24T17:00:00.000+09:00","limit_number":6,"address":"東京都新宿区四谷4-28-20","place":"工学社","lat":35.6878,"lon":139.715,"state":"active","id":null},{"event_id":"66925","title":"SmartHRビアバッシュ@RubyKaigi 2017","url":"https://smarthr.connpass.com/event/66925/","shortener_url":null,"started_at":"2017-09-19T19:00:00.000+09:00","ended_at":"2017-09-19T21:00:00.000+09:00","limit_number":5,"address":"広島県広島市中区大手町2-7-30 FUKA紙屋町 2F","place":"七宝丸。","lat":34.3925,"lon":132.456,"state":"active","id":null},{"event_id":"67096","title":"人材データハッカソ­ン by Team AI 9/22(金)","url":"https://teamai.connpass.com/event/67096/","shortener_url":"https://goo.gl/GizD5r","started_at":"2017-09-22T19:00:00.000+09:00","ended_at":"2017-09-22T21:00:00.000+09:00","limit_number":10,"address":"","place":"Online","lat":35.6618,"lon":139.696,"state":"active","id":null},{"event_id":"67095","title":"医療データハッカソ­ン by Team AI 9/21(木)","url":"https://teamai.connpass.com/event/67095/","shortener_url":"https://goo.gl/jcr9fW","started_at":"2017-09-21T10:00:00.000+09:00","ended_at":"2017-09-21T12:00:00.000+09:00","limit_number":10,"address":"","place":"Online","lat":35.6618,"lon":139.696,"state":"active","id":null},{"event_id":"67094","title":"金融データハッカソ­ン by Team AI 9/20(水)","url":"https://teamai.connpass.com/event/67094/","shortener_url":"https://goo.gl/LBV72H","started_at":"2017-09-20T10:00:00.000+09:00","ended_at":"2017-09-20T12:00:00.000+09:00","limit_number":10,"address":"","place":"Online","lat":35.6618,"lon":139.696,"state":"active","id":null},{"event_id":"67108","title":"【内閣府主催】RESASハッカソン2017 in 福岡 ～Web・IoTで創る福岡のミライ～","url":"https://connpass.com/event/67108/","shortener_url":"https://goo.gl/Zxny8W","started_at":"2017-09-30T00:30:00.000+09:00","ended_at":"2017-10-01T09:30:00.000+09:00","limit_number":35,"address":"〒810-0041 福岡県福岡市中央区大名2丁目6番11号","place":"Fukuoka Growth Next","lat":33.5891,"lon":130.395,"state":"active","id":null},{"event_id":"67200","title":"【9/29】CodeSprintミートアップ＃4　～就活準備スタート！～","url":"https://connpass.com/event/67200/","shortener_url":null,"started_at":"2017-09-29T17:00:00.000+09:00","ended_at":"2017-09-29T19:00:00.000+09:00","limit_number":4,"address":"東京都渋谷区南平台町15-13（帝都渋谷ビル8F）","place":"CodeSprint運営事務局（株式会社ギブリー内）","lat":35.6554,"lon":139.695,"state":"active","id":null},{"event_id":"67199","title":"【9/28】CodeSprintミートアップ＃3　～就活準備スタート！～","url":"https://connpass.com/event/67199/","shortener_url":null,"started_at":"2017-09-28T17:00:00.000+09:00","ended_at":"2017-09-28T19:00:00.000+09:00","limit_number":4,"address":"東京都渋谷区南平台町15-13（帝都渋谷ビル8F）","place":"CodeSprint運営事務局（株式会社ギブリー内）","lat":35.6554,"lon":139.695,"state":"active","id":null},{"event_id":"67198","title":"【9/27】CodeSprintミートアップ＃2　～就活準備スタート！～","url":"https://connpass.com/event/67198/","shortener_url":null,"started_at":"2017-09-27T17:00:00.000+09:00","ended_at":"2017-09-27T19:00:00.000+09:00","limit_number":15,"address":"東京都渋谷区南平台町15-13（帝都渋谷ビル8F）","place":"CodeSprint運営事務局（株式会社ギブリー内）","lat":35.6554,"lon":139.695,"state":"active","id":null},{"event_id":"67183","title":"秋のSmalltalkハッカソン | 第104回Smalltalk勉強会","url":"https://smalltalk.connpass.com/event/67183/","shortener_url":"https://goo.gl/Jw3777","started_at":"2017-09-27T19:00:00.000+09:00","ended_at":"2017-09-27T21:00:00.000+09:00","limit_number":12,"address":"東京都中央区日本橋茅場町1丁目9番2号 第一稲村ビル8階","place":"SORABITO株式会社","lat":35.68,"lon":139.779,"state":"active","id":null},{"event_id":"67184","title":"jammer device of high power","url":"https://connpass.com/event/67184/","shortener_url":null,"started_at":"2017-09-14T02:30:00.000+09:00","ended_at":"2017-09-30T04:30:00.000+09:00","limit_number":null,"address":"","place":"","lat":null,"lon":null,"state":"active","id":null},{"event_id":"64573","title":"いわみくと MeetUp！vol.21 （いわみICT協議会定例会 ）","url":"https://iwami-ict.doorkeeper.jp/events/64573","shortener_url":null,"started_at":"2017-09-22T18:30:00.000+09:00","ended_at":"2017-09-22T20:00:00.000+09:00","limit_number":40,"address":"島根県益田市駅前町17−1 EAGA","place":" いわみぷらっと","lat":34.6773,"lon":131.839,"state":"active","id":null},{"event_id":"67502","title":"自然言語データハッ­カソン by Team AI  9/30(土)","url":"https://teamai.connpass.com/event/67502/","shortener_url":"https://goo.gl/V3FTjG","started_at":"2017-09-30T05:00:00.000+09:00","ended_at":"2017-09-30T07:00:00.000+09:00","limit_number":10,"address":"","place":"Online","lat":35.6618,"lon":139.696,"state":"active","id":null},{"event_id":"67493","title":"汎用人工知能を創ろう!勉強会 by Team AI 9/28(木)","url":"https://teamai.connpass.com/event/67493/","shortener_url":null,"started_at":"2017-09-28T19:00:00.000+09:00","ended_at":"2017-09-28T21:00:00.000+09:00","limit_number":10,"address":"","place":"Online","lat":35.6618,"lon":139.696,"state":"active","id":null},{"event_id":"91241","title":"第34回よちよちAndroid名古屋支部オフライン開発ミーティング","url":"https://atnd.org/events/91241","shortener_url":null,"started_at":"2017-09-24T00:00:00.000+09:00","ended_at":"2017-09-24T03:00:00.000+09:00","limit_number":null,"address":"名古屋市中区栄三丁目18番1号 ナディアパーク デザインセンタービル6階","place":"名古屋市市民活動推進センター","lat":35.1654,"lon":136.905,"state":"closed","id":null},{"event_id":"67459","title":"【名城大学】JPHACKS2017説明会","url":"https://giveryengineersupport.connpass.com/event/67459/","shortener_url":null,"started_at":"2017-09-27T16:30:00.000+09:00","ended_at":"2017-09-27T18:00:00.000+09:00","limit_number":null,"address":"〒468-0073 愛知県名古屋市天白区塩釜口１丁目５０１","place":"名城大学","lat":35.1353,"lon":136.976,"state":"active","id":null},{"event_id":"91280","title":"第285回 よちよちAndroid オフライン開発ミーティング in 大崎【今回は土曜日です。】","url":"https://atnd.org/events/91280","shortener_url":null,"started_at":"2017-09-23T01:00:00.000+09:00","ended_at":"2017-09-23T03:00:00.000+09:00","limit_number":null,"address":"東京都品川区大崎1-11-1","place":"ゲートシティ大崎B1アトリウムフリー座席","lat":35.6194,"lon":139.731,"state":"closed","id":null},{"event_id":"66472","title":"【サポーターズCoLab勉強会】チャットボットのためのサービス設計・開発入門","url":"https://supporterz-seminar.connpass.com/event/66472/","shortener_url":null,"started_at":"2017-09-28T19:30:00.000+09:00","ended_at":"2017-09-28T21:00:00.000+09:00","limit_number":40,"address":"東京都渋谷区道玄坂1-9-5","place":"渋谷スクエアA","lat":35.6573,"lon":139.699,"state":"active","id":null},{"event_id":"65920","title":"【サポーターズCoLab勉強会】CFOが教える失敗しないエンジニアの転職～スタートアップ篇～","url":"https://supporterz-seminar.connpass.com/event/65920/","shortener_url":null,"started_at":"2017-09-27T19:45:00.000+09:00","ended_at":"2017-09-27T21:15:00.000+09:00","limit_number":20,"address":"東京都渋谷区道玄坂1-9-5","place":"渋谷スクエアA","lat":35.6573,"lon":139.699,"state":"active","id":null},{"event_id":"66540","title":"【サポーターズCoLab勉強会】ツールとしての機械学習","url":"https://supporterz-seminar.connpass.com/event/66540/","shortener_url":null,"started_at":"2017-09-26T19:30:00.000+09:00","ended_at":"2017-09-26T21:00:00.000+09:00","limit_number":40,"address":"東京都渋谷区道玄坂1-9-5","place":"渋谷スクエアA","lat":35.6573,"lon":139.699,"state":"active","id":null},{"event_id":"67909","title":"Gotanda.pm Petit-Hackathon #14","url":"https://gotanda-pm.connpass.com/event/67909/","shortener_url":"https://goo.gl/2NPCeh","started_at":"2017-09-29T10:30:00.000+09:00","ended_at":"2017-09-29T12:30:00.000+09:00","limit_number":12,"address":"東京都品川区東五反田1-24-2","place":"株式会社モバイルファクトリー","lat":35.6259,"lon":139.727,"state":"active","id":null},{"event_id":"64476","title":"FuraIT #35 - コミュニティ運営合宿","url":"https://furait.connpass.com/event/64476/","shortener_url":null,"started_at":"2017-09-18T04:30:00.000+09:00","ended_at":"2017-09-19T00:30:00.000+09:00","limit_number":30,"address":"北海道空知郡中富良野町南町１０−１０","place":"ふれあいセンターなかまーる 2F 中会議室","lat":43.4053,"lon":142.424,"state":"active","id":null},{"event_id":"64859","title":"第12回オープンCAE勉強会@関東（構造など）","url":"https://openfem-kanto.connpass.com/event/64859/","shortener_url":null,"started_at":"2017-09-02T01:00:00.000+09:00","ended_at":"2017-09-02T08:00:00.000+09:00","limit_number":30,"address":"東京都文京区白山5-28-20","place":"東洋大学白山キャンパス","lat":35.7236,"lon":139.75,"state":"active","id":null},{"event_id":"65758","title":"東京予選直前！オセロニアンの夏合宿","url":"https://connpass.com/event/65758/","shortener_url":null,"started_at":"2017-09-02T04:00:00.000+09:00","ended_at":"2017-09-02T08:00:00.000+09:00","limit_number":7,"address":"東京都港区麻布台2-2-12 三貴ビル 2F","place":"カフェバー ブルーバオバブ","lat":35.6587,"lon":139.743,"state":"active","id":null},{"event_id":"62351","title":"数学夏合宿2017","url":"https://connpass.com/event/62351/","shortener_url":null,"started_at":"2017-09-16T04:00:00.000+09:00","ended_at":"2017-09-17T04:00:00.000+09:00","limit_number":35,"address":"茨城県つくば市天久保１－１３－５","place":"筑波研修センター","lat":36.0931,"lon":140.111,"state":"active","id":null},{"event_id":"64071","title":"ぷち開発合宿 #22","url":"https://ydp.connpass.com/event/64071/","shortener_url":null,"started_at":"2017-09-30T00:00:00.000+09:00","ended_at":"2017-09-30T03:00:00.000+09:00","limit_number":4,"address":"大手町駅(E2出口)","place":"大手町","lat":35.6835,"lon":139.763,"state":"active","id":null},{"event_id":"64067","title":"ぷち開発合宿 #18","url":"https://ydp.connpass.com/event/64067/","shortener_url":null,"started_at":"2017-09-09T00:00:00.000+09:00","ended_at":"2017-09-09T03:00:00.000+09:00","limit_number":4,"address":"大手町駅(E2出口)","place":"大手町","lat":35.6835,"lon":139.763,"state":"active","id":null},{"event_id":"64068","title":"ぷち開発合宿 #19","url":"https://ydp.connpass.com/event/64068/","shortener_url":null,"started_at":"2017-09-16T00:00:00.000+09:00","ended_at":"2017-09-16T03:00:00.000+09:00","limit_number":4,"address":"大手町駅(E2出口)","place":"大手町","lat":35.6835,"lon":139.763,"state":"active","id":null},{"event_id":"64069","title":"ぷち開発合宿 #20","url":"https://ydp.connpass.com/event/64069/","shortener_url":null,"started_at":"2017-09-23T00:00:00.000+09:00","ended_at":"2017-09-23T03:00:00.000+09:00","limit_number":4,"address":"大手町駅(E2出口)","place":"大手町","lat":35.6835,"lon":139.763,"state":"active","id":null},{"event_id":"64070","title":"ぷち開発合宿 #21","url":"https://ydp.connpass.com/event/64070/","shortener_url":null,"started_at":"2017-09-24T00:00:00.000+09:00","ended_at":"2017-09-24T03:00:00.000+09:00","limit_number":4,"address":"大手町駅(E2出口)","place":"大手町","lat":35.6835,"lon":139.763,"state":"active","id":null},{"event_id":"90222","title":"会津大学競技プログラミング合宿2017","url":"https://atnd.org/events/90222","shortener_url":null,"started_at":"2017-09-18T04:00:00.000+09:00","ended_at":"2017-09-20T06:00:00.000+09:00","limit_number":50,"address":"福島県会津若松市一箕町鶴賀","place":"会津大学","lat":37.5208,"lon":139.938,"state":"closed","id":null},{"event_id":"90341","title":"ZERO合宿in八女","url":"https://atnd.org/events/90341","shortener_url":null,"started_at":"2017-09-02T04:00:00.000+09:00","ended_at":"2017-09-03T08:00:00.000+09:00","limit_number":100,"address":"福岡県八女市山内1268-2","place":"八女市　ふれあいの家南筑後","lat":33.2261,"lon":130.613,"state":"closed","id":null},{"event_id":"36547391231","title":"Employer Showcases  (EST) - Cleveland","url":"https://www.eventbrite.com/e/employer-showcases-est-cleveland-tickets-36547391231","shortener_url":null,"started_at":"2017-09-26T16:00:00.000+09:00","ended_at":"2022-07-22T19:00:00.000+09:00","limit_number":null,"address":null,"place":"online","lat":null,"lon":null,"state":"active","id":null}]