[{"event_id":"73055","title":"ゲーム制作部合同ゲームジャム合宿","url":"https://connpass.com/event/73055/","shortener_url":"https://goo.gl/Kuc1Bx","started_at":"2018-02-10T13:00:00.000+09:00","ended_at":"2018-02-12T16:00:00.000+09:00","limit_number":19,"address":"大阪府阪南市尾崎町8-37-41","place":"尾崎の家","lat":34.3753,"lon":135.248,"state":"active","id":null},{"event_id":"74094","title":"ハンズオン：LPWA（LoRa）で無線化したIoTを実際に動かそう","url":"https://serakumedia.connpass.com/event/74094/","shortener_url":"https://goo.gl/Bb9T5X","started_at":"2018-02-03T19:00:00.000+09:00","ended_at":"2018-02-04T05:05:00.000+09:00","limit_number":35,"address":"長崎県南島原市加津佐町1208","place":"株式会社セラク 南島原農業IT研究所（赤い屋根ふるさと交流館）","lat":32.6383,"lon":130.189,"state":"active","id":null},{"event_id":"93271","title":"AIIT起業塾 #11　ー Food Tech Start-ups ー","url":"https://atnd.org/events/93271","shortener_url":"https://goo.gl/9ekGUe","started_at":"2018-02-04T13:30:00.000+09:00","ended_at":"2018-02-04T17:10:00.000+09:00","limit_number":40,"address":"千代田区外神田 1-18-13 秋葉原ダイビル 12 階","place":"AIIT秋葉原サテライトキャンパス","lat":35.6992,"lon":139.772,"state":"closed","id":null},{"event_id":"74629","title":"ビギナーズソン Vol.1","url":"https://hackathon.connpass.com/event/74629/","shortener_url":"https://goo.gl/hAQJdK","started_at":"2018-02-10T09:30:00.000+09:00","ended_at":"2018-02-10T19:30:00.000+09:00","limit_number":35,"address":"東京都江東区豊洲3丁目7番5","place":"芝浦工業大学豊洲キャンパス 教室棟 505教室","lat":35.6613,"lon":139.795,"state":"active","id":null},{"event_id":"74699","title":"【2019新卒】 健康ハッカソン ～歩数計アプリを開発せよ～","url":"https://mti.connpass.com/event/74699/","shortener_url":"https://goo.gl/LnsmT6","started_at":"2018-02-16T09:30:00.000+09:00","ended_at":"2018-02-17T21:00:00.000+09:00","limit_number":10,"address":"東京都新宿区西新宿3-20-2(東京オペラシティタワー52階)","place":"株式会社エムティーアイ","lat":35.683,"lon":139.687,"state":"active","id":null},{"event_id":"75001","title":"DTMソン(ミュージソン)","url":"https://bios.connpass.com/event/75001/","shortener_url":null,"started_at":"2018-02-18T22:00:00.000+09:00","ended_at":"2018-02-19T02:00:00.000+09:00","limit_number":null,"address":"","place":"","lat":null,"lon":null,"state":"active","id":null},{"event_id":"93612","title":"2018手づくりマルシェWinter\u0026ふくしま「パンとパンのおとも」フェスタ","url":"https://atnd.org/events/93612","shortener_url":null,"started_at":"2018-02-12T10:30:00.000+09:00","ended_at":"2018-02-12T16:00:00.000+09:00","limit_number":null,"address":"福島県福島市曽根田町1-18","place":"MAXふくしま4階 A.O.Z(アオウゼ)","lat":37.7587,"lon":140.46,"state":"closed","id":null},{"event_id":"72710","title":"DeNA Techathon # 0x00","url":"https://denatechstudio.connpass.com/event/72710/","shortener_url":"https://goo.gl/gPMo6m","started_at":"2018-02-04T21:00:00.000+09:00","ended_at":"2018-02-05T04:00:00.000+09:00","limit_number":60,"address":"東京都渋谷区渋谷2-21-1 (渋谷ヒカリエ)","place":"株式会社ディー・エヌ・エー","lat":35.659,"lon":139.703,"state":"active","id":null},{"event_id":"67283","title":"Startup Weekend Kashiwa Vol.1","url":"https://swkashiwa.doorkeeper.jp/events/67283","shortener_url":null,"started_at":"2018-02-10T03:30:00.000+09:00","ended_at":"2018-02-12T06:00:00.000+09:00","limit_number":null,"address":"千葉県柏市若柴178 番地4 柏の葉キャンパス148 街区2 ショップ＆オフィス棟６階","place":"31 VENTURES KOIL KOILスタジオ","lat":35.8951,"lon":139.952,"state":"active","id":null},{"event_id":"67287","title":"Startup Weekend 神戸@関西学院大学","url":"https://swkobe.doorkeeper.jp/events/67287","shortener_url":null,"started_at":"2018-02-10T03:00:00.000+09:00","ended_at":"2018-02-12T06:00:00.000+09:00","limit_number":30,"address":"兵庫県西宮市上ケ原一番町1-155","place":"西宮上ケ原キャンパス 中央講堂ラーニングコモンズ　（※地図33番の建物）","lat":34.7679,"lon":135.347,"state":"active","id":null},{"event_id":"68455","title":"Startup Weekend Tokyo ＠東工大 20180216-0218","url":"https://swtokyo.doorkeeper.jp/events/68455","shortener_url":null,"started_at":"2018-02-17T02:30:00.000+09:00","ended_at":"2018-02-19T07:00:00.000+09:00","limit_number":60,"address":"東京都目黒区大岡山2丁目12−1","place":"東京工業大学大岡山キャンパス 北３号館 （環境エネルギーイノベーション棟）","lat":35.6059,"lon":139.684,"state":"active","id":null},{"event_id":"65725","title":"【懲りずに】温泉合宿 in 箱根 【三回目】","url":"https://svrkcho.connpass.com/event/65725/","shortener_url":"https://goo.gl/DTprXU","started_at":"2018-02-03T13:00:00.000+09:00","ended_at":"2018-02-04T12:00:00.000+09:00","limit_number":70,"address":"神奈川県足柄下郡箱根町木賀1014","place":"KKR宮ノ下","lat":35.2455,"lon":139.055,"state":"active","id":null},{"event_id":"74522","title":"情報科学若手の会冬の陣2018 懇親会","url":"https://wakate.connpass.com/event/74522/","shortener_url":null,"started_at":"2018-02-03T18:30:00.000+09:00","ended_at":"2018-02-03T21:00:00.000+09:00","limit_number":50,"address":"東京都渋谷区円山町19番1号 渋谷プライムプラザ 4F","place":"株式会社サイバーエージェント プライムプラザ クリエイティブラウンジ","lat":35.6566,"lon":139.695,"state":"active","id":null},{"event_id":"74427","title":"情報科学若手の会冬の陣2018 #wakate2018w","url":"https://wakate.connpass.com/event/74427/","shortener_url":null,"started_at":"2018-02-03T14:00:00.000+09:00","ended_at":"2018-02-03T18:00:00.000+09:00","limit_number":60,"address":"東京都渋谷区円山町19番1号 渋谷プライムプラザ 4F","place":"株式会社サイバーエージェント プライムプラザ クリエイティブラウンジ","lat":35.6566,"lon":139.695,"state":"active","id":null},{"event_id":"73945","title":"GAOGAOキャンプ！海外開発合宿フィリピン・セブ島編 with G’s CAMP CEBU 様","url":"https://gaogao.connpass.com/event/73945/","shortener_url":"https://goo.gl/ohjCqm","started_at":"2018-02-10T13:00:00.000+09:00","ended_at":"2018-02-11T18:00:00.000+09:00","limit_number":20,"address":"東京都渋谷区道玄坂1-9-5 渋谷スクエアA　11F ","place":"サポーターズ様レンタルスペース","lat":35.6573,"lon":139.7,"state":"active","id":null},{"event_id":"69640","title":"SocioInfo#16　楽しいデータ分析","url":"https://socioinfo.connpass.com/event/69640/","shortener_url":null,"started_at":"2018-02-10T10:00:00.000+09:00","ended_at":"2018-02-11T15:00:00.000+09:00","limit_number":20,"address":"〒314-0144 茨城県神栖市大野原4-7-11","place":"鹿島セントラルホテル","lat":35.8989,"lon":140.638,"state":"active","id":null},{"event_id":"68834","title":"2/25(日)festivo SEO Camp@東京【学生 5,000円、一般 7,000円】～SEOの全体像をつかむ！基礎概要から内部対策、キーワードやコンテンツの作り方など、実践スキルを学ぶ7時間！～","url":"https://festivo.doorkeeper.jp/events/68834","shortener_url":"https://goo.gl/5vZY9B","started_at":"2018-02-25T19:30:00.000+09:00","ended_at":"2018-02-26T03:30:00.000+09:00","limit_number":10,"address":"東京都新宿区高田馬場1-28-10 三慶ビル4F","place":"CASE Shinjuku（ケイスシンジュク）","lat":35.7121,"lon":139.705,"state":"active","id":null},{"event_id":"68835","title":"２/10(土)~11(日)festivo WordPressオリジナルテーマ制作 Camp@東京【学生15,000円、一般20,000円】～WEBサイトのWordPress化を学ぶ15時間！PHPプログラミングステップアップ集中合宿！！～","url":"https://festivo.doorkeeper.jp/events/68835","shortener_url":"https://goo.gl/uttHZ6","started_at":"2018-02-10T19:00:00.000+09:00","ended_at":"2018-02-12T04:00:00.000+09:00","limit_number":10,"address":"東京都練馬区豊玉北3-15-17","place":"起業家シェアハウス x-garden セミナールーム","lat":35.7329,"lon":139.661,"state":"active","id":null},{"event_id":"92864","title":"2018年02月3日『隣接界』合宿読書会","url":"https://atnd.org/events/92864","shortener_url":"https://goo.gl/8zdtS6","started_at":"2018-02-03T15:00:00.000+09:00","ended_at":"2018-02-04T09:00:00.000+09:00","limit_number":15,"address":"京都府南丹市園部町新町51-1","place":"京都府南丹市園部町『かいちや』","lat":35.1071,"lon":135.479,"state":"closed","id":null},{"event_id":"76368","title":"【大阪】Microsoft HoloLensハッカソン","url":"https://hololens.connpass.com/event/76368/","shortener_url":"https://goo.gl/M9L34R","started_at":"2018-02-03T09:30:00.000+09:00","ended_at":"2018-02-04T21:00:00.000+09:00","limit_number":8,"address":"大阪府大阪市北区鶴野町1-5","place":"関西大学梅田キャンパス４Ｆ","lat":34.7063,"lon":135.501,"state":"active","id":null},{"event_id":"76466","title":"金沢ベンチャーITフェスティバル","url":"https://connpass.com/event/76466/","shortener_url":null,"started_at":"2018-02-10T22:00:00.000+09:00","ended_at":"2018-02-12T03:00:00.000+09:00","limit_number":null,"address":"石川県金沢市武蔵町14-31","place":"ITビジネスプラザ武蔵","lat":36.5713,"lon":136.655,"state":"active","id":null},{"event_id":"76617","title":"[懇親会あり]LoRaWANを活用した大規模ハッカソン、柏の葉IoTハッカソン発表会・表彰式","url":"https://kashiwanoha.connpass.com/event/76617/","shortener_url":"https://goo.gl/W7L9AK","started_at":"2018-02-17T13:00:00.000+09:00","ended_at":"2018-02-17T18:30:00.000+09:00","limit_number":85,"address":"〒277-8520 千葉県柏市 若柴178 番地4 柏の葉キャンパス１４８街区２","place":"31VENTURES KOIL (柏の葉オープンイノベーションラボ)","lat":35.8951,"lon":139.952,"state":"active","id":null},{"event_id":"76201","title":"RUNHACK（本当に走るハッカソン）2018東京","url":"https://connpass.com/event/76201/","shortener_url":"https://goo.gl/WqeR1K","started_at":"2018-02-17T09:30:00.000+09:00","ended_at":"2018-02-17T22:00:00.000+09:00","limit_number":null,"address":"東京都千代田区霞が関一丁目4番1号 日土地ビル2F","place":"SENQ霞ヶ関","lat":35.6709,"lon":139.75,"state":"active","id":null},{"event_id":"76587","title":"【2019新卒】 健康ハッカソン ～エンジニアたるもの健康なくして生きてはいけぬ～","url":"https://mti.connpass.com/event/76587/","shortener_url":"https://goo.gl/TmrDKh","started_at":"2018-02-16T18:30:00.000+09:00","ended_at":"2018-02-18T06:00:00.000+09:00","limit_number":5,"address":"東京都新宿区西新宿3-20-2(東京オペラシティタワー28階)","place":"株式会社エムティーアイ","lat":35.683,"lon":139.687,"state":"active","id":null},{"event_id":"75500","title":"【大阪工業大学】第10回 梅キャン勉強会【梅田キャンパス】","url":"https://studygroup-umecanoit.connpass.com/event/75500/","shortener_url":null,"started_at":"2018-02-01T04:00:00.000+09:00","ended_at":"2018-02-01T05:00:00.000+09:00","limit_number":44,"address":"大阪府大阪市北区茶屋町1-45 8F","place":"大阪工業大学梅田キャンパス 8F ロボティクス\u0026デザインセンター","lat":34.7074,"lon":135.499,"state":"active","id":null},{"event_id":"76375","title":"React.js meetup #5","url":"https://reactjs-meetup.connpass.com/event/76375/","shortener_url":null,"started_at":"2018-02-02T03:30:00.000+09:00","ended_at":"2018-02-02T07:00:00.000+09:00","limit_number":83,"address":"東京都中央区日本橋2-7-1","place":"サイボウズ株式会社 東京オフィス","lat":35.6823,"lon":139.774,"state":"active","id":null},{"event_id":"76592","title":"プリパラハッカソン #1","url":"https://prickathon.connpass.com/event/76592/","shortener_url":"https://goo.gl/smvfJ7","started_at":"2018-02-11T13:30:00.000+09:00","ended_at":"2018-02-11T17:30:00.000+09:00","limit_number":null,"address":"渋谷区道玄坂1-9-5 (渋谷スクエアA)","place":"渋谷スクエアA 10F 会議室ドレーク","lat":35.6573,"lon":139.699,"state":"active","id":null},{"event_id":"76714","title":"SOCKET × Edgethon 2018 Day 1","url":"https://socket-kumamoto.connpass.com/event/76714/","shortener_url":"https://goo.gl/RFMBDZ","started_at":"2018-02-20T13:30:00.000+09:00","ended_at":"2018-02-20T18:30:00.000+09:00","limit_number":50,"address":"熊本県熊本市北区飛田3-5-8","place":"SOCKET IoMT/AI Lab Kumamoto","lat":32.8506,"lon":130.718,"state":"active","id":null},{"event_id":"76822","title":"GR-CITRUS ミニハッカソン in OSAKA - RubyとIoTでアイデアをカタチに","url":"https://mruby-funatelier.connpass.com/event/76822/","shortener_url":"https://goo.gl/d3wP7n","started_at":"2018-02-10T19:00:00.000+09:00","ended_at":"2018-02-11T03:00:00.000+09:00","limit_number":30,"address":"大阪市浪速区日本橋西2-5-1","place":"共立電子セミナールーム","lat":34.657,"lon":135.504,"state":"active","id":null},{"event_id":"75623","title":"第12回　CoderDojo横浜","url":"https://coderdojo-yokohama.connpass.com/event/75623/","shortener_url":null,"started_at":"2018-02-10T14:00:00.000+09:00","ended_at":"2018-02-10T16:00:00.000+09:00","limit_number":null,"address":"神奈川県横浜市神奈川区鶴屋町2-24-2","place":"かながわ県民センター","lat":35.4684,"lon":139.621,"state":"active","id":null},{"event_id":"339194","title":"【アニメ業界の制作と製作】課題解決アイデアソンvol.2","url":"http://anime-business-ideathon2.peatix.com","shortener_url":"https://goo.gl/VWiJmu","started_at":"2018-02-11T21:30:00.000+09:00","ended_at":"2018-02-14T08:59:59.000+09:00","limit_number":null,"address":"東京都渋谷区神泉町8-16　渋谷ファーストプレイス8F","place":"東京都渋谷区神泉町8-16　渋谷ファーストプレイス8F　VOYAGE GROUP　無料シェア会議室「PORT」","lat":35.6553,"lon":139.694,"state":"active","id":null},{"event_id":"337635","title":"Microsoft HoloLens ハッカソン","url":"http://mshackathon0203.peatix.com","shortener_url":"https://goo.gl/4YRogc","started_at":"2018-02-03T19:00:00.000+09:00","ended_at":"2018-02-06T08:59:59.000+09:00","limit_number":null,"address":"大阪府大阪市北区鶴野町1-5 ","place":"関西大学梅田キャンパス４Ｆ","lat":34.7065,"lon":135.501,"state":"active","id":null},{"event_id":"337806","title":"＊お土産つき＊mogmogはうすのmogmogごはん#36〜あなたのお気に入りのマーマレードは？？〜","url":"http://peatix.com/event/337806","shortener_url":null,"started_at":"2018-02-12T20:00:00.000+09:00","ended_at":"2018-02-15T08:59:59.000+09:00","limit_number":null,"address":"JR/東京メトロ 上野駅","place":"Hirokoさんの食卓","lat":35.7124,"lon":139.776,"state":"active","id":null},{"event_id":"339109","title":"[Show # 2] - Comedy Masala @ Kilo Lounge ft. WIL SYLVINCE (USA) | as seen on HBO's Def Comedy Jam \u0026 Showtime","url":"http://wilsylvincekilo.peatix.com","shortener_url":"https://goo.gl/JtCWzL","started_at":"2018-02-08T06:30:00.000+09:00","ended_at":"2018-02-10T08:59:59.000+09:00","limit_number":null,"address":"21 Tanjong Pagar Road, #01-02/04, S088444","place":"Kilo Lounge","lat":1.27947,"lon":103.844,"state":"active","id":null},{"event_id":"330535","title":"[Show # 1] - Comedy Masala @ Hero's ft. WIL SYLVINCE (HBO Def Comedy Jam, Showtime) | Comedy Masala's No. 1 Ranked Comedian","url":"http://willsylvince.peatix.com","shortener_url":"https://goo.gl/BDXcPN","started_at":"2018-02-07T06:00:00.000+09:00","ended_at":"2018-02-09T08:59:59.000+09:00","limit_number":null,"address":"69 Circular Road, Boat Quay, Singapore 049423","place":"HERO'S, 69 Circular Road, Singapore 049423","lat":1.28641,"lon":103.849,"state":"active","id":null},{"event_id":"340845","title":"森となりわいを創るナイト（第一部　森のなりわいアイデアソン）","url":"http://peatix.com/event/340845","shortener_url":"https://goo.gl/yXAZGW","started_at":"2018-02-12T01:00:00.000+09:00","ended_at":"2018-02-14T08:59:59.000+09:00","limit_number":null,"address":"東京都江東区三好1-7-14 ","place":"リトルトーキョー","lat":35.6801,"lon":139.8,"state":"active","id":null},{"event_id":"333080","title":"【アイデアソン】TSUBAME HACK!×神子島製作所","url":"http://peatix.com/event/333080","shortener_url":"https://goo.gl/UPRDWu","started_at":"2018-02-03T18:40:00.000+09:00","ended_at":"2018-02-06T08:59:59.000+09:00","limit_number":null,"address":"新潟県燕市小関578番地","place":"株式会社神子島製作所　本社","lat":37.661,"lon":138.9,"state":"active","id":null},{"event_id":"340249","title":"COMMUNITY TECH HACKATHON Vol.2　ワーキングコミュニティ「co-ba」を「ネスカフェゴールドブレンドバリスタ」でハックしよう！","url":"http://peatix.com/event/340249","shortener_url":"https://goo.gl/kxRtS7","started_at":"2018-02-17T18:00:00.000+09:00","ended_at":"2018-02-20T08:59:59.000+09:00","limit_number":null,"address":"東京都渋谷区渋谷3-26-16 第5叶ビル6F","place":"co-ba shibuya","lat":35.6541,"lon":139.706,"state":"active","id":null},{"event_id":"339378","title":"質問を創る学び場 ハテナソン・ファシリテータ養成講座 IN 東京","url":"http://peatix.com/event/339378","shortener_url":"https://goo.gl/rsT287","started_at":"2018-02-25T19:00:00.000+09:00","ended_at":"2018-02-28T08:59:59.000+09:00","limit_number":null,"address":"〒101-0054\u2028東京都千代田区神田錦町3‐21 ちよだプラットフォームスクウェア本館 会議室504","place":"〒101-0054\u2028東京都千代田区神田錦町3‐21 ちよだプラットフォームスクウェア本館 会議室504","lat":35.6914,"lon":139.762,"state":"active","id":null},{"event_id":"294637","title":"【満員御礼】地域の魅力をみんなで磨くアイデアソンイベント「さぶみっと！ヨクスル in 高松」【2018年2月20日(火)開催】","url":"http://peatix.com/event/294637","shortener_url":"https://goo.gl/Fz9MCr","started_at":"2018-02-21T04:00:00.000+09:00","ended_at":"2018-02-23T08:59:59.000+09:00","limit_number":null,"address":"香川県高松市常磐町2-6-17 松原ビル3F","place":"Licomo Drink＆Space","lat":34.3375,"lon":134.052,"state":"active","id":null},{"event_id":"312318","title":"【2/10～2/11】広島通訳合宿（英語）","url":"http://peatix.com/event/312318","shortener_url":"https://goo.gl/qpZXjR","started_at":"2018-02-10T19:00:00.000+09:00","ended_at":"2018-02-13T08:59:59.000+09:00","limit_number":null,"address":"広島県廿日市市宮島町","place":"広島県廿日市市宮島町","lat":34.2992,"lon":132.322,"state":"active","id":null},{"event_id":"335743","title":"カードゲームと質問づくりQFTで遊ぶ、学ぶ『持続可能な開発目標SDGs』ハテナソン IN 東京新宿","url":"http://peatix.com/event/335743","shortener_url":"https://goo.gl/F8TXKD","started_at":"2018-02-18T22:20:00.000+09:00","ended_at":"2018-02-21T08:59:59.000+09:00","limit_number":null,"address":"東京都新宿区新宿5丁目11-13 博雅ビル4階403号室","place":"東京都新宿区新宿5丁目11-13 博雅ビル4階403号室","lat":35.6933,"lon":139.707,"state":"active","id":null},{"event_id":"336851","title":"こどもIoTハッカソン～プログラミングを学んで問題解決!","url":"http://peatix.com/event/336851","shortener_url":"https://goo.gl/Hu5qds","started_at":"2018-02-03T19:00:00.000+09:00","ended_at":"2018-02-06T08:59:59.000+09:00","limit_number":null,"address":"三重県松阪市立野町1291","place":"みえこどもの城","lat":34.5449,"lon":136.503,"state":"active","id":null},{"event_id":"340044","title":"2月2日(金)19:00～代官山 まるでL.A.にいるかのようなカフェでGaitomo国際交流パーティー","url":"http://peatix.com/event/340044","shortener_url":null,"started_at":"2018-02-03T04:00:00.000+09:00","ended_at":"2018-02-05T08:59:59.000+09:00","limit_number":null,"address":"東京都渋谷区代官山町20-20 モンシェリー代官山B2-2 ","place":"代官山 BLU JAM CAFE ","lat":35.6481,"lon":139.702,"state":"active","id":null},{"event_id":"340120","title":"YOKOS会議2018","url":"http://peatix.com/event/340120","shortener_url":null,"started_at":"2018-02-24T23:30:00.000+09:00","ended_at":"2018-02-27T08:59:59.000+09:00","limit_number":null,"address":"東京都中央区銀座6-18-2 野村不動産ビル5階","place":"株式会社D2C D2Cホール","lat":0.0,"lon":0.0,"state":"active","id":null},{"event_id":"338212","title":"【学生限定】クルマの未来を考える！クルマAPI ハッカソン","url":"http://peatix.com/event/338212","shortener_url":"https://goo.gl/8wZUwy","started_at":"2018-02-14T22:00:00.000+09:00","ended_at":"2018-02-17T08:59:59.000+09:00","limit_number":null,"address":"東京都品川区東品川4-13-14 グラスキューブ品川8F","place":"株式会社ブロードリーフ","lat":35.6085,"lon":139.75,"state":"active","id":null},{"event_id":"341755","title":"初心者向けWSあり♪コンタクト・インプロヴィゼーション","url":"http://peatix.com/event/341755","shortener_url":null,"started_at":"2018-02-04T20:00:00.000+09:00","ended_at":"2018-02-07T08:59:59.000+09:00","limit_number":null,"address":"東京都荒川区南千住２丁目１９−２","place":"アンビスタハウス","lat":35.7302,"lon":139.796,"state":"active","id":null},{"event_id":"332677","title":"２/10(土)~11(日)festivo WordPressオリジナルテーマ制作 Camp@東京【学生15,000円、一般20,000円】～WEBサイトのWordPress化を学ぶ15時間！PHPプログラミングステップアップ集中合宿！！～","url":"http://peatix.com/event/332677","shortener_url":"https://goo.gl/18Y3s7","started_at":"2018-02-10T19:00:00.000+09:00","ended_at":"2018-02-13T08:59:59.000+09:00","limit_number":null,"address":"東京都練馬区豊玉北3-15-17","place":"起業家シェアハウス x-garden セミナールーム","lat":35.7329,"lon":139.661,"state":"active","id":null},{"event_id":"341929","title":"IchigoJamプログラミングスクール＜Hana道場＞2月24日","url":"http://peatix.com/event/341929","shortener_url":"https://goo.gl/ot5ymW","started_at":"2018-02-24T23:00:00.000+09:00","ended_at":"2018-02-27T08:59:59.000+09:00","limit_number":null,"address":"福井県鯖江市旭町1-6-6","place":"Hana道場","lat":35.9447,"lon":136.187,"state":"active","id":null},{"event_id":"334358","title":"YOIファンのためのロシア料理研究会","url":"http://peatix.com/event/334358","shortener_url":null,"started_at":"2018-02-04T19:30:00.000+09:00","ended_at":"2018-02-07T08:59:59.000+09:00","limit_number":null,"address":"JR/東京メトロ 上野駅","place":"Seiraさんの食卓","lat":35.4505,"lon":139.636,"state":"active","id":null},{"event_id":"341928","title":"IchigoJamプログラミングスクール＜Hana道場＞2月10日","url":"http://peatix.com/event/341928","shortener_url":"https://goo.gl/fPr7za","started_at":"2018-02-10T23:00:00.000+09:00","ended_at":"2018-02-13T08:59:59.000+09:00","limit_number":null,"address":"福井県鯖江市旭町1-6-6","place":"Hana道場","lat":35.9447,"lon":136.187,"state":"active","id":null},{"event_id":"341020","title":"Japan Dancers' Championship 2018","url":"http://peatix.com/event/341020","shortener_url":null,"started_at":"2018-02-08T00:30:00.000+09:00","ended_at":"2018-02-10T08:59:59.000+09:00","limit_number":null,"address":"東京都江東区青海 1-1-10 ダイバーシティ東京プラザ","place":"Zepp DiverCity","lat":35.625,"lon":139.775,"state":"active","id":null},{"event_id":"316236","title":"アスリートの食事講座2017　第3回(2018年2月16日) ","url":"http://peatix.com/event/316236","shortener_url":null,"started_at":"2018-02-16T22:00:00.000+09:00","ended_at":"2018-02-19T08:59:59.000+09:00","limit_number":null,"address":"東京都中央区築地3-5-10","place":"日刊スポーツ新聞社","lat":35.668,"lon":139.774,"state":"active","id":null},{"event_id":"316233","title":"アスリートの食事講座2017　第3回(2018年2月14日) ","url":"http://peatix.com/event/316233","shortener_url":null,"started_at":"2018-02-14T22:00:00.000+09:00","ended_at":"2018-02-17T08:59:59.000+09:00","limit_number":null,"address":"東京都中央区築地3-5-10","place":"日刊スポーツ新聞社","lat":35.668,"lon":139.774,"state":"active","id":null},{"event_id":"333378","title":"MUSIC HACK DAY Tokyo 2018","url":"http://peatix.com/event/333378","shortener_url":"https://goo.gl/Si8cSY","started_at":"2018-02-03T19:00:00.000+09:00","ended_at":"2018-02-06T08:59:59.000+09:00","limit_number":null,"address":"東京都渋谷区渋谷2丁目16番1号","place":"株式会社レコチョク","lat":35.6599,"lon":139.705,"state":"active","id":null},{"event_id":"341745","title":"【東京開催】Xperia Hello!  Meet up  -家・企業・学校などでXperia Hello!の活用を考えるアイディアソン-","url":"http://peatix.com/event/341745","shortener_url":"https://goo.gl/tmxTgZ","started_at":"2018-02-17T19:00:00.000+09:00","ended_at":"2018-02-20T08:59:59.000+09:00","limit_number":null,"address":"東京都中央区八重洲2丁目8-7 福岡ビル4F","place":" DIAGONAL RUN TOKYO","lat":35.6766,"lon":139.768,"state":"active","id":null},{"event_id":"340149","title":"「Japan Times Satoyama推進コンソーシアム」キックオフフォーラム","url":"http://peatix.com/event/340149","shortener_url":null,"started_at":"2018-02-13T22:30:00.000+09:00","ended_at":"2018-02-16T08:59:59.000+09:00","limit_number":null,"address":"東京都千代田区平河町2-4-2","place":"全国市長会館　大１会議室","lat":35.6815,"lon":139.739,"state":"active","id":null},{"event_id":"341977","title":"【福岡開催】Xperia Hello!  Meet up  -家・企業・学校などでXperia Hello!の活用を考えるアイディアソン- ","url":"http://peatix.com/event/341977","shortener_url":"https://goo.gl/mSezFd","started_at":"2018-02-17T19:00:00.000+09:00","ended_at":"2018-02-20T08:59:59.000+09:00","limit_number":null,"address":"福岡市西区今宿駅前1-15-18 マリブ今宿シーサイドテラス2F","place":"シェアオフィスSALT","lat":33.5817,"lon":130.275,"state":"active","id":null},{"event_id":"335131","title":"RING.O -PAELLAS x C.O.S.A. x DALLJUB STEP CLUB-","url":"http://peatix.com/event/335131","shortener_url":null,"started_at":"2018-02-13T03:00:00.000+09:00","ended_at":"2018-02-15T08:59:59.000+09:00","limit_number":null,"address":"〒542-0086 大阪市中央区西心斎橋 1-8-16 中西ビル 2F","place":"CIRCUS OSAKA","lat":34.6731,"lon":135.498,"state":"active","id":null},{"event_id":"336819","title":"長崎県離島ビジネス創造ワークショップ","url":"http://peatix.com/event/336819","shortener_url":null,"started_at":"2018-02-17T23:00:00.000+09:00","ended_at":"2018-02-20T08:59:59.000+09:00","limit_number":null,"address":"長崎離島","place":"長崎離島","lat":0.0,"lon":0.0,"state":"active","id":null},{"event_id":"336958","title":"【学生限定/2DAYS開催/メンターつき！】ユーザー数7,000万人以上！モバイルメディア向け広告配信システムを構築してみよう","url":"http://peatix.com/event/336958","shortener_url":"https://goo.gl/Gxh285","started_at":"2018-02-05T19:30:00.000+09:00","ended_at":"2018-02-08T08:59:59.000+09:00","limit_number":null,"address":"東京都中央区銀座6-18-2 野村不動産銀座ビル 5F","place":"株式会社D2C","lat":35.667,"lon":139.767,"state":"active","id":null},{"event_id":"339549","title":"さよなら京都みなみ会館〜 PAINLOT presents〈パンと映画をめしあがれ『74歳のペリカンはパンを売る。』〉 バレンタインの全力パン祭り〜","url":"http://pelican-painlot.peatix.com","shortener_url":null,"started_at":"2018-02-10T21:15:00.000+09:00","ended_at":"2018-02-13T08:59:59.000+09:00","limit_number":null,"address":"京都市南区西九条東比永城町78","place":"京都みなみ会館","lat":34.9791,"lon":135.751,"state":"active","id":null},{"event_id":"340218","title":"ミドルシニアこそ副業を！~人生多毛作準備としての副業・複業を考える~","url":"http://peatix.com/event/340218","shortener_url":null,"started_at":"2018-02-10T23:00:00.000+09:00","ended_at":"2018-02-13T08:59:59.000+09:00","limit_number":null,"address":"東京都中央区日本橋2-7-1 東京日本橋タワー 27階","place":"サイボウズ株式会社　カンファレンスルーム","lat":35.6819,"lon":139.774,"state":"active","id":null},{"event_id":"330297","title":"2/25(日)festivo SEO Camp@東京【学生 5,000円、一般 7,000円】～SEOの全体像をつかむ！基礎概要から内部対策、キーワードやコンテンツの作り方など、実践スキルを学ぶ7時間！～","url":"http://peatix.com/event/330297","shortener_url":"https://goo.gl/wpFqt6","started_at":"2018-02-25T19:30:00.000+09:00","ended_at":"2018-02-28T08:59:59.000+09:00","limit_number":null,"address":"東京都新宿区高田馬場1-28-10 三慶ビル4F","place":"CASE Shinjuku（ケイスシンジュク）","lat":35.7122,"lon":139.705,"state":"active","id":null},{"event_id":"329602","title":"Gina Yashere Live in Singapore","url":"http://ginayasheresg.peatix.com","shortener_url":null,"started_at":"2018-02-04T06:30:00.000+09:00","ended_at":"2018-02-06T08:59:59.000+09:00","limit_number":null,"address":"Esplanade Annexe Studio, 1 Esplanade Drive, Singapore 038981","place":"Esplanade Annexe Studio","lat":1.28949,"lon":103.857,"state":"active","id":null},{"event_id":"337288","title":"2.17~18 ビジネス英語集中〜マルチリンガルメソッド2dayアドバンス〜 ","url":"http://multilingual0217.peatix.com","shortener_url":null,"started_at":"2018-02-17T19:00:00.000+09:00","ended_at":"2018-02-20T08:59:59.000+09:00","limit_number":null,"address":"四ツ谷","place":"マルチリンガルサロン in 四谷","lat":35.6862,"lon":139.73,"state":"active","id":null},{"event_id":"334076","title":"【観覧者募集】アトツギピッチ／家業×イノベーションの新ビジネスを考えるアトツギソンDAY3のピッチイベント","url":"http://peatix.com/event/334076","shortener_url":null,"started_at":"2018-02-26T01:00:00.000+09:00","ended_at":"2018-02-28T08:59:59.000+09:00","limit_number":null,"address":"大阪市北区大深町3番1号 グランフロント大阪 ナレッジキャピタルタワーC 7階","place":"大阪イノベーションハブ","lat":0.0,"lon":0.0,"state":"active","id":null},{"event_id":"339967","title":"初心者向け大喜利体験スポット『ひなどり』 2/8(木)19:30～","url":"http://peatix.com/event/339967","shortener_url":null,"started_at":"2018-02-09T04:30:00.000+09:00","ended_at":"2018-02-11T08:59:59.000+09:00","limit_number":null,"address":"東京都新宿区西新宿7-1-7 新宿ダイカンビルＡ館1109号室","place":"『ひなどり』新宿ダイカン教室","lat":0.0,"lon":0.0,"state":"active","id":null},{"event_id":"342101","title":"Hot Seinfeld -DJ Seinfeld in Tokyo-","url":"http://peatix.com/event/342101","shortener_url":null,"started_at":"2018-02-24T08:00:00.000+09:00","ended_at":"2018-02-26T08:59:59.000+09:00","limit_number":null,"address":"〒150-0002 東京都渋谷区渋谷3丁目26−16 第五叶ビル1F\u0026B1F","place":"CIRCUS TOKYO","lat":35.6542,"lon":139.706,"state":"active","id":null},{"event_id":"333210","title":"2/2(Fri) Nihongo Night at Modern Bar in Roppongi/ FREE Entrance for Non-Japanese","url":"http://peatix.com/event/333210","shortener_url":null,"started_at":"2018-02-03T04:00:00.000+09:00","ended_at":"2018-02-05T08:59:59.000+09:00","limit_number":null,"address":"東京都港区六本木7-13-8","place":"GLAMOUR Tokyo Bar","lat":35.6639,"lon":139.73,"state":"active","id":null},{"event_id":"333208","title":"2/1(Thu) English Only Night  in NishiShinjuku / FREE Entry for Non-Japanese ","url":"http://peatix.com/event/333208","shortener_url":null,"started_at":"2018-02-02T04:00:00.000+09:00","ended_at":"2018-02-04T08:59:59.000+09:00","limit_number":null,"address":"東京都新宿区西新宿8-19-11","place":"KASHIWAGI CAFE ","lat":35.6956,"lon":139.691,"state":"active","id":null},{"event_id":"333277","title":"2/24(Sat) Akasaka Nihongo Night / FREE Entrance for Non-Japanese","url":"http://peatix.com/event/333277","shortener_url":null,"started_at":"2018-02-25T04:00:00.000+09:00","ended_at":"2018-02-27T08:59:59.000+09:00","limit_number":null,"address":"東京都港区赤坂2-13-19","place":"AKASAKA HOBGOBLIN","lat":35.6727,"lon":139.738,"state":"active","id":null},{"event_id":"321568","title":"【2/23～開催】アトツギソン！ー「家業×イノベーション」でワクワクすること始めよう！ー","url":"http://peatix.com/event/321568","shortener_url":null,"started_at":"2018-02-24T04:00:00.000+09:00","ended_at":"2018-02-26T08:59:59.000+09:00","limit_number":null,"address":"関西大学梅田キャンパス/大阪イノベーションハブ","place":"Day1,2:関大ミライズ／Day3:大阪イノベーションハブ","lat":34.7063,"lon":135.501,"state":"active","id":null},{"event_id":"333221","title":"2/9(Fri) Roppongi Drink Meetup / FREE Entry for Non-Japanese","url":"http://peatix.com/event/333221","shortener_url":null,"started_at":"2018-02-10T04:00:00.000+09:00","ended_at":"2018-02-12T08:59:59.000+09:00","limit_number":null,"address":"東京都港区六本木7丁目11−7 JSR六本木倶楽部","place":"BAR QUEST","lat":35.6641,"lon":139.729,"state":"active","id":null},{"event_id":"333240","title":"2/16(Fri) Nihongo Night in Nishi-Shinjuku / FREE Entrance for Non-Japanese","url":"http://peatix.com/event/333240","shortener_url":null,"started_at":"2018-02-17T04:00:00.000+09:00","ended_at":"2018-02-19T08:59:59.000+09:00","limit_number":null,"address":"東京都新宿区西新宿8-19-11  ","place":"KASHIWAGI CAFE  ","lat":35.6956,"lon":139.691,"state":"active","id":null},{"event_id":"333214","title":"2/4(Sun) Nihongo Meetup in Shibuya / FREE Entry for Non-Japanese","url":"http://peatix.com/event/333214","shortener_url":null,"started_at":"2018-02-04T23:00:00.000+09:00","ended_at":"2018-02-07T08:59:59.000+09:00","limit_number":null,"address":"2-12 Sarugakucho Shibuya-ku Tokyo","place":"Asian Spice King","lat":35.6533,"lon":139.705,"state":"active","id":null},{"event_id":"333211","title":"2/3(Sat) Shinjuku Travel Lovers Ladies  Meetup  / FREE Entry for Non-Japanese","url":"http://peatix.com/event/333211","shortener_url":null,"started_at":"2018-02-04T00:00:00.000+09:00","ended_at":"2018-02-06T08:59:59.000+09:00","limit_number":null,"address":"8-19-11 NishiShinjuku Shinjuku-ku Tokyo ","place":"KASHIWAGI CAFE ","lat":35.6956,"lon":139.691,"state":"active","id":null},{"event_id":"333247","title":"2/17(Sat) Drink Meetup in Jiyugaoka / FREE Entrance for Non-Japanese","url":"http://peatix.com/event/333247","shortener_url":null,"started_at":"2018-02-18T04:00:00.000+09:00","ended_at":"2018-02-20T08:59:59.000+09:00","limit_number":null,"address":"東京都目黒区自由が丘1丁目8-18","place":"Clann","lat":35.6069,"lon":139.669,"state":"active","id":null},{"event_id":"333259","title":"2/18(Sun) Nihongo Meetup in Shibuya / FREE Entry for Non-Japanese","url":"http://peatix.com/event/333259","shortener_url":null,"started_at":"2018-02-18T23:00:00.000+09:00","ended_at":"2018-02-21T08:59:59.000+09:00","limit_number":null,"address":"1-3-11 Dogenzaka Shibuya-ku Tokyo","place":"Shibuya Hobgoblin","lat":35.6583,"lon":139.7,"state":"active","id":null},{"event_id":"333228","title":"2/10(Sat) Nihongo Night in Aoyama / FREE Entrance for Non-Japanese","url":"http://peatix.com/event/333228","shortener_url":null,"started_at":"2018-02-11T04:00:00.000+09:00","ended_at":"2018-02-13T08:59:59.000+09:00","limit_number":null,"address":"5-10-1 Minami-Aoyama Minato-Ku Tokyo","place":"Eragu","lat":35.6628,"lon":139.711,"state":"active","id":null},{"event_id":"333266","title":"2/22(Thu) Shinjuku Spanish Night /Free Entrance for Spanish Native Speakers","url":"http://peatix.com/event/333266","shortener_url":null,"started_at":"2018-02-23T04:00:00.000+09:00","ended_at":"2018-02-25T08:59:59.000+09:00","limit_number":null,"address":"東京都新宿区西新宿8-19-11","place":"KASHIWAGI CAFE","lat":35.692,"lon":139.686,"state":"active","id":null},{"event_id":"333231","title":"2/11(Sun) Drink Meetup in Jiyugaoka / FREE Entrance for Non-Japanese","url":"http://peatix.com/event/333231","shortener_url":null,"started_at":"2018-02-12T04:00:00.000+09:00","ended_at":"2018-02-14T08:59:59.000+09:00","limit_number":null,"address":"東京都目黒区自由が丘1丁目8-18","place":"Clann","lat":35.6069,"lon":139.669,"state":"active","id":null},{"event_id":"333243","title":"2/17(Sat) German Meetup in Shinjuku / Free Entrance for German Native Speakers","url":"http://peatix.com/event/333243","shortener_url":null,"started_at":"2018-02-18T00:00:00.000+09:00","ended_at":"2018-02-20T08:59:59.000+09:00","limit_number":null,"address":"8-19-11 NishiShinjuku Shinjuku-ku Tokyo ","place":"KASHIWAGI CAFE ","lat":35.6956,"lon":139.691,"state":"active","id":null},{"event_id":"333236","title":"2/12(Mon) Nihongo Meetup in Roppongi / FREE Entry for Non-Japanese","url":"http://peatix.com/event/333236","shortener_url":null,"started_at":"2018-02-12T23:00:00.000+09:00","ended_at":"2018-02-15T08:59:59.000+09:00","limit_number":null,"address":"東京都港区六本木3−16−33  ","place":"Hobgoblin Roppongi","lat":35.6623,"lon":139.737,"state":"active","id":null},{"event_id":"333279","title":"2/25(Sun) 20s Social Meetup in Shibuya / FREE Entry for Non-Japanese","url":"http://peatix.com/event/333279","shortener_url":null,"started_at":"2018-02-25T23:00:00.000+09:00","ended_at":"2018-02-28T08:59:59.000+09:00","limit_number":null,"address":"1-3-11 Dogenzaka Shibuya-ku Tokyo","place":"Hobgoblin Shibuya","lat":35.6583,"lon":139.7,"state":"active","id":null},{"event_id":"333262","title":"2/18(Sun) Drink Meetup in Meguro / FREE Entrance for Non-Japanese","url":"http://peatix.com/event/333262","shortener_url":null,"started_at":"2018-02-19T03:00:00.000+09:00","ended_at":"2018-02-21T08:59:59.000+09:00","limit_number":null,"address":"目黒区下目黒1-3-28","place":"The Meguro Tavern","lat":35.6343,"lon":139.713,"state":"active","id":null},{"event_id":"333218","title":"2/8(Thu) Russian Night in Roppongi / Free Entrance for Russian Native Speakers ","url":"http://peatix.com/event/333218","shortener_url":null,"started_at":"2018-02-09T04:00:00.000+09:00","ended_at":"2018-02-11T08:59:59.000+09:00","limit_number":null,"address":"東京都港区六本木3−16−33  ","place":"Hobgoblin Roppongi","lat":35.6623,"lon":139.737,"state":"active","id":null},{"event_id":"333213","title":"2/3(Sat) Akasaka Drink Meetup / FREE Entrance for Non-Japanese ","url":"http://peatix.com/event/333213","shortener_url":null,"started_at":"2018-02-04T04:00:00.000+09:00","ended_at":"2018-02-06T08:59:59.000+09:00","limit_number":null,"address":"東京都港区赤坂2-13-19","place":"AKASAKA HOBGOBLIN","lat":35.6727,"lon":139.738,"state":"active","id":null},{"event_id":"333270","title":"2/23(Fri) Roppongi Drink Meetup / FREE Entrance for Non-Japanese","url":"http://peatix.com/event/333270","shortener_url":null,"started_at":"2018-02-24T04:00:00.000+09:00","ended_at":"2018-02-26T08:59:59.000+09:00","limit_number":null,"address":"東京都港区六本木7-13-8 日本","place":" GLAMOUR Tokyo Bar","lat":35.6639,"lon":139.73,"state":"active","id":null},{"event_id":"333263","title":"2/21(Wed) Nihongo Night in Roppongi / FREE Entrance for Non-Japanese","url":"http://peatix.com/event/333263","shortener_url":null,"started_at":"2018-02-22T04:00:00.000+09:00","ended_at":"2018-02-24T08:59:59.000+09:00","limit_number":null,"address":"3-9-8 Roppongi Minato-ku Tokyo ","place":"Roppongi Cafe ","lat":35.6636,"lon":139.734,"state":"active","id":null},{"event_id":"338062","title":"Tokyo Bass Festival 2018 feat. Barely Alive (US)","url":"http://peatix.com/event/338062","shortener_url":null,"started_at":"2018-02-04T08:30:00.000+09:00","ended_at":"2018-02-06T08:59:59.000+09:00","limit_number":null,"address":"ZaHOUSE Bldg. B3-B1F, Ebisunishi 1-34-17, Shibuya, Tokyo 〒150-0021","place":"UNIT / Unice / Saloon","lat":35.6471,"lon":139.702,"state":"active","id":null},{"event_id":"337088","title":"【祝!!節分】みらい育ティーチャー養成講座@西新橋","url":"http://peatix.com/event/337088","shortener_url":null,"started_at":"2018-02-03T19:10:00.000+09:00","ended_at":"2018-02-06T08:59:59.000+09:00","limit_number":null,"address":"東京都港区西新橋1-4-12","place":"ルート西新橋ビル１F","lat":35.6696,"lon":139.754,"state":"active","id":null},{"event_id":"340101","title":"Japan Pastel Art Valentine's Day Workshop","url":"http://peatix.com/event/340101","shortener_url":null,"started_at":"2018-02-11T00:00:00.000+09:00","ended_at":"2018-02-13T08:59:59.000+09:00","limit_number":null,"address":"809 French Road, Kitchener Complex, 200809 Singapore","place":"Activity Studio","lat":1.30841,"lon":103.862,"state":"active","id":null},{"event_id":"335609","title":"半田付け体験とテスター・オシロスコープ入門【02/01(木)開催】","url":"http://dmmmake180201hand.peatix.com","shortener_url":null,"started_at":"2018-02-01T20:00:00.000+09:00","ended_at":"2018-02-04T08:59:59.000+09:00","limit_number":null,"address":"東京都千代田区神田練塀町3　富士ソフト秋葉原ビル　10F　DMM.make AKIBA Studio","place":"DMM.make AKIBA 10F Studio","lat":35.7008,"lon":139.774,"state":"active","id":null},{"event_id":"336387","title":"知財広め隊in秋田「知財からはじまる！秋田発のものづくり」","url":"http://peatix.com/event/336387","shortener_url":null,"started_at":"2018-02-20T00:00:00.000+09:00","ended_at":"2018-02-22T08:59:59.000+09:00","limit_number":null,"address":"秋田県秋田市山王4丁目2-12","place":"ルポールみずほ","lat":39.7168,"lon":140.103,"state":"active","id":null},{"event_id":"335620","title":"真空管ヘッドフォンアンプをつくろう！【02/04(日)開催】","url":"http://dmmmake1802sink.peatix.com","shortener_url":null,"started_at":"2018-02-04T20:00:00.000+09:00","ended_at":"2018-02-07T08:59:59.000+09:00","limit_number":null,"address":"東京都千代田区神田練塀町3　富士ソフト秋葉原ビル　10F　DMM.make AKIBA Studio","place":"DMM.make AKIBA 10F Studio","lat":35.7008,"lon":139.774,"state":"active","id":null},{"event_id":"338389","title":"24歳から38歳限定『ちょっと大人のアニコンin郡山』2018年2月4日(日) 14:00-16:30","url":"http://peatix.com/event/338389","shortener_url":null,"started_at":"2018-02-04T23:00:00.000+09:00","ended_at":"2018-02-07T08:59:59.000+09:00","limit_number":null,"address":"福島県郡山市 エリート30ビル 6階","place":"千年の宴 郡山駅前店 ","lat":37.3984,"lon":140.387,"state":"active","id":null},{"event_id":"338641","title":"アニメ好きのための街コン『元祖アニコンin沖縄』2018年2月4日(日) 14:00-16:30","url":"http://peatix.com/event/338641","shortener_url":null,"started_at":"2018-02-04T23:00:00.000+09:00","ended_at":"2018-02-07T08:59:59.000+09:00","limit_number":null,"address":"沖縄県那覇市 牧志2-1-1 プランタビル 5階 ","place":"白木屋 那覇国際通り店","lat":26.2164,"lon":127.688,"state":"active","id":null},{"event_id":"338800","title":"24歳から38歳限定『ちょっと大人のアニコンin横浜』2018年2月4日(日) 14:00-16:30","url":"http://peatix.com/event/338800","shortener_url":null,"started_at":"2018-02-04T23:00:00.000+09:00","ended_at":"2018-02-07T08:59:59.000+09:00","limit_number":null,"address":"神奈川県横浜市西区南幸２丁目１０−５ ","place":"千年の宴 横浜西口南幸店 ","lat":35.4658,"lon":139.622,"state":"active","id":null},{"event_id":"338595","title":"24歳から38歳限定『ちょっと大人のアニコンin高崎』2018年2月4日(日) 14:00-16:30","url":"http://peatix.com/event/338595","shortener_url":null,"started_at":"2018-02-04T23:00:00.000+09:00","ended_at":"2018-02-07T08:59:59.000+09:00","limit_number":null,"address":"高崎市鶴見町3-1西口サウスパークビル1階 ","place":"魚民　高崎西口駅前店","lat":36.3208,"lon":139.012,"state":"active","id":null},{"event_id":"339265","title":"24歳から38歳「ちょっと大人のアニコンinいわき」2018年2月12日(月・祝) 14:30-17:00","url":"http://peatix.com/event/339265","shortener_url":null,"started_at":"2018-02-12T23:30:00.000+09:00","ended_at":"2018-02-15T08:59:59.000+09:00","limit_number":null,"address":"福島県いわき市 平字白銀町6-1 駅前セントラルビル 1F","place":"三代目 鳥メロ いわき駅前店","lat":37.0574,"lon":140.894,"state":"active","id":null},{"event_id":"339228","title":"24歳から38歳『ちょっと大人のアニコンin水戸』2018年2月12日(月・祝) 15:00-17:30","url":"http://peatix.com/event/339228","shortener_url":null,"started_at":"2018-02-13T00:00:00.000+09:00","ended_at":"2018-02-15T08:59:59.000+09:00","limit_number":null,"address":"茨城県水戸市宮町１-7-31　エクセルみなみ6F","place":"イタリアンバイキング「パパゲーノ水戸」","lat":36.3701,"lon":140.477,"state":"active","id":null},{"event_id":"333152","title":"2/10(土)  にほんごナイト@青山 / Nihongo Night in Aoyama","url":"http://peatix.com/event/333152","shortener_url":null,"started_at":"2018-02-11T04:00:00.000+09:00","ended_at":"2018-02-13T08:59:59.000+09:00","limit_number":null,"address":"東京都港区南青山5-10-1 H2 AOYAMA BLDG B1 ","place":"eragu ","lat":35.6627,"lon":139.711,"state":"active","id":null},{"event_id":"335622","title":"シナ合板でつくる多面体スピーカー【02/10(土)開催】","url":"http://dmmmake1802poly.peatix.com","shortener_url":null,"started_at":"2018-02-10T20:00:00.000+09:00","ended_at":"2018-02-13T08:59:59.000+09:00","limit_number":null,"address":"東京都千代田区神田練塀町3　富士ソフト秋葉原ビル　10F　DMM.make AKIBA Studio","place":"DMM.make AKIBA 10F Studio","lat":35.7008,"lon":139.774,"state":"active","id":null},{"event_id":"333149","title":"2/2(金) にほんごナイト@六本木 / Nihongo Night in Roppongi","url":"http://peatix.com/event/333149","shortener_url":null,"started_at":"2018-02-03T04:00:00.000+09:00","ended_at":"2018-02-05T08:59:59.000+09:00","limit_number":null,"address":"東京都港区六本木7−13−8 フュージョンビル3F ","place":"Glamour Tokyo ","lat":35.6639,"lon":139.73,"state":"active","id":null},{"event_id":"333151","title":"2/4(日)  にほんご交流会@渋谷 / Nihongo Meetup in Shibuya","url":"http://peatix.com/event/333151","shortener_url":null,"started_at":"2018-02-04T23:00:00.000+09:00","ended_at":"2018-02-07T08:59:59.000+09:00","limit_number":null,"address":"東京都渋谷区猿楽町2-12 相野谷ビル 1F ","place":"Asian Spice King ","lat":35.6532,"lon":139.705,"state":"active","id":null},{"event_id":"333156","title":"2/16(金) にほんごナイト@西新宿 / Nihongo Night in NishiShinjuku","url":"http://peatix.com/event/333156","shortener_url":null,"started_at":"2018-02-17T04:00:00.000+09:00","ended_at":"2018-02-19T08:59:59.000+09:00","limit_number":null,"address":"東京都新宿区西新宿8-19-11 ","place":"KASHIWAGI CAFE ","lat":35.6956,"lon":139.691,"state":"active","id":null},{"event_id":"333170","title":"2/3(土) 旅好き女子会@新宿","url":"http://peatix.com/event/333170","shortener_url":null,"started_at":"2018-02-04T00:00:00.000+09:00","ended_at":"2018-02-06T08:59:59.000+09:00","limit_number":null,"address":"東京都新宿区西新宿8-19-11","place":"KASHIWAGI CAFE","lat":35.6956,"lon":139.691,"state":"active","id":null},{"event_id":"333129","title":"2/17(土) ドイツ語交流会＠新宿 / German Meetup in Shinjuku","url":"http://peatix.com/event/333129","shortener_url":null,"started_at":"2018-02-18T00:00:00.000+09:00","ended_at":"2018-02-20T08:59:59.000+09:00","limit_number":null,"address":"東京都新宿区西新宿8-19-11 ","place":"KASHIWAGI CAFE ","lat":35.6956,"lon":139.691,"state":"active","id":null},{"event_id":"333134","title":"2/8(木) ロシア語ナイト@六本木 / Russian Night in Roppongi","url":"http://peatix.com/event/333134","shortener_url":null,"started_at":"2018-02-09T04:00:00.000+09:00","ended_at":"2018-02-11T08:59:59.000+09:00","limit_number":null,"address":"東京都港区六本木3−16−33   ","place":"Hob goblin at Roppongi","lat":35.6623,"lon":139.737,"state":"active","id":null},{"event_id":"333146","title":"2/25(日) 20代の英会話@渋谷 / 20's Social Meetup in Shibuya","url":"http://peatix.com/event/333146","shortener_url":null,"started_at":"2018-02-25T23:00:00.000+09:00","ended_at":"2018-02-28T08:59:59.000+09:00","limit_number":null,"address":"東京都渋谷区道玄坂1-3-11","place":"Hobgoblin Shibuya","lat":35.6583,"lon":139.7,"state":"active","id":null},{"event_id":"333158","title":"2/18(日)  にほんご交流会@渋谷 / Nihongo Meetup in Shibuya","url":"http://peatix.com/event/333158","shortener_url":null,"started_at":"2018-02-18T23:00:00.000+09:00","ended_at":"2018-02-21T08:59:59.000+09:00","limit_number":null,"address":"東京都渋谷区道玄坂1-3-11","place":"Hobgoblin Shibuya","lat":35.6583,"lon":139.7,"state":"active","id":null},{"event_id":"333165","title":"2/24(土)  にほんごナイト@赤坂 / Nihongo Night at Bar in Akasaka","url":"http://peatix.com/event/333165","shortener_url":null,"started_at":"2018-02-25T04:00:00.000+09:00","ended_at":"2018-02-27T08:59:59.000+09:00","limit_number":null,"address":"東京都港区赤坂2-13-19 ","place":"AKASAKA HOBGOBLIN  ","lat":35.6727,"lon":139.738,"state":"active","id":null},{"event_id":"333161","title":"2/21(水) にほんごナイト@六本木 / Nihongo Night in Roppongi","url":"http://peatix.com/event/333161","shortener_url":null,"started_at":"2018-02-22T04:00:00.000+09:00","ended_at":"2018-02-24T08:59:59.000+09:00","limit_number":null,"address":"東京都港区六本木3-9-8 ホテル ザ・ビー六本木 1F  ","place":"Roppongi Cafe  ","lat":35.6636,"lon":139.734,"state":"active","id":null},{"event_id":"333224","title":"2/10(Sat) Shibuya Spanish Meetup / Intercambio reunión español Shibuya / FREE Entrance for Spanish Native Speakers","url":"http://peatix.com/event/333224","shortener_url":null,"started_at":"2018-02-11T00:00:00.000+09:00","ended_at":"2018-02-13T08:59:59.000+09:00","limit_number":null,"address":"13-16,Udagawacho,shibuya-ku,tokyo","place":"Miraflores ","lat":35.6614,"lon":139.698,"state":"active","id":null},{"event_id":"333274","title":"2/24(Sat) French Meetup in Shinjuku  / Conversation française à Shinjuku","url":"http://peatix.com/event/333274","shortener_url":null,"started_at":"2018-02-25T00:00:00.000+09:00","ended_at":"2018-02-27T08:59:59.000+09:00","limit_number":null,"address":"東京都新宿区西新宿8-19-11","place":"KASHIWAGI CAFE","lat":35.692,"lon":139.686,"state":"active","id":null},{"event_id":"338830","title":"第3回イノベーションの教室","url":"http://peatix.com/event/338830","shortener_url":null,"started_at":"2018-02-25T19:00:00.000+09:00","ended_at":"2018-02-28T08:59:59.000+09:00","limit_number":null,"address":"宮城県仙台市若林区卸町2-9-1","place":"INTILAQ東北イノベーションセンター","lat":38.2545,"lon":140.922,"state":"active","id":null},{"event_id":"339888","title":"ミニワークショップ「シリアの刺繍でくるみボタンづくり」2・11","url":"http://peatix.com/event/339888","shortener_url":null,"started_at":"2018-02-11T20:00:00.000+09:00","ended_at":"2018-02-14T08:59:59.000+09:00","limit_number":null,"address":"愛知県名古屋市中村区平池町4丁目60-7","place":"JICA中部　なごや地球ひろば","lat":0.0,"lon":0.0,"state":"active","id":null},{"event_id":"331244","title":"Comedy Masala ft. FAKKAH FUZZ (SIN) | as seen on NETFLIX","url":"http://fakkahfuzz27feb.peatix.com","shortener_url":null,"started_at":"2018-02-28T06:00:00.000+09:00","ended_at":"2018-03-02T08:59:59.000+09:00","limit_number":null,"address":"69 Circular Road, Boat Quay, Singapore 049423","place":"HERO'S, 69 Circular Road, Singapore 049423","lat":1.28641,"lon":103.849,"state":"active","id":null},{"event_id":"314494","title":"2/11『ジェーン・エア』のウェディングプランを考える(シャーロットブロンテ読書会)","url":"http://peatix.com/event/314494","shortener_url":null,"started_at":"2018-02-11T23:00:00.000+09:00","ended_at":"2018-02-14T08:59:59.000+09:00","limit_number":null,"address":"東京都 墨田区石原1-35-8","place":"CRAZY CAFE 「」BLANK","lat":35.701,"lon":139.798,"state":"active","id":null},{"event_id":"339447","title":"Comedy Masala ft. Pete Grella (USA)","url":"http://petegrella.peatix.com","shortener_url":null,"started_at":"2018-02-21T06:00:00.000+09:00","ended_at":"2018-02-23T08:59:59.000+09:00","limit_number":null,"address":"69 Circular Road, Boat Quay, Singapore 049423","place":"HERO'S, 69 Circular Road, Singapore 049423","lat":1.28641,"lon":103.849,"state":"active","id":null},{"event_id":"338496","title":"輝和美倶楽部 ＜プレミアム企画　京都＞日本美術に酔いしれる初釜 in 細見美術館","url":"http://peatix.com/event/338496","shortener_url":null,"started_at":"2018-02-02T18:30:00.000+09:00","ended_at":"2018-02-05T08:59:59.000+09:00","limit_number":null,"address":"京都府京都市左京区岡崎最勝寺町6-3","place":"細見美術館","lat":35.0139,"lon":135.78,"state":"active","id":null},{"event_id":"328716","title":"ＰＲプランナー１次試験対応講座（2017年度冬期）","url":"http://peatix.com/event/328716","shortener_url":null,"started_at":"2018-02-02T04:00:00.000+09:00","ended_at":"2018-02-04T08:59:59.000+09:00","limit_number":null,"address":"東京都港区六本木6-10-1 六本木ヒルズ森タワー49階","place":"六本木アカデミーヒルズ49","lat":35.6605,"lon":139.729,"state":"active","id":null},{"event_id":"342040","title":"レセプションパーティーで楽しく国際交流♪エリートたちの英語学習方の違いはこれ！1日たった20分で身に着くLINE動画型英会話","url":"http://peatix.com/event/342040","shortener_url":null,"started_at":"2018-02-10T04:30:00.000+09:00","ended_at":"2018-02-12T08:59:59.000+09:00","limit_number":null,"address":"東京都千代田区神田錦町3-21","place":"ちよだプラットフォームスクウェア401号室","lat":35.6915,"lon":139.762,"state":"active","id":null},{"event_id":"333144","title":"2/10(土) スペイン語交流会@渋谷 / Spanish Meetup in Shibuya","url":"http://peatix.com/event/333144","shortener_url":null,"started_at":"2018-02-11T00:00:00.000+09:00","ended_at":"2018-02-13T08:59:59.000+09:00","limit_number":null,"address":"東京都渋谷区宇田川町13-16コクサイビルA館 4F","place":"Mirafloresスペイン坂店","lat":35.6614,"lon":139.698,"state":"active","id":null},{"event_id":"335513","title":"美少女ゲームソングイベント「E-SPADA vol.3」","url":"http://e-spada-03.peatix.com","shortener_url":null,"started_at":"2018-02-17T22:00:00.000+09:00","ended_at":"2018-02-20T08:59:59.000+09:00","limit_number":null,"address":"名古屋市中区大須4丁目1-71 矢場町中駒ビルB1F","place":"名古屋大須 RAD HALL","lat":35.1613,"lon":136.907,"state":"active","id":null},{"event_id":"337902","title":"S.A.D (Single Awareness Day) Pub Crawl! (SAT) シングルズ・パーティー（土）","url":"http://peatix.com/event/337902","shortener_url":null,"started_at":"2018-02-04T04:00:00.000+09:00","ended_at":"2018-02-06T08:59:59.000+09:00","limit_number":null,"address":"大阪市中央区東心斎橋2-5-27","place":"The Blarney Stone (B1F)","lat":34.6718,"lon":135.504,"state":"active","id":null},{"event_id":"338615","title":"25歳から35歳限定「第87回 アラサーコンin金沢」2018年2月3日(土) 19:30-22:00","url":"http://peatix.com/event/338615","shortener_url":null,"started_at":"2018-02-04T04:30:00.000+09:00","ended_at":"2018-02-06T08:59:59.000+09:00","limit_number":null,"address":"石川県金沢市香林坊１‐１‐１　香林坊大和8F ","place":"ブッフェレストラン「ザ・ダイニング　」","lat":36.563,"lon":136.654,"state":"active","id":null},{"event_id":"339796","title":"【参加者募集中】ビール女子さんぽ部〜あるくとビールがおいしい〜","url":"http://beergirl-arukuto.peatix.com","shortener_url":null,"started_at":"2018-02-01T04:00:00.000+09:00","ended_at":"2018-02-03T08:59:59.000+09:00","limit_number":null,"address":"東京都渋谷区松濤1-29-1 CROSSROADSビル 2F","place":"Goodbeer faucets","lat":35.6601,"lon":139.695,"state":"active","id":null},{"event_id":"333142","title":"2/22(木) スパニッシュナイト@西新宿 / Spanish Night in Nishi-Shinjuku","url":"http://peatix.com/event/333142","shortener_url":null,"started_at":"2018-02-23T04:00:00.000+09:00","ended_at":"2018-02-25T08:59:59.000+09:00","limit_number":null,"address":"東京都新宿区西新宿8-19-11 ","place":"KASHIWAGI CAFE","lat":35.6956,"lon":139.691,"state":"active","id":null},{"event_id":"339445","title":"Comedy Masala ft. SAM SEE (SIN) | Comedy Masala Headline Debut!","url":"http://samsee.peatix.com","shortener_url":null,"started_at":"2018-02-14T06:00:00.000+09:00","ended_at":"2018-02-16T08:59:59.000+09:00","limit_number":null,"address":"69 Circular Road, Boat Quay, Singapore 049423","place":"HERO'S, 69 Circular Road, Singapore 049423","lat":1.28641,"lon":103.849,"state":"active","id":null},{"event_id":"311476","title":"MIZUKAGAMI of Noh ‐Imagination of project‐“HAGOROMO”   能楽の水鏡　―映像に映すイマジネーションー　　演目羽衣","url":"http://peatix.com/event/311476","shortener_url":null,"started_at":"2018-02-12T23:00:00.000+09:00","ended_at":"2018-02-15T08:59:59.000+09:00","limit_number":null,"address":"1-3-7 Otemachi ,Chiyoda-ku, Tokyo Nikkei Building 3F   / 東京都千代田区大手町1－3－7　日経ビル 3F","place":"NIKKEI Hall / 日経ホール","lat":35.6887,"lon":139.762,"state":"active","id":null},{"event_id":"342042","title":"TOEICの点数は関係ない 現役通訳者が教える50ヵ国以上の各国大使に通じる英会話体験セミナー","url":"http://peatix.com/event/342042","shortener_url":null,"started_at":"2018-02-23T04:30:00.000+09:00","ended_at":"2018-02-25T08:59:59.000+09:00","limit_number":null,"address":"東京都千代田区神田錦町3-21","place":"ちよだプラットフォームスクウェア402号室","lat":35.6915,"lon":139.762,"state":"active","id":null},{"event_id":"333136","title":"2/24(土) フレンチミートアップ@新宿 / French Meetup in Shinjuku ","url":"http://peatix.com/event/333136","shortener_url":null,"started_at":"2018-02-25T00:00:00.000+09:00","ended_at":"2018-02-27T08:59:59.000+09:00","limit_number":null,"address":"東京都新宿区西新宿8-19-11 ","place":"KASHIWAGI CAFE ","lat":35.6956,"lon":139.691,"state":"active","id":null},{"event_id":"337903","title":"Valentines Day Pub Crawl! (SAT) バレンタイン・パブクロール（土）","url":"http://peatix.com/event/337903","shortener_url":null,"started_at":"2018-02-11T04:00:00.000+09:00","ended_at":"2018-02-13T08:59:59.000+09:00","limit_number":null,"address":"大阪市中央区東心斎橋2-5-27","place":"The Blarney Stone (B1F)","lat":34.6718,"lon":135.504,"state":"active","id":null},{"event_id":"330601","title":"第48回こんぼ亭月例会「自分の感情とうまくつき合うために役立つ「道具」としてのマインドフルネス」","url":"http://peatix.com/event/330601","shortener_url":null,"started_at":"2018-02-17T22:00:00.000+09:00","ended_at":"2018-02-20T08:59:59.000+09:00","limit_number":null,"address":"千葉県市川市末広1-1-48","place":"行徳文化ホールI＆I","lat":35.6864,"lon":139.917,"state":"active","id":null},{"event_id":"337119","title":"Microsoft Power BI 実践ハンズオン 入門編（2018年2月）","url":"http://powerbi201802.peatix.com","shortener_url":null,"started_at":"2018-02-09T23:00:00.000+09:00","ended_at":"2018-02-12T08:59:59.000+09:00","limit_number":null,"address":"東京都中央区銀座３丁目９ 銀座3-9-4 銀座草野ビルディング 4F","place":"マイスペース 銀座マロニエ通り店","lat":35.6718,"lon":139.768,"state":"active","id":null},{"event_id":"335764","title":"リカバリー全国フォーラム地方版分科会　IMR研修会in山梨","url":"http://peatix.com/event/335764","shortener_url":null,"started_at":"2018-02-11T19:30:00.000+09:00","ended_at":"2018-02-14T08:59:59.000+09:00","limit_number":null,"address":"山梨県甲府市飯田5-11-1","place":"山梨県立大学飯田キャンパス講堂","lat":35.6637,"lon":138.556,"state":"active","id":null},{"event_id":"329790","title":"2月8日（木）「専門家と行く」展示会の歩き方　～ギフトショー 春 2018を歩く～","url":"http://peatix.com/event/329790","shortener_url":null,"started_at":"2018-02-08T22:00:00.000+09:00","ended_at":"2018-02-11T08:59:59.000+09:00","limit_number":null,"address":"東京都江東区有明3-11-1","place":"東京ビッグサイト","lat":35.63,"lon":139.794,"state":"active","id":null},{"event_id":"336353","title":"【参加無料】企業変革実行セミナー　住友生命・オムロンによる事例紹介","url":"http://peatix.com/event/336353","shortener_url":null,"started_at":"2018-02-23T22:30:00.000+09:00","ended_at":"2018-02-26T08:59:59.000+09:00","limit_number":null,"address":"東京都港区新橋6-17-21 住友不動産御成門駅前ビル1F","place":"ベルサール御成門駅前（地下鉄御成門駅A4出口徒歩1分）日本橋駅）","lat":35.6618,"lon":139.752,"state":"active","id":null},{"event_id":"339371","title":"2/11開催【女性限定】クラウドファンディングを活用した資金調達\u0026プロモーションセミナー","url":"http://peatix.com/event/339371","shortener_url":null,"started_at":"2018-02-12T03:30:00.000+09:00","ended_at":"2018-02-14T08:59:59.000+09:00","limit_number":null,"address":"東京都新宿区市谷田町1-14-1  DNP市谷田町ビル","place":"DNPプラザ","lat":35.6935,"lon":139.736,"state":"active","id":null},{"event_id":"337898","title":"Valentines Day Pub Crawl! (SAT) バレンタイン・パブクロール（土）","url":"http://peatix.com/event/337898","shortener_url":null,"started_at":"2018-02-11T04:00:00.000+09:00","ended_at":"2018-02-13T08:59:59.000+09:00","limit_number":null,"address":"東京都港区六本木3-14-9 ユア六本木2F","place":"Bar Propaganda (2F)","lat":35.6623,"lon":139.735,"state":"active","id":null},{"event_id":"337893","title":"S.A.D (Single Awareness Day) Pub Crawl! (SAT) シングルズ・パーティー（土）","url":"http://peatix.com/event/337893","shortener_url":null,"started_at":"2018-02-04T04:00:00.000+09:00","ended_at":"2018-02-06T08:59:59.000+09:00","limit_number":null,"address":"東京都港区六本木3-14-9 ユア六本木2F","place":"Bar Propaganda (2F)","lat":35.6623,"lon":139.735,"state":"active","id":null},{"event_id":"333808","title":"Chek Jawa Discovery","url":"http://chekjawa-feb18.peatix.com","shortener_url":null,"started_at":"2018-02-24T19:30:00.000+09:00","ended_at":"2018-02-27T08:59:59.000+09:00","limit_number":null,"address":"Changi Point Ferry Terminal","place":"Pulau Ubin","lat":1.39121,"lon":103.988,"state":"active","id":null},{"event_id":"337475","title":"2月24日（土）ソロビズ「起業の適性検査」【参加無料：横浜会場】","url":"http://peatix.com/event/337475","shortener_url":null,"started_at":"2018-02-24T22:20:00.000+09:00","ended_at":"2018-02-27T08:59:59.000+09:00","limit_number":null,"address":"横浜市中区海岸通1-1","place":"波止場会館　４F小会議室Ａ","lat":35.4484,"lon":139.645,"state":"active","id":null},{"event_id":"335419","title":"Atomy Success Academy FEBRUARY 24 - Early Bird Registration","url":"http://peatix.com/event/335419","shortener_url":null,"started_at":"2018-02-24T19:00:00.000+09:00","ended_at":"2018-02-27T08:59:59.000+09:00","limit_number":null,"address":"5 Coleman Street, 179805","place":"Peninsula Excelsior Hotel, Level 5 Ballroom","lat":1.29202,"lon":103.85,"state":"active","id":null},{"event_id":"336424","title":"リカバリー全国フォーラム地方版分科会　「家族“まるごと”支援と家族のリカバリー」in福岡","url":"http://peatix.com/event/336424","shortener_url":null,"started_at":"2018-02-03T22:00:00.000+09:00","ended_at":"2018-02-06T08:59:59.000+09:00","limit_number":null,"address":"福岡県福岡市東区馬出4-12-22","place":"福岡教育会館","lat":33.6151,"lon":130.42,"state":"active","id":null},{"event_id":"339823","title":"TEDxLASALLE: Make Me","url":"http://makeme.peatix.com","shortener_url":null,"started_at":"2018-02-04T23:00:00.000+09:00","ended_at":"2018-02-07T08:59:59.000+09:00","limit_number":null,"address":"1 McNally Street, 187940","place":"LASALLE College of the Arts Flexible Performance Space","lat":1.30257,"lon":103.851,"state":"active","id":null},{"event_id":"339025","title":"City Evening Cycling Trail ","url":"http://citycycle-feb18.peatix.com","shortener_url":null,"started_at":"2018-02-03T05:00:00.000+09:00","ended_at":"2018-02-05T08:59:59.000+09:00","limit_number":null,"address":"195 Pearl's Hill Terrace","place":"Civic District","lat":1.28435,"lon":103.842,"state":"active","id":null},{"event_id":"337892","title":"S.A.D (Single Awareness Day) Pub Crawl! (FRI) シングルズ・パーティー（金）","url":"http://peatix.com/event/337892","shortener_url":null,"started_at":"2018-02-03T04:00:00.000+09:00","ended_at":"2018-02-05T08:59:59.000+09:00","limit_number":null,"address":"東京都港区六本木3-14-9 ユア六本木2F","place":"Bar Propaganda (2F)","lat":35.6623,"lon":139.735,"state":"active","id":null},{"event_id":"337897","title":"Valentines Day Pub Crawl! (FRI) バレンタイン・パブクロール（金）","url":"http://peatix.com/event/337897","shortener_url":null,"started_at":"2018-02-10T04:00:00.000+09:00","ended_at":"2018-02-12T08:59:59.000+09:00","limit_number":null,"address":"東京都港区六本木3-14-9 ユア六本木2F","place":"Bar Propaganda (2F)","lat":35.6623,"lon":139.735,"state":"active","id":null},{"event_id":"339612","title":"男女30歳以上限定「恋STORYコンin山形」2018年2月10日(土) 19:00-21:30","url":"http://peatix.com/event/339612","shortener_url":null,"started_at":"2018-02-11T04:00:00.000+09:00","ended_at":"2018-02-13T08:59:59.000+09:00","limit_number":null,"address":"山形県山形市香澄町１－１５－２８　ホテルニュー最上屋 　","place":"魚民　山形駅前店 ","lat":38.2497,"lon":140.329,"state":"active","id":null},{"event_id":"332712","title":"2月4日(日)18:00～六本木【恋人探しOnly】不動の人気企画Gaitomo国際交流パーティー","url":"http://peatix.com/event/332712","shortener_url":null,"started_at":"2018-02-05T03:00:00.000+09:00","ended_at":"2018-02-07T08:59:59.000+09:00","limit_number":null,"address":"東京都港区六本木3-9-8 ホテル ザ・ビー六本木 1F ","place":"六本木カフェ ","lat":35.6636,"lon":139.734,"state":"active","id":null},{"event_id":"332736","title":"2月16日(金)19:00～恵比寿 出会いの新しいの場立ち飲みバーでGaitomo国際交流パーティー","url":"http://peatix.com/event/332736","shortener_url":null,"started_at":"2018-02-17T04:00:00.000+09:00","ended_at":"2018-02-19T08:59:59.000+09:00","limit_number":null,"address":"東京都渋谷区恵比寿1-7-9 ハイライフ恵比寿B棟 2F ","place":"恵比寿 私を恵比寿に連れてってEbisu330BAR ","lat":35.6481,"lon":139.711,"state":"active","id":null},{"event_id":"332692","title":"2月1日(木)19:00～新宿御苑 本場ナポリピッツァが食べれる平日Gaitomo国際交流パーティー","url":"http://peatix.com/event/332692","shortener_url":null,"started_at":"2018-02-02T04:00:00.000+09:00","ended_at":"2018-02-04T08:59:59.000+09:00","limit_number":null,"address":"東京都新宿区新宿2-8-1 新宿セブンビル1F ","place":"ピッツァナポレターノカフェ 新宿御苑前店 ","lat":35.6889,"lon":139.71,"state":"active","id":null},{"event_id":"332743","title":"2月17日(土)19:00～広尾 食文化で世界を繋ぐ小さな大使館レストランでGaitomo国際交流パーティー","url":"http://peatix.com/event/332743","shortener_url":null,"started_at":"2018-02-18T04:00:00.000+09:00","ended_at":"2018-02-20T08:59:59.000+09:00","limit_number":null,"address":"東京都港区南麻布4-2-42 クオリア南麻布1F ","place":"広尾 天現寺大使館 ","lat":35.6481,"lon":139.723,"state":"active","id":null},{"event_id":"334763","title":"2月12日(月祝)18:00～赤坂見附【１人参加限定】アクセス抜群Gaitomo国際交流パーティー ","url":"http://peatix.com/event/334763","shortener_url":null,"started_at":"2018-02-13T03:00:00.000+09:00","ended_at":"2018-02-15T08:59:59.000+09:00","limit_number":null,"address":"東京都港区赤坂3-21-14 TS共和六番館5F ","place":"フィオーレ赤坂 ","lat":35.6768,"lon":139.736,"state":"active","id":null},{"event_id":"339631","title":"25歳から40歳「ちょっと大人の街コンin鶴岡」2018年2月10日(土) 19:30-22:00","url":"http://peatix.com/event/339631","shortener_url":null,"started_at":"2018-02-11T04:30:00.000+09:00","ended_at":"2018-02-13T08:59:59.000+09:00","limit_number":null,"address":"山形県鶴岡市末広町２-４１　YS鶴岡駅前ビル １Ｆ ","place":"千年の宴　鶴岡駅前店","lat":38.7397,"lon":139.838,"state":"active","id":null},{"event_id":"338811","title":"「20代限定コンin鶴岡」2018年2月3日(土) 19:30-22:00","url":"http://peatix.com/event/338811","shortener_url":null,"started_at":"2018-02-04T04:30:00.000+09:00","ended_at":"2018-02-06T08:59:59.000+09:00","limit_number":null,"address":"山形県鶴岡市末広町２-４１　YS鶴岡駅前ビル １Ｆ ","place":"千年の宴　鶴岡駅前店","lat":38.7397,"lon":139.838,"state":"active","id":null},{"event_id":"339629","title":"「安定男子限定PARTY in酒田」2018年2月11日(日) 14:00-16:30","url":"http://peatix.com/event/339629","shortener_url":null,"started_at":"2018-02-11T23:00:00.000+09:00","ended_at":"2018-02-14T08:59:59.000+09:00","limit_number":null,"address":"酒田駅周辺エリア","place":"魚民 酒田駅前店","lat":38.9222,"lon":139.846,"state":"active","id":null},{"event_id":"339244","title":"男女35歳から45歳「社会人サークルinつくば」2018年2月12日(月・祝) 14:00-16:30","url":"http://peatix.com/event/339244","shortener_url":null,"started_at":"2018-02-12T23:00:00.000+09:00","ended_at":"2018-02-15T08:59:59.000+09:00","limit_number":null,"address":"茨城県つくば市吾妻１-5-3 ＭＯＧ2階","place":"笑笑　つくばクレオスクエアＭＯＧ店","lat":36.0817,"lon":140.111,"state":"active","id":null},{"event_id":"334770","title":"2月21日(水)19:00～★ 恵比寿 仕事帰りにロマンチックカフェで平日Gaitomo国際交流パーティー","url":"http://peatix.com/event/334770","shortener_url":null,"started_at":"2018-02-22T04:00:00.000+09:00","ended_at":"2018-02-24T08:59:59.000+09:00","limit_number":null,"address":"東京都渋谷区恵比寿1丁目27−21","place":"恵比寿 dot. Eatery and Bar ","lat":35.6475,"lon":139.715,"state":"active","id":null},{"event_id":"338412","title":"25歳から40歳「ちょっと大人の街コンinいわき」2018年2月4日(日) 14:30-17:00","url":"http://peatix.com/event/338412","shortener_url":null,"started_at":"2018-02-04T23:30:00.000+09:00","ended_at":"2018-02-07T08:59:59.000+09:00","limit_number":null,"address":"福島県いわき市平字白銀町6－1","place":"「三代目」鳥メロ いわき駅前店","lat":37.0574,"lon":140.894,"state":"active","id":null},{"event_id":"338967","title":"25歳から35歳限定「アラサーコンin郡山」2018年2月10日(土) 19:30-22:00","url":"http://peatix.com/event/338967","shortener_url":null,"started_at":"2018-02-11T04:30:00.000+09:00","ended_at":"2018-02-13T08:59:59.000+09:00","limit_number":null,"address":"郡山市中町10-10 メルフ郡山ビルB1","place":"魚民 郡山中町店","lat":37.3979,"lon":140.384,"state":"active","id":null},{"event_id":"339174","title":"「30代限定コンin水戸」2018年2月10日(土) 19:00-21:30","url":"http://peatix.com/event/339174","shortener_url":null,"started_at":"2018-02-11T04:00:00.000+09:00","ended_at":"2018-02-13T08:59:59.000+09:00","limit_number":null,"address":"茨城県水戸市宮町１-7-31　エクセルみなみ6F","place":"イタリアンバイキング「パパゲーノ水戸」","lat":36.3701,"lon":140.477,"state":"active","id":null},{"event_id":"339232","title":"男女30歳以上45歳限定「恋STORYパーティーin水戸」2018年2月24日(土) 19:00-21:30","url":"http://peatix.com/event/339232","shortener_url":null,"started_at":"2018-02-25T04:00:00.000+09:00","ended_at":"2018-02-27T08:59:59.000+09:00","limit_number":null,"address":"茨城県水戸市宮町1-7-31 エクセルみなみ6F","place":"イタリアンバイキング「パパゲーノ水戸」","lat":36.3701,"lon":140.477,"state":"active","id":null},{"event_id":"332717","title":"2月10日(土)15:00～渋谷 未成年者も参加出来るGaitomo国際交流ノンアルコールパーティー","url":"http://peatix.com/event/332717","shortener_url":null,"started_at":"2018-02-11T00:00:00.000+09:00","ended_at":"2018-02-13T08:59:59.000+09:00","limit_number":null,"address":"東京都渋谷区円山町15-3 グランエストビル3F ","place":"渋谷 エンカウント零式（旧名：グローススペース） ","lat":35.6577,"lon":139.694,"state":"active","id":null},{"event_id":"338602","title":"25歳から40歳「ちょっと大人の街コンin甲府」2018年2月4日(日) 14:00-16:30","url":"http://peatix.com/event/338602","shortener_url":null,"started_at":"2018-02-04T23:00:00.000+09:00","ended_at":"2018-02-07T08:59:59.000+09:00","limit_number":null,"address":"甲府市丸の内1-2-12 甲府ターミナルホテル2F","place":"千年の宴 甲府南口駅前店 ","lat":35.6667,"lon":138.569,"state":"active","id":null},{"event_id":"338378","title":"「30代限定コンin郡山」2018年2月3日(土) 19:30-22:00","url":"http://peatix.com/event/338378","shortener_url":null,"started_at":"2018-02-04T04:30:00.000+09:00","ended_at":"2018-02-06T08:59:59.000+09:00","limit_number":null,"address":"郡山市中町10-10 メルフ郡山ビルB1 ","place":"魚民 郡山中町店 ","lat":37.3979,"lon":140.384,"state":"active","id":null},{"event_id":"339624","title":"25歳から35歳限定「アラサーコンin福島」2018年2月10日(土) 19:00-21:30","url":"http://peatix.com/event/339624","shortener_url":null,"started_at":"2018-02-11T04:00:00.000+09:00","ended_at":"2018-02-13T08:59:59.000+09:00","limit_number":null,"address":"福島市栄町11-30 ゼビオビルB1","place":"笑笑 福島東口駅前店","lat":37.754,"lon":140.463,"state":"active","id":null},{"event_id":"338626","title":"「安定男子限定PARTY in金沢」2018年2月4日(日) 14:00-16:30","url":"http://peatix.com/event/338626","shortener_url":null,"started_at":"2018-02-04T23:00:00.000+09:00","ended_at":"2018-02-07T08:59:59.000+09:00","limit_number":null,"address":"石川県金沢市香林坊１‐１‐１　香林坊大和8F ","place":"ブッフェレストラン「ザ・ダイニング　」","lat":36.563,"lon":136.654,"state":"active","id":null},{"event_id":"338513","title":"25歳から35歳限定「アラサー限定パーティーin水戸」2018年2月3日(土) 19:00-21:30","url":"http://peatix.com/event/338513","shortener_url":null,"started_at":"2018-02-04T04:00:00.000+09:00","ended_at":"2018-02-06T08:59:59.000+09:00","limit_number":null,"address":"茨城県水戸市宮町１-7-31　エクセルみなみ6F","place":"パパゲーノ水戸","lat":36.3701,"lon":140.477,"state":"active","id":null},{"event_id":"339516","title":"25歳から40歳「ちょっと大人の街コンin太田」2018年2月10日(土) 19:00-21:30","url":"http://peatix.com/event/339516","shortener_url":null,"started_at":"2018-02-11T04:00:00.000+09:00","ended_at":"2018-02-13T08:59:59.000+09:00","limit_number":null,"address":" 群馬県太田市飯田町1389-2 武藤ビル2F","place":"白木屋　太田南口駅前店","lat":36.2932,"lon":139.379,"state":"active","id":null},{"event_id":"336629","title":"【参加無料】第33回Daijob Go Global Career Fair外資系・グローバル企業合同説明会","url":"http://daijobfair33.peatix.com","shortener_url":null,"started_at":"2018-02-17T01:30:00.000+09:00","ended_at":"2018-02-19T08:59:59.000+09:00","limit_number":null,"address":"東京都千代田区大手町1-7-2","place":"大手町サンケイプラザ 4F サンケイホール","lat":35.6872,"lon":139.765,"state":"active","id":null},{"event_id":"332747","title":"2月18日(日)18:00～麻布十番 シャンデリアの下でノンスモーカーだけのGaitomo国際交流パーティー","url":"http://peatix.com/event/332747","shortener_url":null,"started_at":"2018-02-19T03:00:00.000+09:00","ended_at":"2018-02-21T08:59:59.000+09:00","limit_number":null,"address":"東京都港区麻布十番1-9-2 ユニマット麻布十番ビル7F ","place":"麻布十番 SPUTNIK LOUNGE ","lat":35.6564,"lon":139.735,"state":"active","id":null},{"event_id":"334755","title":"2月9日(金)19:00～代官山 婚活恋活OnlyのGaitomo国際交流パーティー","url":"http://peatix.com/event/334755","shortener_url":null,"started_at":"2018-02-10T04:00:00.000+09:00","ended_at":"2018-02-12T08:59:59.000+09:00","limit_number":null,"address":"東京都渋谷区恵比寿西1-34-17 Za HOUSEビルB1 ","place":"代官山 unice(ユナイス) ","lat":35.6471,"lon":139.702,"state":"active","id":null},{"event_id":"334748","title":"2月7日(水)19:00～恵比寿 仕事帰りに駅近のお洒落カフェで平日Gaitomo国際交流パーティー","url":"http://peatix.com/event/334748","shortener_url":null,"started_at":"2018-02-08T04:00:00.000+09:00","ended_at":"2018-02-10T08:59:59.000+09:00","limit_number":null,"address":"東京都渋谷区恵比寿南1-3-2 ESTLANZA EBISU 2F ","place":"恵比寿 dot. Grill and Bar","lat":35.6456,"lon":139.708,"state":"active","id":null},{"event_id":"339231","title":"「安定男子限定PARTY in水戸」2018年2月18日(日) 15:00-17:30","url":"http://peatix.com/event/339231","shortener_url":null,"started_at":"2018-02-19T00:00:00.000+09:00","ended_at":"2018-02-21T08:59:59.000+09:00","limit_number":null,"address":"茨城県水戸市宮町1-7-31 エクセルみなみ6F","place":"パパゲーノ水戸","lat":36.3701,"lon":140.477,"state":"active","id":null},{"event_id":"338733","title":"「安定男子コンin福島」2018年2月4日(日) 14:00-16:30","url":"http://peatix.com/event/338733","shortener_url":null,"started_at":"2018-02-04T23:00:00.000+09:00","ended_at":"2018-02-07T08:59:59.000+09:00","limit_number":null,"address":"福島市栄町11-30 ゼビオビルB1","place":"笑笑 福島東口駅前店 ","lat":37.754,"lon":140.463,"state":"active","id":null},{"event_id":"338663","title":"25歳から40歳「ちょっと大人の街コンin青森」2018年2月4日(日) 14:00-16:30","url":"http://peatix.com/event/338663","shortener_url":null,"started_at":"2018-02-04T23:00:00.000+09:00","ended_at":"2018-02-07T08:59:59.000+09:00","limit_number":null,"address":"青森県青森市新町１－１－１８　青森マルサビル　１Ｆ","place":"魚民　青森駅前店","lat":40.8281,"lon":140.736,"state":"active","id":null},{"event_id":"338714","title":"「安定男子コンin山形」2018年2月4日(日) 14:00-16:30","url":"http://peatix.com/event/338714","shortener_url":null,"started_at":"2018-02-04T23:00:00.000+09:00","ended_at":"2018-02-07T08:59:59.000+09:00","limit_number":null,"address":"山形県山形市香澄町１－１５－２８　ホテルニュー最上屋 　","place":"魚民　山形駅前店","lat":38.2497,"lon":140.329,"state":"active","id":null},{"event_id":"338822","title":"25歳から35歳限定「アラサーコンin酒田」2018年2月4日(日) 14:00-16:30","url":"http://peatix.com/event/338822","shortener_url":null,"started_at":"2018-02-04T23:00:00.000+09:00","ended_at":"2018-02-07T08:59:59.000+09:00","limit_number":null,"address":"山形県酒田市幸町 2−1−12 ホテル・アルファーワン酒田 1階","place":"魚民 酒田駅前店","lat":38.9227,"lon":139.845,"state":"active","id":null},{"event_id":"339572","title":"25歳から35歳限定「アラサーコンin山形」2018年2月11日(日) 19:00-21:30","url":"http://peatix.com/event/339572","shortener_url":null,"started_at":"2018-02-12T04:00:00.000+09:00","ended_at":"2018-02-14T08:59:59.000+09:00","limit_number":null,"address":"山形県山形市香澄町１－１５－２８　ホテルニュー最上屋　 ","place":"魚民　山形駅前店","lat":38.2497,"lon":140.329,"state":"active","id":null},{"event_id":"339546","title":"25歳から35歳限定「第88回 アラサーコンin金沢」2018年2月10日(土) 19:30-22:00","url":"http://peatix.com/event/339546","shortener_url":null,"started_at":"2018-02-11T04:30:00.000+09:00","ended_at":"2018-02-13T08:59:59.000+09:00","limit_number":null,"address":"石川県金沢市片町１-7-23　金劇パシオンＢ1Ｆ ","place":"魚民片町店","lat":36.5592,"lon":136.652,"state":"active","id":null},{"event_id":"339248","title":"25歳から40歳「ちょっと大人の恋活パーティーinつくば」2018年2月11日(日) 14:00-16:30","url":"http://peatix.com/event/339248","shortener_url":null,"started_at":"2018-02-11T23:00:00.000+09:00","ended_at":"2018-02-14T08:59:59.000+09:00","limit_number":null,"address":"茨城県つくば市吾妻１-5-3　ＭＯＧ2階","place":"笑笑　つくばクレオスクエアＭＯＧ店","lat":36.0817,"lon":140.111,"state":"active","id":null},{"event_id":"332749","title":"2月23日(金)19:00～六本木 オーストラリアンバーでGaitomo国際交流パーティー","url":"http://peatix.com/event/332749","shortener_url":null,"started_at":"2018-02-24T04:00:00.000+09:00","ended_at":"2018-02-26T08:59:59.000+09:00","limit_number":null,"address":"東京都港区六本木5-3-1 レーヌ第2ビル3F ","place":"六本木 Bar Quest ","lat":35.6621,"lon":139.733,"state":"active","id":null},{"event_id":"339618","title":"「安定男子限定PARTY in盛岡」2018年2月12日(月・祝) 14:00-16:30","url":"http://peatix.com/event/339618","shortener_url":null,"started_at":"2018-02-12T23:00:00.000+09:00","ended_at":"2018-02-15T08:59:59.000+09:00","limit_number":null,"address":"盛岡市菜園2-4-23 バーセル菜園 5F","place":"琥haku （コハク）","lat":39.7019,"lon":141.147,"state":"active","id":null},{"event_id":"339839","title":"2月24日(土)19:00～六本木 インターナショナルフレンズを作るGaitomo国際交流パーティー","url":"http://peatix.com/event/339839","shortener_url":null,"started_at":"2018-02-25T04:00:00.000+09:00","ended_at":"2018-02-27T08:59:59.000+09:00","limit_number":null,"address":"東京都港区六本木5-5-1 ロアビルB1F ","place":"六本木 Pink Cow(ピンクカウ) ","lat":35.662,"lon":139.735,"state":"active","id":null},{"event_id":"338521","title":"安定男子限定「恋活友活パーティーin水戸」2018年2月4日(日) 15:00-17:30","url":"http://peatix.com/event/338521","shortener_url":null,"started_at":"2018-02-05T00:00:00.000+09:00","ended_at":"2018-02-07T08:59:59.000+09:00","limit_number":null,"address":"茨城県水戸市宮町１-7-31　エクセルみなみ6F","place":"パパゲーノ水戸","lat":36.3701,"lon":140.477,"state":"active","id":null},{"event_id":"339531","title":"「安定男子コンin高崎」2018年2月12日(月・祝) 14:00-16:30","url":"http://peatix.com/event/339531","shortener_url":null,"started_at":"2018-02-12T23:00:00.000+09:00","ended_at":"2018-02-15T08:59:59.000+09:00","limit_number":null,"address":"高崎市鶴見町3-1西口サウスパークビル 1階","place":"魚民　高崎西口駅前店 ","lat":36.3207,"lon":139.012,"state":"active","id":null},{"event_id":"339233","title":"安定男子限定「恋活友活パーティーin水戸」2018年2月25日(日) 15:00-17:30","url":"http://peatix.com/event/339233","shortener_url":null,"started_at":"2018-02-26T00:00:00.000+09:00","ended_at":"2018-02-28T08:59:59.000+09:00","limit_number":null,"address":"茨城県水戸市宮町1-7-31 エクセルみなみ6F","place":"パパゲーノ水戸","lat":36.3701,"lon":140.477,"state":"active","id":null},{"event_id":"339512","title":"25歳から40歳「ちょっと大人の街コンin小山」2018年2月11日(日) 19:30-22:00","url":"http://peatix.com/event/339512","shortener_url":null,"started_at":"2018-02-12T04:30:00.000+09:00","ended_at":"2018-02-14T08:59:59.000+09:00","limit_number":null,"address":"小山市駅東通り1-4-7 柿木ビル2F","place":"笑笑　小山東口駅前店","lat":36.3128,"lon":139.806,"state":"active","id":null},{"event_id":"339043","title":"「安定男子コンin郡山」2018年2月11日(日) 14:00-16:30","url":"http://peatix.com/event/339043","shortener_url":null,"started_at":"2018-02-11T23:00:00.000+09:00","ended_at":"2018-02-14T08:59:59.000+09:00","limit_number":null,"address":"福島県郡山市駅前２丁目３−７　","place":"山内農場　郡山駅前店 ","lat":37.3984,"lon":140.387,"state":"active","id":null},{"event_id":"339550","title":"「公務員or国家資格男子コンin金沢」2018年2月11日 (日) 19:30-22:00","url":"http://peatix.com/event/339550","shortener_url":null,"started_at":"2018-02-12T04:30:00.000+09:00","ended_at":"2018-02-14T08:59:59.000+09:00","limit_number":null,"address":"石川県金沢市堀川新町２－５３　セントラルアークビル ５F ","place":"笑笑　金沢東口駅前店 ","lat":36.5789,"lon":136.651,"state":"active","id":null},{"event_id":"338730","title":"男女30歳以上限定「恋STORYコンin福島」2018年2月3日(土) 19:00-21:30","url":"http://peatix.com/event/338730","shortener_url":null,"started_at":"2018-02-04T04:00:00.000+09:00","ended_at":"2018-02-06T08:59:59.000+09:00","limit_number":null,"address":"福島市栄町11-30 ゼビオビルB1 ","place":"笑笑 福島東口駅前店","lat":37.754,"lon":140.463,"state":"active","id":null},{"event_id":"339625","title":"25歳から40歳「ちょっと大人の街コンin福島」2018年2月11日(日) 19:00-21:30","url":"http://peatix.com/event/339625","shortener_url":null,"started_at":"2018-02-12T04:00:00.000+09:00","ended_at":"2018-02-14T08:59:59.000+09:00","limit_number":null,"address":"福島市栄町11-30 ゼビオビルB1","place":"笑笑 福島東口駅前店 ","lat":37.754,"lon":140.463,"state":"active","id":null},{"event_id":"339620","title":"25歳から35歳限定「アラサーコンin盛岡」2018年2月11日(日) 14:00-16:30","url":"http://peatix.com/event/339620","shortener_url":null,"started_at":"2018-02-11T23:00:00.000+09:00","ended_at":"2018-02-14T08:59:59.000+09:00","limit_number":null,"address":"盛岡市菜園2-4-23 バーセル菜園 5F","place":"琥haku （コハク）","lat":39.7019,"lon":141.147,"state":"active","id":null},{"event_id":"342212","title":"2月27日(火)19:00～★ 箱崎 平日五ツ星シェフが作る民族料理カフェバーでGaitomo国際交流パーティー","url":"http://peatix.com/event/342212","shortener_url":null,"started_at":"2018-02-28T04:00:00.000+09:00","ended_at":"2018-03-02T08:59:59.000+09:00","limit_number":null,"address":"東京都中央区日本橋箱崎町3-8","place":"箱崎 SPICE HARVEST(スパイスハーベス)カフェ＆バー ","lat":35.6805,"lon":139.784,"state":"active","id":null},{"event_id":"339537","title":"「男女30歳以上限定 恋STORYコンin小田原」2018年2月11日(日) 14:00-16:30","url":"http://peatix.com/event/339537","shortener_url":null,"started_at":"2018-02-11T23:00:00.000+09:00","ended_at":"2018-02-14T08:59:59.000+09:00","limit_number":null,"address":"小田原市栄町1-2-1 小田原駅前ビル3F","place":"魚民 小田原東口駅前店","lat":35.4629,"lon":139.617,"state":"active","id":null},{"event_id":"332733","title":"2月15日(木)19:00～中目黒 焼き立てピッツァをお仕事帰りに平日Gaitomo国際交流パーティー","url":"http://peatix.com/event/332733","shortener_url":null,"started_at":"2018-02-16T04:00:00.000+09:00","ended_at":"2018-02-18T08:59:59.000+09:00","limit_number":null,"address":"東京都目黒区青葉台1-27-12 ","place":"ピッツァ フォルノ カフェ 中目黒店 ","lat":35.6478,"lon":139.694,"state":"active","id":null},{"event_id":"332702","title":"2月3日(土)19:00～六本木 土曜日飲み放題で外国人の友達作りGaitomo国際交流パーティー","url":"http://peatix.com/event/332702","shortener_url":null,"started_at":"2018-02-04T04:00:00.000+09:00","ended_at":"2018-02-06T08:59:59.000+09:00","limit_number":null,"address":"東京都港区六本木3-13-12 エルサビル2F ","place":"六本木 MAGNET ","lat":35.6629,"lon":139.734,"state":"active","id":null},{"event_id":"332726","title":"2月11日(日)18:00～青山【シングル限定】優雅なセレブラウンジでGaitomo国際交流パーティー","url":"http://peatix.com/event/332726","shortener_url":null,"started_at":"2018-02-12T03:00:00.000+09:00","ended_at":"2018-02-14T08:59:59.000+09:00","limit_number":null,"address":"東京都港区北青山3-2-5 NH青山ビル2F","place":"青山 Aoyama Lounge ","lat":35.6689,"lon":139.715,"state":"active","id":null},{"event_id":"332752","title":"2月25日(日)18:00～六本木【独身限定】駅近セレブラウンジでGaitomo国際交流パーティー","url":"http://peatix.com/event/332752","shortener_url":null,"started_at":"2018-02-26T04:00:00.000+09:00","ended_at":"2018-02-28T08:59:59.000+09:00","limit_number":null,"address":"東京都港区六本木4-10-10 正直屋ビルB1 ","place":"六本木 balance(バランス) ","lat":35.6638,"lon":139.732,"state":"active","id":null},{"event_id":"339633","title":"男女35歳から45歳「社会人サークルin鶴岡」2018年2月12日(月・祝) 14:00-16:30","url":"http://peatix.com/event/339633","shortener_url":null,"started_at":"2018-02-12T23:00:00.000+09:00","ended_at":"2018-02-15T08:59:59.000+09:00","limit_number":null,"address":"山形県鶴岡市末広町２-４１　YS鶴岡駅前ビル １Ｆ ","place":"千年の宴　鶴岡駅前店","lat":38.7397,"lon":139.838,"state":"active","id":null},{"event_id":"324108","title":"MeCA l Media Culture in Asia: A Transnational Platform [音楽プログラム / Music Program]","url":"http://mecamusic.peatix.com","shortener_url":null,"started_at":"2018-02-10T05:00:00.000+09:00","ended_at":"2018-02-12T08:59:59.000+09:00","limit_number":null,"address":"〒150-0042 東京都渋谷区宇田川町13−17 ライズビル","place":"渋谷 WWW／WWW X","lat":35.6615,"lon":139.699,"state":"active","id":null},{"event_id":"338560","title":"「公務員or国家資格男子コンinつくば」2018年2月4日 (日) 14:00-16:30","url":"http://peatix.com/event/338560","shortener_url":null,"started_at":"2018-02-04T23:00:00.000+09:00","ended_at":"2018-02-07T08:59:59.000+09:00","limit_number":null,"address":"茨城県つくば市吾妻１-5-3　ＭＯＧ2階","place":"笑笑　つくばクレオスクエアＭＯＧ店","lat":36.0821,"lon":140.111,"state":"active","id":null},{"event_id":"339183","title":"「公務員or国家資格男子 恋活友活パーティーin水戸」2018年2月11日(日) 19:00-21:30","url":"http://peatix.com/event/339183","shortener_url":null,"started_at":"2018-02-12T04:00:00.000+09:00","ended_at":"2018-02-14T08:59:59.000+09:00","limit_number":null,"address":"茨城県水戸市宮町１-7-31　エクセルみなみ6F","place":"イタリアンバイキング「パパゲーノ水戸」","lat":36.3701,"lon":140.477,"state":"active","id":null},{"event_id":"339056","title":"男女35歳から45歳「社会人サークルin郡山」2018年2月12日(月・祝) 14:00-16:30","url":"http://peatix.com/event/339056","shortener_url":null,"started_at":"2018-02-12T23:00:00.000+09:00","ended_at":"2018-02-15T08:59:59.000+09:00","limit_number":null,"address":"福島県郡山市駅前２－３－１２ 越後屋プラザ ２Ｆ ","place":"山内農場　郡山駅前店","lat":37.3982,"lon":140.388,"state":"active","id":null},{"event_id":"338565","title":"「安定男子コンin小山」2018年2月3日(土) 19:30-22:00","url":"http://peatix.com/event/338565","shortener_url":null,"started_at":"2018-02-04T04:30:00.000+09:00","ended_at":"2018-02-06T08:59:59.000+09:00","limit_number":null,"address":"小山市駅東通り1-4-7 柿木ビル2F","place":"笑笑　小山東口駅前店","lat":36.3108,"lon":139.807,"state":"active","id":null},{"event_id":"339520","title":"「安定男子コンin太田」2018年2月12日(月・祝) 14:00-16:30","url":"http://peatix.com/event/339520","shortener_url":null,"started_at":"2018-02-12T23:00:00.000+09:00","ended_at":"2018-02-15T08:59:59.000+09:00","limit_number":null,"address":"群馬県太田市飯田町1389-2 武藤ビル2F","place":"白木屋 太田南口店","lat":36.2932,"lon":139.379,"state":"active","id":null},{"event_id":"338844","title":"アニメ好き大集合「元祖アニコンin山形 Vol.36」2018年2月11日(日) 14:00-16:30","url":"http://peatix.com/event/338844","shortener_url":null,"started_at":"2018-02-11T23:00:00.000+09:00","ended_at":"2018-02-14T08:59:59.000+09:00","limit_number":null,"address":"山形県山形市香澄町１－１５－２８　ホテルニュー最上屋　 ","place":"魚民　山形駅前店","lat":38.2497,"lon":140.329,"state":"active","id":null},{"event_id":"338705","title":"25歳から40歳「ちょっと大人の街コンin山形」2018年2月3日(土) 19:00-21:30","url":"http://peatix.com/event/338705","shortener_url":null,"started_at":"2018-02-04T04:00:00.000+09:00","ended_at":"2018-02-06T08:59:59.000+09:00","limit_number":null,"address":"山形県山形市香澄町１－１５－２８　ホテルニュー最上屋　 ","place":"魚民　山形駅前店 ","lat":38.2497,"lon":140.329,"state":"active","id":null},{"event_id":"338408","title":"25歳から35歳限定「アラサーコンinいわき」2018年2月3日(土) 19:30-22:00","url":"http://peatix.com/event/338408","shortener_url":null,"started_at":"2018-02-04T04:30:00.000+09:00","ended_at":"2018-02-06T08:59:59.000+09:00","limit_number":null,"address":"福島県いわき市 平字田町1-1 レストランビル3F","place":"JAPANESE DINING 和民 いわき駅前店","lat":37.057,"lon":140.893,"state":"active","id":null},{"event_id":"332722","title":"2月10日(土)19:00～六本木 インターナショナルバーで楽しむGaitomo国際交流パーティー","url":"http://peatix.com/event/332722","shortener_url":null,"started_at":"2018-02-11T04:00:00.000+09:00","ended_at":"2018-02-13T08:59:59.000+09:00","limit_number":null,"address":"東京都港区六本木7-14-5 大和ビル2F ","place":"六本木 Mogambo Tokyo(モガンボ トウキョウ) ","lat":35.6636,"lon":139.731,"state":"active","id":null},{"event_id":"338720","title":"25歳から40歳「ちょっと大人の街コンin盛岡」2018年2月4日(日) 14:00-16:30","url":"http://peatix.com/event/338720","shortener_url":null,"started_at":"2018-02-04T23:00:00.000+09:00","ended_at":"2018-02-07T08:59:59.000+09:00","limit_number":null,"address":"盛岡市菜園2-4-23 バーセル菜園 5F","place":"琥haku （コハク）","lat":39.7019,"lon":141.147,"state":"active","id":null},{"event_id":"339235","title":"「30代限定コンinつくば」2018年2月25日(日) 14:00-16:30","url":"http://peatix.com/event/339235","shortener_url":null,"started_at":"2018-02-25T23:00:00.000+09:00","ended_at":"2018-02-28T08:59:59.000+09:00","limit_number":null,"address":"つくば市吾妻1丁目6−1","place":"月の宴 つくばクレオスクエアＭＯＧ店","lat":36.0814,"lon":140.111,"state":"active","id":null},{"event_id":"339230","title":"25歳から35歳限定「アラサー限定パーティーin水戸」2018年2月17日(土) 19:00-21:30","url":"http://peatix.com/event/339230","shortener_url":null,"started_at":"2018-02-18T04:00:00.000+09:00","ended_at":"2018-02-20T08:59:59.000+09:00","limit_number":null,"address":"茨城県水戸市宮町1-7-31 エクセルみなみ6F","place":"パパゲーノ水戸","lat":36.3701,"lon":140.477,"state":"active","id":null},{"event_id":"338578","title":"25歳から40歳「ちょっと大人の街コンin高崎」2018年2月3日(土) 19:30-22:00","url":"http://peatix.com/event/338578","shortener_url":null,"started_at":"2018-02-04T04:30:00.000+09:00","ended_at":"2018-02-06T08:59:59.000+09:00","limit_number":null,"address":"高崎市鶴見町3-1西口サウスパークビル1階 ","place":"魚民　高崎西口駅前店 ","lat":36.3208,"lon":139.012,"state":"active","id":null},{"event_id":"339564","title":"年上彼氏×年下彼女「恋活友活パーティー弘前」2018年2月11日(日) 14:00-16:30","url":"http://peatix.com/event/339564","shortener_url":null,"started_at":"2018-02-11T23:00:00.000+09:00","ended_at":"2018-02-14T08:59:59.000+09:00","limit_number":null,"address":"青森県弘前市駅前町7−5 おおまち共同パーク","place":"笑笑 弘前駅前店","lat":40.5981,"lon":140.482,"state":"active","id":null},{"event_id":"338686","title":"25歳から40歳「ちょっと大人の街コンin弘前」2018年2月4日(日) 14:00-16:30","url":"http://peatix.com/event/338686","shortener_url":null,"started_at":"2018-02-04T23:00:00.000+09:00","ended_at":"2018-02-07T08:59:59.000+09:00","limit_number":null,"address":"弘前市大字駅前町7-5 おおまち共同パーク1F","place":"笑笑 弘前駅前店","lat":40.5981,"lon":140.482,"state":"active","id":null},{"event_id":"339627","title":"「社会人男子コンin福島」2018年2月12日(月・祝) 14:00-16:30","url":"http://peatix.com/event/339627","shortener_url":null,"started_at":"2018-02-12T23:00:00.000+09:00","ended_at":"2018-02-15T08:59:59.000+09:00","limit_number":null,"address":"福島市栄町6-1 エスタビルB1 ","place":"福福屋福島駅東口店","lat":37.7542,"lon":140.461,"state":"active","id":null},{"event_id":"339064","title":"「社会人男子コンinいわき」2018年2月11日(日) 14:30-17:00","url":"http://peatix.com/event/339064","shortener_url":null,"started_at":"2018-02-11T23:30:00.000+09:00","ended_at":"2018-02-14T08:59:59.000+09:00","limit_number":null,"address":"福島県いわき市平字田町1-1 レストランビル3F","place":"居酒屋 「三代目」鳥メロ いわき駅前店","lat":37.057,"lon":140.893,"state":"active","id":null},{"event_id":"339615","title":"「社会人男子コンin山形」2018年2月12日(月・祝) 14:00-16:30","url":"http://peatix.com/event/339615","shortener_url":null,"started_at":"2018-02-12T23:00:00.000+09:00","ended_at":"2018-02-15T08:59:59.000+09:00","limit_number":null,"address":"山形県山形市香澄町１－１５－２８　ホテルニュー最上屋 　","place":"魚民　山形駅前店 ","lat":38.2497,"lon":140.329,"state":"active","id":null},{"event_id":"337034","title":"【edoARTworkshop】和のこころを結ぶ 水引アート体験 ～梅結びのアクセサリー（ピアス / イヤリング）づくり","url":"http://edoart0224.peatix.com","shortener_url":null,"started_at":"2018-02-24T19:30:00.000+09:00","ended_at":"2018-02-27T08:59:59.000+09:00","limit_number":null,"address":"東京都台東区西浅草2-6-2","place":"かっぱ橋道具街 はし藤 ２F","lat":35.7127,"lon":139.789,"state":"active","id":null},{"event_id":"338853","title":"【！残席１名様！】筆ペンではじめる～心と心をつなぐ筆文字　伝筆（つてふで）体験","url":"http://edoart0225pm.peatix.com","shortener_url":null,"started_at":"2018-02-25T23:00:00.000+09:00","ended_at":"2018-02-28T08:59:59.000+09:00","limit_number":null,"address":"〒103-8001 東京都中央区日本橋室町1-4-1 日本橋三越本店 本館7階","place":"日本橋三越本店 本館７階 はじまりのカフェ","lat":0.0,"lon":0.0,"state":"active","id":null},{"event_id":"338850","title":"【満員御礼】季節を彩る　飾り巻き寿司体験","url":"http://edoart0225am.peatix.com","shortener_url":null,"started_at":"2018-02-25T20:00:00.000+09:00","ended_at":"2018-02-28T08:59:59.000+09:00","limit_number":null,"address":"〒103-8001 東京都中央区日本橋室町1-4-1 日本橋三越本店 本館7階","place":"日本橋三越本店 本館７階 はじまりのカフェ","lat":0.0,"lon":0.0,"state":"active","id":null},{"event_id":"336880","title":"【edoArtworkshop】和製本技術を活かして老舗〈戸田屋商店〉の手ぬぐいで作る御朱印帳と丸帙(まるちつ)体験","url":"http://edoart0217.peatix.com","shortener_url":null,"started_at":"2018-02-17T20:00:00.000+09:00","ended_at":"2018-02-20T08:59:59.000+09:00","limit_number":null,"address":"東京都台東区西浅草2-6-2","place":"かっぱ橋道具街 はし藤本店 ２F","lat":35.7127,"lon":139.789,"state":"active","id":null},{"event_id":"335060","title":"【edoARTworkshop】青森伝統の技と心を知る 津軽こぎん刺し体験～栞づくり～","url":"http://edoart0210.peatix.com","shortener_url":null,"started_at":"2018-02-10T19:30:00.000+09:00","ended_at":"2018-02-13T08:59:59.000+09:00","limit_number":null,"address":"〒111-0035 東京都台東区西浅草２丁目６−２","place":"かっぱ橋道具街 はし藤 ２F","lat":35.7127,"lon":139.789,"state":"active","id":null},{"event_id":"338926","title":"ZafuPJ認定≪禅ボディマインドマネジメント基礎講座≫第２回　立ち姿勢、歩行編","url":"http://peatix.com/event/338926","shortener_url":null,"started_at":"2018-02-15T04:30:00.000+09:00","ended_at":"2018-02-17T08:59:59.000+09:00","limit_number":null,"address":"東京都文京区根津1-14-3　根津交流館","place":"根津交流館","lat":35.7183,"lon":139.763,"state":"active","id":null},{"event_id":"335333","title":"第47回堀江貴文とカウンターで高級寿司を食べる【限定10人】TERIYAKIプレミアム鮨会 in 広島","url":"http://teriyakipremium47.peatix.com","shortener_url":null,"started_at":"2018-02-08T21:00:00.000+09:00","ended_at":"2018-02-11T08:59:59.000+09:00","limit_number":null,"address":"広島県尾道市浦崎町大平木1344-2","place":"鮨 双忘","lat":34.3922,"lon":133.288,"state":"active","id":null},{"event_id":"328132","title":"【edoARTworkshop】鳥居 満智栄の恋する和菓子づくり～2月編","url":"http://edoart0201.peatix.com","shortener_url":null,"started_at":"2018-02-01T23:00:00.000+09:00","ended_at":"2018-02-04T08:59:59.000+09:00","limit_number":null,"address":"東京都台東区西浅草2-6-2","place":"かっぱ橋道具街 はし藤本店 ２Ｆ","lat":35.7127,"lon":139.789,"state":"active","id":null},{"event_id":"335449","title":"「婚活・結婚適齢期　男女25歳～40歳限定☆婚活パーティー山形」2018年2月25日(日) 14:00-15:30 ","url":"http://peatix.com/event/335449","shortener_url":null,"started_at":"2018-02-25T23:00:00.000+09:00","ended_at":"2018-02-28T08:59:59.000+09:00","limit_number":null,"address":"山形市香澄町2丁目9−45","place":"山形市民会館","lat":38.2487,"lon":140.333,"state":"active","id":null},{"event_id":"335456","title":"30歳～39歳まで「同世代☆婚活パーティー山形」2018年2月24日(土) 14:00-15:30  ","url":"http://peatix.com/event/335456","shortener_url":null,"started_at":"2018-02-24T23:00:00.000+09:00","ended_at":"2018-02-27T08:59:59.000+09:00","limit_number":null,"address":"山形市香澄町2丁目9−45","place":"山形市民会館","lat":38.2487,"lon":140.333,"state":"active","id":null},{"event_id":"335361","title":"「初婚男女限定☆婚活パーティー山形」2年以内の結婚が理想の男女　2018年2月4日(日) 14:00-15:30   ","url":"http://peatix.com/event/335361","shortener_url":null,"started_at":"2018-02-04T23:00:00.000+09:00","ended_at":"2018-02-07T08:59:59.000+09:00","limit_number":null,"address":"山形市香澄町2ー9ー45","place":"山形市民会館(１階)","lat":38.2487,"lon":140.333,"state":"active","id":null},{"event_id":"335373","title":"30歳～39歳まで「同世代☆婚活パーティー山形」2018年2月10日(土) 14:00-15:30  ","url":"http://peatix.com/event/335373","shortener_url":null,"started_at":"2018-02-10T23:00:00.000+09:00","ended_at":"2018-02-13T08:59:59.000+09:00","limit_number":null,"address":"山形県山形市香澄町2ー9ー45","place":"山形市民会館(１階)","lat":38.2487,"lon":140.333,"state":"active","id":null},{"event_id":"335455","title":"男女30歳～45歳「同世代☆婚活パーティー山形」2018年2月17日(土) 14:00-15:30","url":"http://peatix.com/event/335455","shortener_url":null,"started_at":"2018-02-17T23:00:00.000+09:00","ended_at":"2018-02-20T08:59:59.000+09:00","limit_number":null,"address":"山形市香澄町2-9-45","place":"山形市民会館(１階　大会議室)","lat":38.2487,"lon":140.333,"state":"active","id":null},{"event_id":"335399","title":"「婚活・結婚適齢期　男女25歳～40歳限定☆婚活パーティー山形」2018年2月12日(祝・月) 14:00-15:30   ","url":"http://peatix.com/event/335399","shortener_url":null,"started_at":"2018-02-12T23:00:00.000+09:00","ended_at":"2018-02-15T08:59:59.000+09:00","limit_number":null,"address":"山形市香澄町2ー9ー45","place":"山形市民会館(１階)","lat":38.2487,"lon":140.333,"state":"active","id":null},{"event_id":"335376","title":"「婚活初心者男女☆婚活パーティー山形」数か月以内のお付き合いが理想男女　2018年2月11日(日) 14:00-15:30  ","url":"http://peatix.com/event/335376","shortener_url":null,"started_at":"2018-02-11T23:00:00.000+09:00","ended_at":"2018-02-14T08:59:59.000+09:00","limit_number":null,"address":"山形市香澄町2ー9ー45","place":"山形市民会館(１階)","lat":38.2487,"lon":140.333,"state":"active","id":null},{"event_id":"335353","title":"男女30歳～45歳「同世代☆婚活パーティー山形」2018年2月3日(土) 14:00-15:30 ","url":"http://peatix.com/event/335353","shortener_url":null,"started_at":"2018-02-03T23:00:00.000+09:00","ended_at":"2018-02-06T08:59:59.000+09:00","limit_number":null,"address":"山形市香澄町2-9-45","place":"山形市民会館(１階)","lat":38.2487,"lon":140.333,"state":"active","id":null},{"event_id":"76988","title":"DIST.19 「フリーランスの生存戦略」","url":"https://dist.connpass.com/event/76988/","shortener_url":null,"started_at":"2018-02-03T04:00:00.000+09:00","ended_at":"2018-02-03T06:00:00.000+09:00","limit_number":158,"address":"東京都中野区東中野4-2-3","place":"東京テクニカルカレッジ","lat":35.7068,"lon":139.685,"state":"active","id":null},{"event_id":"76149","title":"防災・減災アイディアソン","url":"https://code4toyama.connpass.com/event/76149/","shortener_url":"https://goo.gl/5czYwx","started_at":"2018-02-17T10:00:00.000+09:00","ended_at":"2018-02-17T12:15:00.000+09:00","limit_number":80,"address":"富山県富山市新総曲輪4番18号","place":"富山県民会館611号室","lat":36.6954,"lon":137.212,"state":"active","id":null},{"event_id":"341512","title":"「シナリオランド」オフラインイベント　小池一夫の漫画寺合宿×シナリオランド ～キャラクター進化論！漫画原作の書き方～","url":"http://peatix.com/event/341512","shortener_url":null,"started_at":"2018-02-17T21:30:00.000+09:00","ended_at":"2018-02-20T08:59:59.000+09:00","limit_number":null,"address":"東京都港区六本木三丁目2番1号 住友不動産六本木グランドタワー DMMグループ 24階","place":"DMM.com","lat":35.6647,"lon":139.738,"state":"active","id":null},{"event_id":"342514","title":"交通費支給！人工知能×ビッグデータで価値を生み出す、ドコモ主催のアイデアソン！","url":"http://peatix.com/event/342514","shortener_url":"https://goo.gl/UtoQnv","started_at":"2018-02-05T21:00:00.000+09:00","ended_at":"2018-02-08T08:59:59.000+09:00","limit_number":null,"address":"東京都港区赤坂１丁目１２−32 アーク森ビル31階 NTTドコモ・ベンチャーズ","place":"東京都港区赤坂１丁目１２−32 アーク森ビル31階 NTTドコモ・ベンチャーズ","lat":35.667,"lon":139.74,"state":"active","id":null},{"event_id":"341591","title":"九州大学QREC「Entrepreneurship Bootcamp：IoTハッカソン」","url":"http://peatix.com/event/341591","shortener_url":"https://goo.gl/qefGMc","started_at":"2018-02-03T19:00:00.000+09:00","ended_at":"2018-02-06T08:59:59.000+09:00","limit_number":null,"address":"福岡県福岡市中央区大名2丁目1−44","place":"福岡市スタートアップカフェ","lat":33.5891,"lon":130.395,"state":"active","id":null},{"event_id":"342856","title":"間伐材からお弁当箱をつくろう! - 棟梁直伝木工技術研修編 - ","url":"http://peatix.com/event/342856","shortener_url":null,"started_at":"2018-02-03T20:00:00.000+09:00","ended_at":"2018-02-06T08:59:59.000+09:00","limit_number":null,"address":"静岡県富士宮市下柚野165","place":"富士山麓","lat":35.2509,"lon":138.555,"state":"active","id":null},{"event_id":"342606","title":"タクティカル･アーバニズム会議ー日本のタクティカル・アーバニズムを考える６時間！－｜ソトノバTABLE#25","url":"http://sotonobatable25.peatix.com","shortener_url":null,"started_at":"2018-02-03T23:00:00.000+09:00","ended_at":"2018-02-06T08:59:59.000+09:00","limit_number":null,"address":"東京都 千代田区紀尾井町1-3 東京ガーデンテラス紀尾井町 ヤフー株式会社","place":"LODGE（東京ガーデンテラス紀尾井町 ヤフー株式会社内）","lat":35.6797,"lon":139.737,"state":"active","id":null},{"event_id":"340679","title":"IoT、AI時代に突入！ まるごと学ぶIoT × AI × システム構築塾　INTILAQ高度IT人材育成シリーズ","url":"http://peatix.com/event/340679","shortener_url":null,"started_at":"2018-02-18T18:00:00.000+09:00","ended_at":"2018-02-21T08:59:59.000+09:00","limit_number":null,"address":"宮城県仙台市若林区卸町2-9-1","place":"INTILAQ東北イノベーションセンター","lat":38.2545,"lon":140.922,"state":"active","id":null},{"event_id":"342677","title":"影絵パフォーマンス＆トーク「川村亘平斎の影絵と音楽【おそなえきのみ】","url":"http://peatix.com/event/342677","shortener_url":null,"started_at":"2018-02-09T22:30:00.000+09:00","ended_at":"2018-02-12T08:59:59.000+09:00","limit_number":null,"address":"東京都中央区銀座2-7-15 G.Itoya B1F ","place":"銀座・伊東屋　Inspiration Hall","lat":35.673,"lon":139.767,"state":"active","id":null},{"event_id":"342556","title":"影絵パフォーマンス＆トーク「川村亘平斎の影絵と音楽【おそなえきのみ】","url":"http://peatix.com/event/342556","shortener_url":null,"started_at":"2018-02-03T23:00:00.000+09:00","ended_at":"2018-02-06T08:59:59.000+09:00","limit_number":null,"address":"東京都中央区銀座2-7-15 G.Itoya B1F ","place":"銀座・伊東屋　Inspiration Hall","lat":35.673,"lon":139.767,"state":"active","id":null},{"event_id":"342688","title":"影絵パフォーマンス＆トーク「川村亘平斎の影絵と音楽【おそなえきのみ】","url":"http://peatix.com/event/342688","shortener_url":null,"started_at":"2018-02-10T03:00:00.000+09:00","ended_at":"2018-02-12T08:59:59.000+09:00","limit_number":null,"address":"東京都中央区銀座2-7-15 G.ItoyaB1F","place":"銀座・伊東屋　Inspiration Hall","lat":35.673,"lon":139.767,"state":"active","id":null},{"event_id":"341497","title":"Feb 3 大和撫子的オトナのファッション講座（日本円）","url":"http://peatix.com/event/341497","shortener_url":null,"started_at":"2018-02-03T09:00:00.000+09:00","ended_at":"2018-02-06T08:59:59.000+09:00","limit_number":null,"address":"Zoom","place":"Zoomオンライン会議システム","lat":35.6099,"lon":140.11,"state":"active","id":null},{"event_id":"342701","title":"影絵パフォーマンス＆トーク「川村亘平斎の影絵と音楽【おそなえきのみ】","url":"http://peatix.com/event/342701","shortener_url":null,"started_at":"2018-02-12T22:30:00.000+09:00","ended_at":"2018-02-15T08:59:59.000+09:00","limit_number":null,"address":"東京都中央区銀座2-7-15 G.Itoya B1F ","place":"銀座・伊東屋　Inspiration Hall","lat":35.673,"lon":139.767,"state":"active","id":null},{"event_id":"342706","title":"影絵パフォーマンス＆トーク「川村亘平斎の影絵と音楽【おそなえきのみ】","url":"http://peatix.com/event/342706","shortener_url":null,"started_at":"2018-02-13T01:00:00.000+09:00","ended_at":"2018-02-15T08:59:59.000+09:00","limit_number":null,"address":"東京都中央区銀座2-7-15 G.Itoya B1F ","place":"銀座・伊東屋　Inspiration Hall","lat":35.673,"lon":139.767,"state":"active","id":null},{"event_id":"343281","title":"Mo'Fire Pres. Lemzly Dale","url":"http://peatix.com/event/343281","shortener_url":null,"started_at":"2018-02-18T08:00:00.000+09:00","ended_at":"2018-02-20T08:59:59.000+09:00","limit_number":null,"address":"〒150-0002 東京都渋谷区渋谷3丁目26−16 第五叶ビル1F\u0026B1F","place":"CIRCUS TOKYO","lat":35.6542,"lon":139.706,"state":"active","id":null},{"event_id":"342716","title":"【60%割引】ブロックチェーンビジネス検討ノウハウを学ぶ8時間","url":"http://peatix.com/event/342716","shortener_url":null,"started_at":"2018-02-17T19:00:00.000+09:00","ended_at":"2018-02-20T08:59:59.000+09:00","limit_number":null,"address":"東京都豊島区東池袋１丁目 ３９−１５","place":"シャトレ―東池袋５F","lat":0.0,"lon":0.0,"state":"active","id":null},{"event_id":"341903","title":"PRESIDENTS DAY Pub Crawl (FRI) プレジデント・デイ パーティー（金）","url":"http://peatix.com/event/341903","shortener_url":null,"started_at":"2018-02-17T04:00:00.000+09:00","ended_at":"2018-02-19T08:59:59.000+09:00","limit_number":null,"address":"東京都港区六本木3-14-9 ユア六本木2F","place":"Bar Propaganda (2F)","lat":35.6623,"lon":139.735,"state":"active","id":null},{"event_id":"343189","title":"24歳から38歳『ちょっと大人のアニコンin名古屋』2018年2月25日(日) 14:00-16:30","url":"http://peatix.com/event/343189","shortener_url":null,"started_at":"2018-02-25T23:00:00.000+09:00","ended_at":"2018-02-28T08:59:59.000+09:00","limit_number":null,"address":"愛知県名古屋市中村区名駅3-8-13 ファストKHビル2F","place":"デザイナーズ個室Dining 一期 ～ichigo～ 名駅店","lat":0.0,"lon":0.0,"state":"active","id":null},{"event_id":"341307","title":"2月24日（土）アイデアからビジネスを創るワークショップ「Startup Discussion」","url":"http://peatix.com/event/341307","shortener_url":null,"started_at":"2018-02-24T23:30:00.000+09:00","ended_at":"2018-02-27T08:59:59.000+09:00","limit_number":null,"address":"横浜市中区海岸通1-1","place":"波止場会館　４F小会議室Ｂ","lat":35.4487,"lon":139.645,"state":"active","id":null},{"event_id":"343108","title":"フリーランスを実験する！？〜多様化される次の未来の仕事の価値とは？〜","url":"http://peatix.com/event/343108","shortener_url":null,"started_at":"2018-02-22T04:30:00.000+09:00","ended_at":"2018-02-24T08:59:59.000+09:00","limit_number":null,"address":"東京都中央区日本橋本町3-10-1 宝田恵比寿神社横 駐車場跡地","place":"BETTARA STAND 日本橋","lat":35.6892,"lon":139.777,"state":"active","id":null},{"event_id":"340936","title":"「社会人男子コンin盛岡」2018年2月3日(土) 19:00-21:30","url":"http://peatix.com/event/340936","shortener_url":null,"started_at":"2018-02-04T04:00:00.000+09:00","ended_at":"2018-02-06T08:59:59.000+09:00","limit_number":null,"address":"盛岡市菜園2-4-23","place":"琥haku （コハク）","lat":39.7019,"lon":141.147,"state":"active","id":null},{"event_id":"341035","title":"「30代限定コンin盛岡」2018年2月18日(日) 14:00-16:30","url":"http://peatix.com/event/341035","shortener_url":null,"started_at":"2018-02-18T23:00:00.000+09:00","ended_at":"2018-02-21T08:59:59.000+09:00","limit_number":null,"address":"盛岡市菜園2-4-23","place":"琥haku （コハク）","lat":39.7019,"lon":141.147,"state":"active","id":null},{"event_id":"343024","title":"25歳から35歳限定「アラサーコンinいわき」2018年2月24日(土) 19:30-22:00","url":"http://peatix.com/event/343024","shortener_url":null,"started_at":"2018-02-25T04:30:00.000+09:00","ended_at":"2018-02-27T08:59:59.000+09:00","limit_number":null,"address":"福島県いわき市 平字田町1-1 レストランビル3F","place":"JAPANESE DINING 和民 いわき駅前店","lat":37.057,"lon":140.893,"state":"active","id":null},{"event_id":"343093","title":"「公務員or国家資格男子コンinいわき」2018年2月25日 (日) 14:30-17:00","url":"http://peatix.com/event/343093","shortener_url":null,"started_at":"2018-02-25T23:30:00.000+09:00","ended_at":"2018-02-28T08:59:59.000+09:00","limit_number":null,"address":"福島県いわき市平字白銀町6-1","place":"「三代目」鳥メロ ","lat":37.0571,"lon":140.893,"state":"active","id":null},{"event_id":"340676","title":"「男女30歳以上限定 恋STORYコンin小山」2018年2月18日(日) 15:00-17:30","url":"http://peatix.com/event/340676","shortener_url":null,"started_at":"2018-02-19T00:00:00.000+09:00","ended_at":"2018-02-21T08:59:59.000+09:00","limit_number":null,"address":"小山市駅東通り1-4-7 柿木ビル2F","place":"笑笑　小山東口駅前店","lat":36.3108,"lon":139.807,"state":"active","id":null},{"event_id":"340880","title":"「安定男子PARTY in甲府」2018年2月18日(日) 14:00-16:30","url":"http://peatix.com/event/340880","shortener_url":null,"started_at":"2018-02-18T23:00:00.000+09:00","ended_at":"2018-02-21T08:59:59.000+09:00","limit_number":null,"address":"山梨県甲府市中央1-6-6 丸忠ビル2F","place":"魚民　甲府岡島百貨店前店 ","lat":35.6607,"lon":138.57,"state":"active","id":null},{"event_id":"340567","title":"「30代限定コンinいわき」2018年2月17日(土) 19:30-22:00","url":"http://peatix.com/event/340567","shortener_url":null,"started_at":"2018-02-18T04:30:00.000+09:00","ended_at":"2018-02-20T08:59:59.000+09:00","limit_number":null,"address":"福島県いわき市平字田町1-1 レストランビル3F","place":"居酒屋 「三代目」鳥メロ いわき駅前店","lat":37.057,"lon":140.893,"state":"active","id":null},{"event_id":"340896","title":"「社会人男子コンin青森」2018年2月3日(土) 19:00-21:30","url":"http://peatix.com/event/340896","shortener_url":null,"started_at":"2018-02-04T04:00:00.000+09:00","ended_at":"2018-02-06T08:59:59.000+09:00","limit_number":null,"address":"青森県青森市新町１－１－１８　青森マルサビル　１Ｆ ","place":"魚民　青森駅前店 ","lat":40.8281,"lon":140.736,"state":"active","id":null},{"event_id":"341003","title":"25歳から35歳限定「アラサーコンin青森」2018年2月18日(日) 14:00-16:30","url":"http://peatix.com/event/341003","shortener_url":null,"started_at":"2018-02-18T23:00:00.000+09:00","ended_at":"2018-02-21T08:59:59.000+09:00","limit_number":null,"address":"青森県青森市新町1-1-18 青森マルサビル 1F","place":"魚民　青森駅前店","lat":40.8281,"lon":140.736,"state":"active","id":null},{"event_id":"341065","title":"「安定男子コンin福島」2018年2月18日(日) 14:00-16:30","url":"http://peatix.com/event/341065","shortener_url":null,"started_at":"2018-02-18T23:00:00.000+09:00","ended_at":"2018-02-21T08:59:59.000+09:00","limit_number":null,"address":"福島市栄町6-1 エスタビルB1","place":"福福屋福島駅東口店","lat":37.7542,"lon":140.461,"state":"active","id":null},{"event_id":"340524","title":"「社会人男子コンin郡山」2018年2月18日(日) 14:00-16:30","url":"http://peatix.com/event/340524","shortener_url":null,"started_at":"2018-02-18T23:00:00.000+09:00","ended_at":"2018-02-21T08:59:59.000+09:00","limit_number":null,"address":"福島県郡山市駅前2-3-12 越後屋プラザ 2F ","place":"山内農場　郡山駅前店","lat":37.3984,"lon":140.387,"state":"active","id":null},{"event_id":"340581","title":"「社会人男子コンinいわき」2018年2月18日(日) 14:30-17:00","url":"http://peatix.com/event/340581","shortener_url":null,"started_at":"2018-02-18T23:30:00.000+09:00","ended_at":"2018-02-21T08:59:59.000+09:00","limit_number":null,"address":"福島県いわき市平字田町1-1 レストランビル3F","place":"居酒屋 「三代目」鳥メロ いわき駅前店","lat":37.057,"lon":140.893,"state":"active","id":null},{"event_id":"340949","title":"「20代限定コンin青森」2018年2月10日(土) 19:00-21:30","url":"http://peatix.com/event/340949","shortener_url":null,"started_at":"2018-02-11T04:00:00.000+09:00","ended_at":"2018-02-13T08:59:59.000+09:00","limit_number":null,"address":"青森県青森市新町１丁目１−１８ ","place":"山内農場 青森駅前店 ","lat":40.8282,"lon":140.736,"state":"active","id":null},{"event_id":"340944","title":"男女20代限定「20代限定コンin弘前」2018年2月10日(土) 19:00-21:30","url":"http://peatix.com/event/340944","shortener_url":null,"started_at":"2018-02-11T04:00:00.000+09:00","ended_at":"2018-02-13T08:59:59.000+09:00","limit_number":null,"address":"弘前市大字駅前町7-5 おおまち共同パーク1F ","place":"笑笑 弘前駅前店","lat":40.5981,"lon":140.482,"state":"active","id":null},{"event_id":"340987","title":"「20代限定コンin山形」2018年2月17日(土) 19:00-21:30","url":"http://peatix.com/event/340987","shortener_url":null,"started_at":"2018-02-18T04:00:00.000+09:00","ended_at":"2018-02-20T08:59:59.000+09:00","limit_number":null,"address":"山形県山形市香澄町1-15-28 ホテルニュー最上屋  ","place":"魚民　山形駅前店","lat":38.2497,"lon":140.329,"state":"active","id":null},{"event_id":"340564","title":"「30代限定コンin郡山」2018年2月17日(土) 19:30-22:00","url":"http://peatix.com/event/340564","shortener_url":null,"started_at":"2018-02-18T04:00:00.000+09:00","ended_at":"2018-02-20T08:59:59.000+09:00","limit_number":null,"address":"福島県郡山市中町10−10 メルフ郡山ビル郡山ビューホテルアネックス","place":"魚民 郡山中町店","lat":37.3979,"lon":140.384,"state":"active","id":null},{"event_id":"343018","title":"25歳から35歳限定「アラサーコンin郡山」2018年2月24日(土) 19:30-22:00","url":"http://peatix.com/event/343018","shortener_url":null,"started_at":"2018-02-25T04:30:00.000+09:00","ended_at":"2018-02-27T08:59:59.000+09:00","limit_number":null,"address":"郡山市中町10-10 メルフ郡山ビルB1","place":"魚民 郡山中町店","lat":37.3979,"lon":140.384,"state":"active","id":null},{"event_id":"342995","title":"「20代限定コンin酒田」2018年2月18日(日) 14:00-16:30","url":"http://peatix.com/event/342995","shortener_url":null,"started_at":"2018-02-18T23:00:00.000+09:00","ended_at":"2018-02-21T08:59:59.000+09:00","limit_number":null,"address":"山形県酒田市幸町 2−1−12 ホテル・アルファーワン酒田 1階","place":"魚民 酒田駅前店","lat":38.9227,"lon":139.845,"state":"active","id":null},{"event_id":"340914","title":"「社会人男子コンin弘前」2018年2月3日(土) 19:00-21:30","url":"http://peatix.com/event/340914","shortener_url":null,"started_at":"2018-02-04T04:00:00.000+09:00","ended_at":"2018-02-06T08:59:59.000+09:00","limit_number":null,"address":"弘前市大字駅前町7-5 おおまち共同パーク1F","place":"魚民　弘前駅前店","lat":40.5981,"lon":140.482,"state":"active","id":null},{"event_id":"340964","title":"男女30歳以上限定「恋STORYコンin青森」2018年2月11日(日) 14:00-16:30","url":"http://peatix.com/event/340964","shortener_url":null,"started_at":"2018-02-11T23:00:00.000+09:00","ended_at":"2018-02-14T08:59:59.000+09:00","limit_number":null,"address":"青森県青森市新町１－１－１８　青森マルサビル　１Ｆ","place":"青森駅周辺エリア","lat":40.8281,"lon":140.736,"state":"active","id":null},{"event_id":"341063","title":"「おとなの年の差コンin福島」2018年2月17日(土) 19:00-21:30","url":"http://peatix.com/event/341063","shortener_url":null,"started_at":"2018-02-18T04:00:00.000+09:00","ended_at":"2018-02-20T08:59:59.000+09:00","limit_number":null,"address":"福島市栄町11-30 ゼビオビルB1 ","place":"笑笑 福島東口駅前店 ","lat":37.754,"lon":140.463,"state":"active","id":null},{"event_id":"340971","title":"「社会人男子コンin青森」2018年2月17日(土) 19:00-21:30","url":"http://peatix.com/event/340971","shortener_url":null,"started_at":"2018-02-18T04:00:00.000+09:00","ended_at":"2018-02-20T08:59:59.000+09:00","limit_number":null,"address":"青森県青森市新町1-1-18 青森マルサビル 1F","place":"青森駅周辺エリア","lat":40.8281,"lon":140.736,"state":"active","id":null},{"event_id":"340995","title":"「社会人男子コンin盛岡」2018年2月17日(土) 19:00-21:30","url":"http://peatix.com/event/340995","shortener_url":null,"started_at":"2018-02-18T04:00:00.000+09:00","ended_at":"2018-02-20T08:59:59.000+09:00","limit_number":null,"address":"盛岡市菜園2-4-23","place":"琥haku （コハク）","lat":39.7019,"lon":141.147,"state":"active","id":null},{"event_id":"341013","title":"アニメ好き大集合「ちょっと大人のアニコンin弘前」2018年2月18日(日) 14:00-16:30","url":"http://peatix.com/event/341013","shortener_url":null,"started_at":"2018-02-18T23:00:00.000+09:00","ended_at":"2018-02-21T08:59:59.000+09:00","limit_number":null,"address":"弘前市大字駅前町7-5おおまち共同パーク1F","place":"笑笑 弘前駅前店","lat":40.5981,"lon":140.482,"state":"active","id":null},{"event_id":"340870","title":"「安定男子限定PARTY in高崎」2018年2月17日(土) 19:30-22:00","url":"http://peatix.com/event/340870","shortener_url":null,"started_at":"2018-02-18T04:30:00.000+09:00","ended_at":"2018-02-20T08:59:59.000+09:00","limit_number":null,"address":"高崎市鶴見町3-1西口サウスパークビル 1階","place":"魚民　高崎西口駅前店","lat":36.3208,"lon":139.012,"state":"active","id":null},{"event_id":"342871","title":"25歳から35歳限定「アラサーコンin鶴岡」2018年2月17日(土) 19:30-22:00","url":"http://peatix.com/event/342871","shortener_url":null,"started_at":"2018-02-18T04:30:00.000+09:00","ended_at":"2018-02-20T08:59:59.000+09:00","limit_number":null,"address":"山形県鶴岡市末広町2-41 YS鶴岡駅前ビル 1F ","place":"千年の宴　鶴岡駅前店","lat":38.7397,"lon":139.838,"state":"active","id":null},{"event_id":"340958","title":"「20代限定コンin盛岡」2018年2月10日(土) 19:00-21:30","url":"http://peatix.com/event/340958","shortener_url":null,"started_at":"2018-02-11T04:00:00.000+09:00","ended_at":"2018-02-13T08:59:59.000+09:00","limit_number":null,"address":"盛岡市菜園2-4-23","place":"琥haku （コハク）","lat":39.7019,"lon":141.147,"state":"active","id":null},{"event_id":"340984","title":"「社会人男子コンin弘前」2018年2月17日(土) 19:00-21:30","url":"http://peatix.com/event/340984","shortener_url":null,"started_at":"2018-02-18T04:00:00.000+09:00","ended_at":"2018-02-20T08:59:59.000+09:00","limit_number":null,"address":"弘前市大字駅前町7-5 おおまち共同パーク1F","place":"魚民　弘前駅前店","lat":40.5981,"lon":140.482,"state":"active","id":null},{"event_id":"341021","title":"25歳から35歳限定「アラサーコンin山形」2018年2月18日(日) 14:00-16:30","url":"http://peatix.com/event/341021","shortener_url":null,"started_at":"2018-02-18T23:00:00.000+09:00","ended_at":"2018-02-21T08:59:59.000+09:00","limit_number":null,"address":"山形県山形市香澄町1-15-28 ホテルニュー最上屋  ","place":"魚民　山形駅前店","lat":38.2497,"lon":140.329,"state":"active","id":null},{"event_id":"342707","title":"「安定男子コンin茅ヶ崎」2018年2月18日(日) 14:30-17:00","url":"http://peatix.com/event/342707","shortener_url":null,"started_at":"2018-02-18T23:30:00.000+09:00","ended_at":"2018-02-21T08:59:59.000+09:00","limit_number":null,"address":"神奈川県茅ヶ崎市新栄町1-2 川上ビル4階","place":"山内農場　茅ヶ崎北口駅前店","lat":35.3304,"lon":139.405,"state":"active","id":null},{"event_id":"340636","title":"25歳から35歳限定「アラサーコンin宇都宮」2018年2月17日(土) 19:00-21:30","url":"http://peatix.com/event/340636","shortener_url":null,"started_at":"2018-02-18T04:00:00.000+09:00","ended_at":"2018-02-20T08:59:59.000+09:00","limit_number":null,"address":"栃木県宇都宮市駅前通り1丁目5−5","place":"白木屋 ＪＲ宇都宮西口駅前店 ","lat":36.5597,"lon":139.897,"state":"active","id":null},{"event_id":"343089","title":"「公務員or国家資格男子コンin郡山」2018年2月25日 (日) 14:00-16:30","url":"http://peatix.com/event/343089","shortener_url":null,"started_at":"2018-02-25T23:00:00.000+09:00","ended_at":"2018-02-28T08:59:59.000+09:00","limit_number":null,"address":"福島県郡山市駅前2-3-12 越後屋プラザ 2F ","place":"山内農場　郡山駅前店","lat":37.3982,"lon":140.387,"state":"active","id":null},{"event_id":"77367","title":"ICE JAM -UXをシコウする-","url":"https://sansan.connpass.com/event/77367/","shortener_url":"https://goo.gl/hjhA8X","started_at":"2018-02-09T18:00:00.000+09:00","ended_at":"2018-02-09T21:30:00.000+09:00","limit_number":25,"address":"東京都港区南青山５丁目１１−９ (レキシントン青山ビル)","place":"IDOL 表参道","lat":35.6619,"lon":139.712,"state":"active","id":null},{"event_id":"343395","title":"北海道情報専門学校 ハッカソン２ｎｄ 2018/2/2-3　　　【HCS生限定】","url":"http://peatix.com/event/343395","shortener_url":"https://goo.gl/cKcwyS","started_at":"2018-02-03T00:30:00.000+09:00","ended_at":"2018-02-05T08:59:59.000+09:00","limit_number":null,"address":"札幌市白石区菊水5条3丁目４－２８","place":"北海道情報専門学校","lat":43.056,"lon":141.378,"state":"active","id":null},{"event_id":"343322","title":"「30代限定コンin弘前」2018年2月24日(土) 19:00-21:30","url":"http://peatix.com/event/343322","shortener_url":null,"started_at":"2018-02-25T04:00:00.000+09:00","ended_at":"2018-02-27T08:59:59.000+09:00","limit_number":null,"address":"弘前市大字駅前町7-5 おおまち共同パーク1F","place":"魚民　弘前駅前店","lat":40.5992,"lon":140.485,"state":"active","id":null},{"event_id":"343314","title":"アニメ好き大集合「元祖アニコンin青森」2018年2月25日(日) 14:00-16:30","url":"http://peatix.com/event/343314","shortener_url":null,"started_at":"2018-02-25T23:00:00.000+09:00","ended_at":"2018-02-28T08:59:59.000+09:00","limit_number":null,"address":"青森県青森市新町1-1-18 青森マルサビル 1F","place":"魚民　青森駅前店","lat":40.8281,"lon":140.736,"state":"active","id":null},{"event_id":"343519","title":"「公務員or国家資格男子コンin盛岡」2018年2月25日(日) 14:00-16:30","url":"http://peatix.com/event/343519","shortener_url":null,"started_at":"2018-02-25T23:00:00.000+09:00","ended_at":"2018-02-28T08:59:59.000+09:00","limit_number":null,"address":"盛岡市菜園2-4-23 バーセル菜園 5F","place":"琥haku （コハク）","lat":39.7019,"lon":141.147,"state":"active","id":null},{"event_id":"343448","title":"25歳から40歳「ちょっと大人の街コンin山形」2018年2月24日(土) 19:00-21:30","url":"http://peatix.com/event/343448","shortener_url":null,"started_at":"2018-02-25T04:00:00.000+09:00","ended_at":"2018-02-27T08:59:59.000+09:00","limit_number":null,"address":"山形県山形市香澄町1-15-28 ホテルニュー最上屋 ","place":"魚民　山形駅前店","lat":38.2497,"lon":140.329,"state":"active","id":null},{"event_id":"343501","title":"25歳から35歳限定「アラサーコンin盛岡」2018年2月24日(土) 19:00-21:30","url":"http://peatix.com/event/343501","shortener_url":null,"started_at":"2018-02-25T04:00:00.000+09:00","ended_at":"2018-02-27T08:59:59.000+09:00","limit_number":null,"address":"盛岡市菜園2-4-23 バーセル菜園 5F","place":"琥haku （コハク）","lat":39.7019,"lon":141.147,"state":"active","id":null},{"event_id":"343563","title":"「社会人男子コンin福島」2018年2月25日(日) 14:00-16:30","url":"http://peatix.com/event/343563","shortener_url":null,"started_at":"2018-02-25T23:00:00.000+09:00","ended_at":"2018-02-28T08:59:59.000+09:00","limit_number":null,"address":"福島市栄町6-1 エスタビルB1 ","place":"福福屋　福島駅東口店","lat":37.7542,"lon":140.461,"state":"active","id":null},{"event_id":"343438","title":"25歳から35歳限定「アラサーコンin弘前」2018年2月25日(日) 14:00-16:30","url":"http://peatix.com/event/343438","shortener_url":null,"started_at":"2018-02-25T23:00:00.000+09:00","ended_at":"2018-02-28T08:59:59.000+09:00","limit_number":null,"address":"弘前市大字駅前町7-5 おおまち共同パーク1F ","place":"笑笑 弘前駅前店 ","lat":40.5981,"lon":140.482,"state":"active","id":null},{"event_id":"343495","title":"「安定男子限定PARTY in山形」2018年2月25日(日) 14:00-16:30","url":"http://peatix.com/event/343495","shortener_url":null,"started_at":"2018-02-25T23:00:00.000+09:00","ended_at":"2018-02-28T08:59:59.000+09:00","limit_number":null,"address":"山形県山形市香澄町1-15-28 ホテルニュー最上屋  ","place":"魚民　山形駅前店","lat":38.2497,"lon":140.329,"state":"active","id":null},{"event_id":"343301","title":"「30代限定コンin青森」2018年2月24日(土) 19:00-21:30","url":"http://peatix.com/event/343301","shortener_url":null,"started_at":"2018-02-25T04:00:00.000+09:00","ended_at":"2018-02-27T08:59:59.000+09:00","limit_number":null,"address":"青森県青森市新町1丁目1−18","place":"山内農場 青森駅前店","lat":40.8282,"lon":140.736,"state":"active","id":null},{"event_id":"343534","title":"25歳から35歳限定「アラサーコンin福島」2018年2月24日(土) 19:00-21:30","url":"http://peatix.com/event/343534","shortener_url":null,"started_at":"2018-02-25T04:00:00.000+09:00","ended_at":"2018-02-27T08:59:59.000+09:00","limit_number":null,"address":"福島市栄町11-30 ゼビオビルB1","place":"笑笑 福島東口駅前店","lat":37.754,"lon":140.463,"state":"active","id":null},{"event_id":"74371","title":"IoT もくもく会 KOIL vol.16","url":"https://kashiwano-ha-geeks.connpass.com/event/74371/","shortener_url":"https://goo.gl/vmZEFD","started_at":"2018-02-03T22:00:00.000+09:00","ended_at":"2018-02-04T02:00:00.000+09:00","limit_number":16,"address":"千葉県柏市若柴178 番地4 柏の葉キャンパス148 街区2 ショップ＆オフィス棟６階","place":"KOILスタジオ","lat":35.894,"lon":139.953,"state":"active","id":null},{"event_id":"76786","title":"豊中市ヘルスケアアイデアソン","url":"https://code4osaka.connpass.com/event/76786/","shortener_url":"https://goo.gl/36XrJe","started_at":"2018-02-23T18:00:00.000+09:00","ended_at":"2018-02-23T21:30:00.000+09:00","limit_number":20,"address":"大阪府豊中市庄内西町西３－１－５（サンパティオ３F）","place":"阪急庄内　天満座","lat":34.7491,"lon":135.474,"state":"active","id":null},{"event_id":"77446","title":"【大阪】#26 JSerもくもく会 2/6【フロントエンド/monaca/ハイブリッド開発","url":"https://hackers-salon.connpass.com/event/77446/","shortener_url":"https://goo.gl/1cFaEx","started_at":"2018-02-07T04:30:00.000+09:00","ended_at":"2018-02-07T07:30:00.000+09:00","limit_number":5,"address":"大阪市中央区本町４丁目７−７ 飛鳥ビル３０２","place":"Kiiiya Hommachi（2020年6月営業終了）","lat":34.6849,"lon":135.498,"state":"active","id":null},{"event_id":"76153","title":"とやまシビックテックパーティー2018","url":"https://code4toyama.connpass.com/event/76153/","shortener_url":"https://goo.gl/tBciZ9","started_at":"2018-02-17T22:30:00.000+09:00","ended_at":"2018-02-19T01:30:00.000+09:00","limit_number":64,"address":"富山県富山市新総曲輪４−１８","place":"富山県民会館","lat":36.6954,"lon":137.212,"state":"active","id":null},{"event_id":"343878","title":"Textile x Tech 「一枚の布」から始まる アイデアソン","url":"http://peatix.com/event/343878","shortener_url":"https://goo.gl/6KQCXG","started_at":"2018-02-11T19:00:00.000+09:00","ended_at":"2018-02-14T08:59:59.000+09:00","limit_number":null,"address":"〒150-0002 東京都渋谷区渋谷3-27-1","place":"100BANCH 3F Loft","lat":35.656,"lon":139.705,"state":"active","id":null},{"event_id":"344036","title":"ICE JAM -UXをシコウする-","url":"http://peatix.com/event/344036","shortener_url":"https://goo.gl/GPV7DS","started_at":"2018-02-10T03:00:00.000+09:00","ended_at":"2018-02-12T08:59:59.000+09:00","limit_number":null,"address":"東京都港区南青山５丁目１１−９ レキシントン青山ビル","place":"IDOL 表参道","lat":35.6619,"lon":139.712,"state":"active","id":null},{"event_id":"343068","title":"真夜中のカミングアウト","url":"http://sakigake20180203.peatix.com","shortener_url":null,"started_at":"2018-02-04T07:30:00.000+09:00","ended_at":"2018-02-06T08:59:59.000+09:00","limit_number":null,"address":"東京都新宿区新宿2-12-16 セントフォービル1F","place":"新宿AiSOTOPE LOUNGE","lat":35.6904,"lon":139.708,"state":"active","id":null},{"event_id":"344009","title":"【2/4】HADO SPRING CUP予選（ソプラティコ）","url":"http://peatix.com/event/344009","shortener_url":null,"started_at":"2018-02-04T22:00:00.000+09:00","ended_at":"2018-02-07T08:59:59.000+09:00","limit_number":null,"address":"神奈川県横浜市中区若葉町1-2-2","place":"ソプラティコ横浜関内","lat":0.0,"lon":0.0,"state":"active","id":null},{"event_id":"344086","title":"【2/12】HADO SPRING CUP予選（サードプラネット）","url":"http://peatix.com/event/344086","shortener_url":null,"started_at":"2018-02-12T22:00:00.000+09:00","ended_at":"2018-02-15T08:59:59.000+09:00","limit_number":null,"address":"神奈川県横浜市都筑区中川中央1-25-1ノースポート・モール6F","place":"サードプラネット横浜本店","lat":35.5527,"lon":139.58,"state":"active","id":null},{"event_id":"77216","title":"【学生限定】UXデザイン講座（第1回）@アクアリング OthloEvent#25","url":"https://othlotech.connpass.com/event/77216/","shortener_url":null,"started_at":"2018-02-18T23:00:00.000+09:00","ended_at":"2018-02-19T03:00:00.000+09:00","limit_number":35,"address":"愛知県名古屋市中区栄三丁目19番8号 (栄ミナミ平和ビル6,7階)","place":"株式会社アクアリング 名古屋本社オフィス","lat":35.1656,"lon":136.904,"state":"active","id":null},{"event_id":"77862","title":"熊DAY","url":"https://kumamcn.connpass.com/event/77862/","shortener_url":null,"started_at":"2018-02-11T22:00:00.000+09:00","ended_at":"2018-02-12T06:00:00.000+09:00","limit_number":120,"address":"熊本市中央区世安町172","place":"びぷれす","lat":32.7895,"lon":130.69,"state":"active","id":null},{"event_id":"77282","title":"Google Homeハンズオン【MarkingCloud】","url":"https://markingcloud.connpass.com/event/77282/","shortener_url":"https://goo.gl/TJYv2U","started_at":"2018-02-14T04:30:00.000+09:00","ended_at":"2018-02-14T06:30:00.000+09:00","limit_number":30,"address":"東京都新宿区新宿4-3-25(TOKYUREIT新宿ビル8F)","place":"株式会社アイソルート 会議室","lat":35.6893,"lon":139.704,"state":"active","id":null},{"event_id":"77743","title":"【大阪】スマートスピーカー調査会【Googleアシスタント・Alexa】","url":"https://osaka-driven-dev.connpass.com/event/77743/","shortener_url":null,"started_at":"2018-02-24T19:00:00.000+09:00","ended_at":"2018-02-25T02:00:00.000+09:00","limit_number":10,"address":"大阪府大阪市中央区瓦町3−4−9 ステーツ本町ビル8F","place":"本町オープンソースラボ","lat":34.6864,"lon":135.502,"state":"active","id":null},{"event_id":"77604","title":"第1回 AI​ ​Vision​ ​LT会​  byギークナビ​","url":"https://connpass.com/event/77604/","shortener_url":"https://goo.gl/XvCwFC","started_at":"2018-02-22T01:30:00.000+09:00","ended_at":"2018-02-22T04:30:00.000+09:00","limit_number":34,"address":"東京都新宿区西新宿2-3-1(新宿モノリス19階)","place":"スターティア株式会社 セミナールーム","lat":35.6887,"lon":139.695,"state":"active","id":null},{"event_id":"76772","title":"【追加募集！】Web×IoT メイカーズチャレンジ in 前橋 ハッカソン","url":"https://webiotmakers.connpass.com/event/76772/","shortener_url":"https://goo.gl/2TQkSX","started_at":"2018-02-17T19:00:00.000+09:00","ended_at":"2018-02-19T04:00:00.000+09:00","limit_number":10,"address":"群馬県前橋市問屋町2-2","place":"前橋問屋センター会館","lat":36.398,"lon":139.039,"state":"active","id":null},{"event_id":"75706","title":"DeNA Techathon: 著者と学ぶ「Goならわかるシステムプログラミング」黙々会","url":"https://denatechstudio.connpass.com/event/75706/","shortener_url":"https://goo.gl/qXoJt6","started_at":"2018-02-17T21:00:00.000+09:00","ended_at":"2018-02-18T04:00:00.000+09:00","limit_number":30,"address":"東京都渋谷区渋谷2-21-1 (渋谷ヒカリエ)","place":"株式会社ディー・エヌ・エー","lat":35.659,"lon":139.703,"state":"active","id":null},{"event_id":"77520","title":"汎用人工知能(AGI)を創ろう!研究会 by Team AI 2/8(木)","url":"https://teamai.connpass.com/event/77520/","shortener_url":null,"started_at":"2018-02-09T04:00:00.000+09:00","ended_at":"2018-02-09T06:00:00.000+09:00","limit_number":10,"address":"","place":"Online","lat":35.6618,"lon":139.696,"state":"active","id":null},{"event_id":"344446","title":"INTILAQハッカソンシリーズ2018　テーマ１：RUNHACK（ランハック）2018","url":"http://peatix.com/event/344446","shortener_url":"https://goo.gl/r1m6TA","started_at":"2018-02-17T19:00:00.000+09:00","ended_at":"2018-02-20T08:59:59.000+09:00","limit_number":null,"address":"宮城県仙台市若林区卸町2-9-1","place":"INTILAQ東北イノベーションセンター","lat":38.2545,"lon":140.922,"state":"active","id":null},{"event_id":"344904","title":"INTILAQハッカソンシリーズ2018　テーマ２：東北一次産業ハッカソン ","url":"http://peatix.com/event/344904","shortener_url":"https://goo.gl/FWQYVJ","started_at":"2018-02-17T19:00:00.000+09:00","ended_at":"2018-02-20T08:59:59.000+09:00","limit_number":null,"address":"宮城県仙台市若林区卸町2-9-1","place":"INTILAQ東北イノベーションセンター","lat":38.2545,"lon":140.922,"state":"active","id":null},{"event_id":"345014","title":"【エバラ食品工業×エン・ジャパン　２０代限定　SPECIAL IDEATHON】","url":"http://peatix.com/event/345014","shortener_url":"https://goo.gl/AZ4Urq","started_at":"2018-02-28T04:30:00.000+09:00","ended_at":"2018-03-02T08:59:59.000+09:00","limit_number":null,"address":"東京都新宿区西新宿6-5-1 新宿アイランドタワー35F","place":"新宿アイランドタワー","lat":35.6931,"lon":139.693,"state":"active","id":null},{"event_id":"343876","title":"九州大学QREC「Entrepreneurship Bootcamp：IoTハッカソン」②","url":"http://peatix.com/event/343876","shortener_url":"https://goo.gl/kx1fDD","started_at":"2018-02-04T19:00:00.000+09:00","ended_at":"2018-02-07T08:59:59.000+09:00","limit_number":null,"address":"福岡市中央区大名2-6-11 Fukuoka-shi, Fukuoka, Japan 810-0041","place":"福岡市スタートアップカフェ","lat":33.5891,"lon":130.395,"state":"active","id":null},{"event_id":"345266","title":"Crackhouse Presents : GINA YASHERE (UK) feat. HANNAN AZLAN (MY) ","url":"http://ginadoescrack.peatix.com","shortener_url":null,"started_at":"2018-02-10T07:00:00.000+09:00","ended_at":"2018-02-12T08:59:59.000+09:00","limit_number":null,"address":"24A (1st Floor) Lorong Rahim Kajai 14, Taman Tun Dr. Ismail, 60000 Kuala Lumpur","place":"The Crackhouse Comedy Club KL","lat":3.15478,"lon":101.623,"state":"active","id":null},{"event_id":"343828","title":"八時間耐久作品制作会 in 大阪 #7","url":"http://peatix.com/event/343828","shortener_url":null,"started_at":"2018-02-24T19:00:00.000+09:00","ended_at":"2018-02-27T08:59:59.000+09:00","limit_number":null,"address":"大阪市北区中之島3-3-3　 中之島三井ビルディング10F","place":" 株式会社Razest","lat":34.6932,"lon":135.494,"state":"active","id":null},{"event_id":"345525","title":"【2/5 13:00~】IoTモノづくりベンチャー向けモノづくり研修 第5回SHARP IoT. make Bootcamp supported by さくらインターネット 説明会","url":"http://sharp02051300.peatix.com","shortener_url":null,"started_at":"2018-02-05T22:00:00.000+09:00","ended_at":"2018-02-08T08:59:59.000+09:00","limit_number":null,"address":"東京都千代田区神田練塀町3 富士ソフト秋葉原ビル12階","place":"DMM.make AKIBA 12F @MR1","lat":35.7003,"lon":139.774,"state":"active","id":null},{"event_id":"345502","title":"【1/31 15:00~】IoTモノづくりベンチャー向けモノづくり研修 第5回SHARP IoT. make Bootcamp supported by さくらインターネット 説明会","url":"http://sharp01311500.peatix.com","shortener_url":null,"started_at":"2018-02-01T00:00:00.000+09:00","ended_at":"2018-02-03T08:59:59.000+09:00","limit_number":null,"address":"東京都千代田区神田練塀町3 富士ソフト秋葉原ビル12階","place":"DMM.make AKIBA 12F @MiniJudge","lat":35.7003,"lon":139.774,"state":"active","id":null},{"event_id":"345218","title":"深圳IoT界のフロントランナーに学ぶ 「メイカースペースの可能性と、世界最高の分業体制の秘訣」","url":"http://peatix.com/event/345218","shortener_url":"https://goo.gl/EMXvkD","started_at":"2018-02-26T01:00:00.000+09:00","ended_at":"2018-02-28T08:59:59.000+09:00","limit_number":null,"address":"東京都 千代田区紀尾井町1-3 東京ガーデンテラス紀尾井町 紀尾井タワー","place":"LODGE(ヤフー株式会社)","lat":35.6795,"lon":139.737,"state":"active","id":null},{"event_id":"345530","title":"【2/5 15:00~】IoTモノづくりベンチャー向けモノづくり研修 第5回SHARP IoT. make Bootcamp supported by さくらインターネット 説明会","url":"http://sharp02051500.peatix.com","shortener_url":null,"started_at":"2018-02-06T00:00:00.000+09:00","ended_at":"2018-02-08T08:59:59.000+09:00","limit_number":null,"address":"東京都千代田区神田練塀町3 富士ソフト秋葉原ビル12階","place":"DMM.make AKIBA 12F @MR1","lat":35.7003,"lon":139.774,"state":"active","id":null},{"event_id":"344065","title":"green drinks いすみ 「自由を取り戻すために、地方で仕事と暮らしをつくる」","url":"http://peatix.com/event/344065","shortener_url":null,"started_at":"2018-02-10T20:30:00.000+09:00","ended_at":"2018-02-13T08:59:59.000+09:00","limit_number":null,"address":" 千葉県いすみ市岬町桑田1506-1","place":"Brown's field内サグラダコミンカ","lat":35.2977,"lon":140.35,"state":"active","id":null},{"event_id":"345481","title":"ビジネス書著者による「逆算手帳」プランニングセミナー（水曜夜）＠東京桜新町","url":"http://peatix.com/event/345481","shortener_url":null,"started_at":"2018-02-22T04:30:00.000+09:00","ended_at":"2018-02-24T08:59:59.000+09:00","limit_number":null,"address":"東京都世田谷区用賀2-11-10 けやきアパートメント201","place":"木村税務会計事務所","lat":35.6296,"lon":139.639,"state":"active","id":null},{"event_id":"345507","title":"ビジネス書著者による「逆算手帳」デイリーウィークリーセミナー＠東京桜新町（土曜午後）","url":"http://peatix.com/event/345507","shortener_url":null,"started_at":"2018-02-25T00:00:00.000+09:00","ended_at":"2018-02-27T08:59:59.000+09:00","limit_number":null,"address":"東京都世田谷区用賀2-11-10 けやきアパートメント201","place":"木村税務会計事務所","lat":35.6296,"lon":139.639,"state":"active","id":null},{"event_id":"345503","title":"ビジネス書著者による「逆算手帳」ガントチャート活用セミナー＠東京桜新町（月曜夜）","url":"http://peatix.com/event/345503","shortener_url":null,"started_at":"2018-02-27T04:30:00.000+09:00","ended_at":"2018-03-01T08:59:59.000+09:00","limit_number":null,"address":"東京都世田谷区用賀2-11-10 けやきアパートメント201","place":"木村税務会計事務所","lat":35.6296,"lon":139.639,"state":"active","id":null},{"event_id":"345491","title":"ビジネス書著者による「逆算手帳」ガントチャート活用セミナー＠東京桜新町（火曜夜）","url":"http://peatix.com/event/345491","shortener_url":null,"started_at":"2018-02-21T04:30:00.000+09:00","ended_at":"2018-02-23T08:59:59.000+09:00","limit_number":null,"address":"東京都世田谷区用賀2-11-10 けやきアパートメント201","place":"木村税務会計事務所","lat":35.6296,"lon":139.639,"state":"active","id":null},{"event_id":"344997","title":"【無料セミナー】6つのリーダータイプの理解がチーム力強化を加速する","url":"http://peatix.com/event/344997","shortener_url":null,"started_at":"2018-02-20T00:00:00.000+09:00","ended_at":"2018-02-22T08:59:59.000+09:00","limit_number":null,"address":"東京都港区芝公園1-8-4 (TOACビルディング)","place":"芝大門塾（東芝OAコンサルタント）","lat":35.6575,"lon":139.752,"state":"active","id":null},{"event_id":"345470","title":"ビジネス書著者による「逆算手帳」ビジョン作成ワークショップ（月曜夜）＠東京桜新町（2日間）","url":"http://peatix.com/event/345470","shortener_url":null,"started_at":"2018-02-06T04:30:00.000+09:00","ended_at":"2018-02-08T08:59:59.000+09:00","limit_number":null,"address":"東京都世田谷区用賀2-11-10 けやきアパートメント201","place":"木村税務会計事務所","lat":35.6296,"lon":139.639,"state":"active","id":null},{"event_id":"344317","title":"「週刊文春」編集長 新谷学 氏 登壇！「なぜ文春はスクープを出し続けられるのか？」","url":"http://bunsyun.peatix.com","shortener_url":null,"started_at":"2018-02-22T01:00:00.000+09:00","ended_at":"2018-02-24T08:59:59.000+09:00","limit_number":null,"address":"東京都中央区八丁堀1-9-8　八重洲通りハタビル5F","place":"アットビジネスセンター東京駅八重洲通り","lat":35.6774,"lon":139.777,"state":"active","id":null},{"event_id":"343867","title":"#30 教科書にない実践知が学べる！昭和大総診流 研修医基礎講座（第2回） 〜Common Disease Boot Camp〜","url":"http://30antaa.peatix.com","shortener_url":null,"started_at":"2018-02-18T02:00:00.000+09:00","ended_at":"2018-02-20T08:59:59.000+09:00","limit_number":null,"address":"〒113-0033 東京都文京区本郷2丁目35番地17号503号室","place":"イシテラス","lat":35.7068,"lon":139.758,"state":"active","id":null},{"event_id":"344630","title":"不動産・民泊・Airbnbホスト交流会 #4","url":"http://peatix.com/event/344630","shortener_url":null,"started_at":"2018-02-14T05:00:00.000+09:00","ended_at":"2018-02-16T08:59:59.000+09:00","limit_number":null,"address":"東京都渋谷区宇田川町17-1 渋谷ブラザービル7F","place":"Bar Lounge WarpZone","lat":35.6607,"lon":139.699,"state":"active","id":null},{"event_id":"344168","title":"クリエイティブクエスト 〜次世代トラベラーの世界一周〜","url":"http://peatix.com/event/344168","shortener_url":null,"started_at":"2018-02-25T04:00:00.000+09:00","ended_at":"2018-02-27T08:59:59.000+09:00","limit_number":null,"address":"東京都豊島区西池袋3丁目29−4","place":"Mace 池袋（メイス）","lat":35.7312,"lon":139.706,"state":"active","id":null},{"event_id":"343923","title":"25歳から35歳限定「第88回 アラサーコンin金沢」2018年2月10日(土) 19:30-21:30","url":"http://peatix.com/event/343923","shortener_url":null,"started_at":"2018-02-11T04:30:00.000+09:00","ended_at":"2018-02-13T08:59:59.000+09:00","limit_number":null,"address":"石川県金沢市香林坊１‐１‐１　香林坊大和8F ","place":"ブッフェレストラン「ザ・ダイニング　」","lat":36.563,"lon":136.654,"state":"active","id":null},{"event_id":"345070","title":"Get a comedian’s take on life in Japan ","url":"http://peatix.com/event/345070","shortener_url":null,"started_at":"2018-02-06T04:00:00.000+09:00","ended_at":"2018-02-08T08:59:59.000+09:00","limit_number":null,"address":"東京都墨田区東駒形2-20-10","place":"Asakusa Smile Bar (Asakusa Comedy Club)","lat":35.7074,"lon":139.801,"state":"active","id":null},{"event_id":"345118","title":"Get a comedian’s take on life in Japan","url":"http://peatix.com/event/345118","shortener_url":null,"started_at":"2018-02-27T04:00:00.000+09:00","ended_at":"2018-03-01T08:59:59.000+09:00","limit_number":null,"address":"東京都墨田区東駒形2-20-10","place":"Asakusa Smile Bar (Asakusa Comedy Club)","lat":35.7074,"lon":139.801,"state":"active","id":null},{"event_id":"345093","title":"Get a comedian’s take on life in Japan ","url":"http://peatix.com/event/345093","shortener_url":null,"started_at":"2018-02-13T04:00:00.000+09:00","ended_at":"2018-02-15T08:59:59.000+09:00","limit_number":null,"address":"東京都墨田区東駒形2-20-10","place":"Asakusa Smile Bar (Asakusa Comedy Club)","lat":35.7074,"lon":139.801,"state":"active","id":null},{"event_id":"345106","title":"Get a comedian’s take on life in Japan ","url":"http://peatix.com/event/345106","shortener_url":null,"started_at":"2018-02-16T04:00:00.000+09:00","ended_at":"2018-02-18T08:59:59.000+09:00","limit_number":null,"address":"東京都墨田区東駒形2-20-10","place":"Asakusa Smile Bar (Asakusa Comedy Club)","lat":35.7074,"lon":139.801,"state":"active","id":null},{"event_id":"345108","title":"Get a comedian’s take on life in Japan ","url":"http://peatix.com/event/345108","shortener_url":null,"started_at":"2018-02-20T04:00:00.000+09:00","ended_at":"2018-02-22T08:59:59.000+09:00","limit_number":null,"address":"東京都墨田区東駒形2-20-10","place":"Asakusa Smile Bar (Asakusa Comedy Club)","lat":35.7074,"lon":139.801,"state":"active","id":null},{"event_id":"345057","title":"Get a comedian’s take on life in Japan","url":"http://peatix.com/event/345057","shortener_url":null,"started_at":"2018-02-02T04:00:00.000+09:00","ended_at":"2018-02-04T08:59:59.000+09:00","limit_number":null,"address":"東京都墨田区東駒形2-20-10","place":"Asakusa Smile Bar (Asakusa Comedy Club)","lat":35.7074,"lon":139.801,"state":"active","id":null},{"event_id":"345072","title":"Get a comedian’s take on life in Japan","url":"http://peatix.com/event/345072","shortener_url":null,"started_at":"2018-02-09T04:00:00.000+09:00","ended_at":"2018-02-11T08:59:59.000+09:00","limit_number":null,"address":"東京都墨田区東駒形2-20-10","place":"Asakusa Smile Bar (Asakusa Comedy Club)","lat":35.7074,"lon":139.801,"state":"active","id":null},{"event_id":"344139","title":"GLOW Party! (FRI) グロウパーティー（金）","url":"http://peatix.com/event/344139","shortener_url":null,"started_at":"2018-02-24T04:00:00.000+09:00","ended_at":"2018-02-26T08:59:59.000+09:00","limit_number":null,"address":"東京都港区六本木3-14-9 ユア六本木2F","place":"Bar Propaganda (2F)","lat":35.6623,"lon":139.735,"state":"active","id":null},{"event_id":"343957","title":"Stand-up Comedy in Bahasa Melayu | Malaysia Boleh Indonesia Bisa","url":"http://mysbolehidnbisa.peatix.com","shortener_url":null,"started_at":"2018-02-02T07:00:00.000+09:00","ended_at":"2018-02-04T08:59:59.000+09:00","limit_number":null,"address":"24A (1st Floor) Lorong Rahim Kajai 14, Taman Tun Dr. Ismail, 60000 Kuala Lumpur","place":"The Crackhouse Comedy Club KL","lat":3.15474,"lon":101.623,"state":"active","id":null},{"event_id":"344443","title":"Crackhouse Presents : KYLE KINANE (USA)","url":"http://crackhousekylekinane.peatix.com","shortener_url":null,"started_at":"2018-02-03T07:00:00.000+09:00","ended_at":"2018-02-05T08:59:59.000+09:00","limit_number":null,"address":"24A (1st Floor) Lorong Rahim Kajai 14, Taman Tun Dr. Ismail, 60000 Kuala Lumpur","place":"The Crackhouse Comedy Club KL","lat":3.15478,"lon":101.623,"state":"active","id":null},{"event_id":"344151","title":"GLOW Party! (SAT) グロウパーティー（土）","url":"http://peatix.com/event/344151","shortener_url":null,"started_at":"2018-02-25T04:00:00.000+09:00","ended_at":"2018-02-27T08:59:59.000+09:00","limit_number":null,"address":"大阪市中央区東心斎橋2-5-27","place":"The Blarney Stone (B1F)","lat":34.6718,"lon":135.504,"state":"active","id":null},{"event_id":"344149","title":"PRESIDENTS DAY Pub Crawl (SAT) プレジデント・デイ パーティー（土）","url":"http://peatix.com/event/344149","shortener_url":null,"started_at":"2018-02-18T04:00:00.000+09:00","ended_at":"2018-02-20T08:59:59.000+09:00","limit_number":null,"address":"大阪市中央区東心斎橋2-5-27","place":"The Blarney Stone (B1F)","lat":34.6718,"lon":135.504,"state":"active","id":null},{"event_id":"345112","title":"Get a comedian’s take on life in Japan","url":"http://peatix.com/event/345112","shortener_url":null,"started_at":"2018-02-23T04:00:00.000+09:00","ended_at":"2018-02-25T08:59:59.000+09:00","limit_number":null,"address":"東京都墨田区東駒形2-20-10","place":"Asakusa Smile Bar (Asakusa Comedy Club)","lat":35.7074,"lon":139.801,"state":"active","id":null},{"event_id":"344140","title":"GLOW Party! (SAT) グロウパーティー（土）","url":"http://peatix.com/event/344140","shortener_url":null,"started_at":"2018-02-25T04:00:00.000+09:00","ended_at":"2018-02-27T08:59:59.000+09:00","limit_number":null,"address":"東京都港区六本木3-14-9 ユア六本木2F","place":"Bar Propaganda (2F)","lat":35.6623,"lon":139.735,"state":"active","id":null},{"event_id":"344142","title":"Balloon Hat Party! (SAT) バルーンハット・パーティー（土）","url":"http://peatix.com/event/344142","shortener_url":null,"started_at":"2018-02-04T04:00:00.000+09:00","ended_at":"2018-02-06T08:59:59.000+09:00","limit_number":null,"address":"東京都港区六本木3-14-9 ユア六本木2F","place":"Bar Propaganda (2F)","lat":35.6623,"lon":139.735,"state":"active","id":null},{"event_id":"331450","title":"PRESIDENTS DAY Pub Crawl (SAT) プレジデント・デイ パーティー（土）","url":"http://peatix.com/event/331450","shortener_url":null,"started_at":"2018-02-18T04:00:00.000+09:00","ended_at":"2018-02-20T08:59:59.000+09:00","limit_number":null,"address":"東京都港区六本木3-14-9 ユア六本木2F","place":"Bar Propaganda (2F)","lat":35.6623,"lon":139.735,"state":"active","id":null},{"event_id":"344715","title":"River Cruise: Secret Location Party (Friday)","url":"http://2018secretlocation.peatix.com","shortener_url":null,"started_at":"2018-02-10T07:30:00.000+09:00","ended_at":"2018-02-12T08:59:59.000+09:00","limit_number":null,"address":"Cruise: WaterB Kim Seng Jetty   Party: near Raffles Place MRT ","place":"Cruise: WaterB Kim Seng Jetty   Party: near Raffles Place MRT","lat":1.2841,"lon":103.851,"state":"active","id":null},{"event_id":"344260","title":"Atomy Success Academy FEBRUARY 24 - Normal Registration","url":"http://peatix.com/event/344260","shortener_url":null,"started_at":"2018-02-24T19:00:00.000+09:00","ended_at":"2018-02-27T08:59:59.000+09:00","limit_number":null,"address":"5 Coleman Street, 179805","place":"Peninsula Excelsior Hotel, Level 5 Ballroom","lat":1.29202,"lon":103.85,"state":"active","id":null},{"event_id":"343662","title":"「安定男子コンin鶴岡」2018年2月24日(土) 19:30-22:00","url":"http://peatix.com/event/343662","shortener_url":null,"started_at":"2018-02-25T04:30:00.000+09:00","ended_at":"2018-02-27T08:59:59.000+09:00","limit_number":null,"address":"山形県鶴岡市末広町2-41 YS鶴岡駅前ビル 1F ","place":"千年の宴　鶴岡駅前店","lat":38.7397,"lon":139.838,"state":"active","id":null},{"event_id":"343723","title":"「30代限定コンin酒田」2018年2月25日(日) 14:00-16:30","url":"http://peatix.com/event/343723","shortener_url":null,"started_at":"2018-02-25T23:00:00.000+09:00","ended_at":"2018-02-28T08:59:59.000+09:00","limit_number":null,"address":"酒田駅","place":"魚民 酒田駅前店","lat":38.9227,"lon":139.845,"state":"active","id":null},{"event_id":"343926","title":"「公務員or国家資格男子コンin金沢」2018年2月11日 (日) 19:30-21:30","url":"http://peatix.com/event/343926","shortener_url":null,"started_at":"2018-02-12T04:30:00.000+09:00","ended_at":"2018-02-14T08:59:59.000+09:00","limit_number":null,"address":"石川県金沢市香林坊１‐１‐１　香林坊大和8F ","place":"ブッフェレストラン「ザ・ダイニング　」","lat":36.563,"lon":136.654,"state":"active","id":null},{"event_id":"344001","title":"「安定男子コンin小田原」2018年2月25日(日) 14:30-17:00","url":"http://peatix.com/event/344001","shortener_url":null,"started_at":"2018-02-25T23:30:00.000+09:00","ended_at":"2018-02-28T08:59:59.000+09:00","limit_number":null,"address":"小田原市栄町1-2-1 小田原駅前ビル3F","place":"魚民 小田原東口駅前店","lat":35.2552,"lon":139.157,"state":"active","id":null},{"event_id":"77607","title":"Raspberry PiとAIで作るIoTデバイス ミニハッカソン(isaax勉強会#2)","url":"https://isaaxug.connpass.com/event/77607/","shortener_url":"https://goo.gl/xs8hFH","started_at":"2018-02-12T22:00:00.000+09:00","ended_at":"2018-02-13T02:00:00.000+09:00","limit_number":30,"address":"東京都新宿区西新宿3-20-2 (東京オペラシティビル41F)","place":"株式会社デジタルハーツ 本社","lat":35.683,"lon":139.687,"state":"active","id":null},{"event_id":"77994","title":"BPLL #18","url":"https://bpstudy.connpass.com/event/77994/","shortener_url":null,"started_at":"2018-02-20T21:10:00.000+09:00","ended_at":"2018-02-20T22:00:00.000+09:00","limit_number":3,"address":"東京都渋谷区千駄ヶ谷5-32-7-4F","place":"株式会社ビープラウド","lat":35.6864,"lon":139.704,"state":"active","id":null},{"event_id":"77972","title":"介護＆リハビリの世界を変える共創プロトタイピング　～アイデアと試作で課題解決を目指せ！","url":"https://connpass.com/event/77972/","shortener_url":"https://goo.gl/PUdH1x","started_at":"2018-02-03T11:00:00.000+09:00","ended_at":"2018-02-04T17:00:00.000+09:00","limit_number":30,"address":"仙台市青葉区一番町2-5-1","place":"スタンダード会議室 仙台一番町ホール店 6階Ｃ会議室","lat":38.2594,"lon":140.872,"state":"active","id":null},{"event_id":"68864","title":"PAT POT 〜3時間で終わるアイデアソン〜","url":"https://swkashiwa.doorkeeper.jp/events/68864","shortener_url":"https://goo.gl/fwk2e3","started_at":"2018-02-04T23:00:00.000+09:00","ended_at":"2018-02-05T02:00:00.000+09:00","limit_number":20,"address":"千葉県柏市東上町2-28 第一水戸屋ビル3F","place":"Noblesse Oblige","lat":35.8588,"lon":139.976,"state":"active","id":null},{"event_id":"69381","title":"経営戦略＋デザイン思考《STRAMD》2018年度 第9期生募集記念 公開シンポジウム（無料）","url":"https://openstramd.doorkeeper.jp/events/69381","shortener_url":null,"started_at":"2018-02-04T01:00:00.000+09:00","ended_at":"2018-02-04T04:00:00.000+09:00","limit_number":null,"address":"千代田区神田駿河台4-6 御茶ノ水ソラシティアカデミア3階","place":"デジタルハリウッド大学大学院 大教室","lat":35.6985,"lon":139.767,"state":"active","id":null},{"event_id":"69388","title":"スタートアップの始め方 vol.3（※SW大阪プレイベント）","url":"https://swosaka.doorkeeper.jp/events/69388","shortener_url":null,"started_at":"2018-02-03T22:00:00.000+09:00","ended_at":"2018-02-04T02:00:00.000+09:00","limit_number":10,"address":"大阪府大阪市北区鶴野町1-5","place":"Startup Cafe Osaka 2F","lat":34.7063,"lon":135.501,"state":"active","id":null},{"event_id":"69375","title":"データサイエンスセミナー\u0026交流会@Osaka Innovation Hub～関西で拡がるデータ関連分野の新たな取り組み～","url":"https://soleildatadojo.doorkeeper.jp/events/69375","shortener_url":null,"started_at":"2018-02-19T00:00:00.000+09:00","ended_at":"2018-02-19T03:30:00.000+09:00","limit_number":130,"address":"大阪市北区大深町3番1号グランフロント大阪 ナレッジキャピタルタワーC 7階 ","place":"大阪イノベーションハブ","lat":34.7053,"lon":135.495,"state":"active","id":null},{"event_id":"344725","title":"第1回 VTuberハッカソン","url":"http://peatix.com/event/344725","shortener_url":"https://goo.gl/UxGZan","started_at":"2018-02-24T18:00:00.000+09:00","ended_at":"2018-02-27T08:59:59.000+09:00","limit_number":null,"address":"東京都品川区上大崎2-13-30 oak meguro 8階","place":"アカツキ","lat":0.0,"lon":0.0,"state":"active","id":null},{"event_id":"345822","title":"介護＆リハビリの世界を変える共創プロトタイピング　～アイデアと試作で課題解決を目指せ！","url":"http://peatix.com/event/345822","shortener_url":"https://goo.gl/iR8542","started_at":"2018-02-03T20:00:00.000+09:00","ended_at":"2018-02-06T08:59:59.000+09:00","limit_number":null,"address":"仙台市青葉区一番町2-5-1","place":"スタンダード会議室  仙台一番町ホール店 6階Ｃ会議室","lat":38.2594,"lon":140.872,"state":"active","id":null},{"event_id":"345930","title":"2/27（火）高橋琴／自分に似合うオシャレとスタイルアップを手に入れる！「骨格診断とファッションのコツ講座」","url":"http://peatix.com/event/345930","shortener_url":null,"started_at":"2018-02-27T20:00:00.000+09:00","ended_at":"2018-03-02T08:59:59.000+09:00","limit_number":null,"address":"東京都渋谷区千駄ヶ谷2-38-1","place":"【千駄ヶ谷】サンクチュアリ出版１Fイベントホール","lat":35.6766,"lon":139.71,"state":"active","id":null},{"event_id":"345246","title":"2/25 タロット×読書会（テーマ：「The Fool（愚者）」）","url":"http://peatix.com/event/345246","shortener_url":null,"started_at":"2018-02-25T23:00:00.000+09:00","ended_at":"2018-02-28T08:59:59.000+09:00","limit_number":null,"address":"日本、〒155-0031 東京都世田谷区北沢3丁目30 北沢3-30-3 北沢T.Tビル301","place":"Tbooks下北沢","lat":0.0,"lon":0.0,"state":"active","id":null},{"event_id":"338240","title":"#29 若手医師向け  『臨床研究基礎の基礎』 〜 現場の疑問をカタチに変える！ 〜","url":"http://antaa29.peatix.com","shortener_url":null,"started_at":"2018-02-13T03:00:00.000+09:00","ended_at":"2018-02-15T08:59:59.000+09:00","limit_number":null,"address":"〒113-0033 東京都文京区本郷2丁目35番地17号503号室","place":"イシテラス","lat":35.7068,"lon":139.758,"state":"active","id":null},{"event_id":"337819","title":"Open Crack! Open-mic Night | 9pm","url":"http://peatix.com/event/337819","shortener_url":null,"started_at":"2018-02-01T07:00:00.000+09:00","ended_at":"2018-02-03T08:59:59.000+09:00","limit_number":null,"address":"24A, 1st Floor, Lorong Rahim Kajai 14, Taman Tun Dr. Ismail, 60000 Kuala Lumpur","place":"The Crackhouse Comedy Club KL","lat":3.15493,"lon":101.623,"state":"active","id":null},{"event_id":"330005","title":"RED BULL SNOW CHARGE 2018 @ HAKUBA VALLEY 岩岳スノーフィールド（長野県）","url":"http://rbsc201801.peatix.com","shortener_url":null,"started_at":"2018-02-04T02:00:00.000+09:00","ended_at":"2018-02-06T08:59:59.000+09:00","limit_number":null,"address":"長野県北安曇郡白馬村北城岩岳","place":"HAKUBA VALLEY 岩岳スノーフィールド","lat":36.7159,"lon":137.858,"state":"active","id":null},{"event_id":"78065","title":"HTML5でアプリをつくる Ionicもくもく会 #2  in Tokyo（Akihabara）","url":"https://ionic-jp.connpass.com/event/78065/","shortener_url":"https://goo.gl/nb1JBb","started_at":"2018-02-25T23:00:00.000+09:00","ended_at":"2018-02-26T02:00:00.000+09:00","limit_number":10,"address":"東京都千代田区外神田2丁目15-8　長坂第三ビル 3F","place":"合同会社ねこもり 秋葉原オフィス","lat":35.7027,"lon":139.769,"state":"active","id":null},{"event_id":"346341","title":"【水戸】（2/22）元ラジオ局実況アナの「対人スキル」講座【トークレスキュー】","url":"http://talkrescue20180222mito.peatix.com","shortener_url":null,"started_at":"2018-02-23T03:30:00.000+09:00","ended_at":"2018-02-25T08:59:59.000+09:00","limit_number":null,"address":"310-0021 茨城県水戸市南町3-3-35栗原ビル1階 コワーキングスペース水戸 Wagtail(ワグテイル)内 ","place":"コワーキングスペース水戸 Wagtail（ワグテイル）","lat":36.377,"lon":140.468,"state":"active","id":null},{"event_id":"78116","title":"FinTechデー­­タ分析ハッカソン by Team AI 2/16(金)","url":"https://teamai.connpass.com/event/78116/","shortener_url":"https://goo.gl/sHfDkC","started_at":"2018-02-17T04:00:00.000+09:00","ended_at":"2018-02-17T06:00:00.000+09:00","limit_number":10,"address":"","place":"Online","lat":35.6618,"lon":139.696,"state":"active","id":null},{"event_id":"78180","title":"【大阪 2/11】DDD もくもく(わいわい)会","url":"https://hackers-salon.connpass.com/event/78180/","shortener_url":null,"started_at":"2018-02-11T19:00:00.000+09:00","ended_at":"2018-02-12T03:00:00.000+09:00","limit_number":5,"address":"大阪市中央区本町４丁目７−７ 飛鳥ビル３０２","place":"Kiiiya Hommachi（2020年6月営業終了）","lat":34.6849,"lon":135.498,"state":"active","id":null},{"event_id":"78518","title":"Xamarin もくもく会 豊橋","url":"https://kuxu.connpass.com/event/78518/","shortener_url":null,"started_at":"2018-02-16T01:00:00.000+09:00","ended_at":"2018-02-16T03:00:00.000+09:00","limit_number":5,"address":"愛知県豊橋市西幸町浜池３３３−９ 豊橋サイエンスコア 1F","place":"Startup Garage","lat":34.7216,"lon":137.412,"state":"active","id":null},{"event_id":"78574","title":"※間もなく締切※【2019新卒】 健康ハッカソン ～歩数計アプリを開発せよ～","url":"https://mti.connpass.com/event/78574/","shortener_url":"https://goo.gl/Q2VeEX","started_at":"2018-02-16T18:30:00.000+09:00","ended_at":"2018-02-18T06:00:00.000+09:00","limit_number":10,"address":"東京都新宿区西新宿3-20-2(東京オペラシティタワー28階)","place":"株式会社エムティーアイ","lat":35.683,"lon":139.687,"state":"active","id":null},{"event_id":"78561","title":"【熊ゆに】オトナのゲームジャム報告会@未来会議室","url":"https://otona.connpass.com/event/78561/","shortener_url":"https://goo.gl/Sxas2Y","started_at":"2018-02-07T19:00:00.000+09:00","ended_at":"2018-02-07T21:00:00.000+09:00","limit_number":20,"address":"熊本県熊本市 中央区下通１丁目１２−２７","place":"未来会議室","lat":32.7998,"lon":130.708,"state":"active","id":null},{"event_id":"78759","title":"Sota講習会 【Vstone Magicを始めよう】 Part 3（有料）","url":"https://sota.connpass.com/event/78759/","shortener_url":null,"started_at":"2018-02-17T23:30:00.000+09:00","ended_at":"2018-02-18T00:20:00.000+09:00","limit_number":4,"address":"東京都千代田区外神田1-9-9 内田ビル4F","place":"ヴイストン ロボットセンター秋葉原店","lat":35.6987,"lon":139.77,"state":"active","id":null},{"event_id":"77877","title":"【大阪】XRミーティング  2018/02/21【AR/CR/MR/SR/VR】","url":"https://osaka-driven-dev.connpass.com/event/77877/","shortener_url":null,"started_at":"2018-02-22T04:30:00.000+09:00","ended_at":"2018-02-22T06:00:00.000+09:00","limit_number":10,"address":"大阪市中央区本町4丁目7-7-303","place":"Kiiiya Hommachi","lat":34.6849,"lon":135.498,"state":"active","id":null},{"event_id":"77854","title":"【増枠】UX MILK Workstyle 11 feat. IMJ","url":"https://uxmilk.connpass.com/event/77854/","shortener_url":null,"started_at":"2018-02-15T19:30:00.000+09:00","ended_at":"2018-02-15T21:45:00.000+09:00","limit_number":90,"address":"〒108-0073 東京都港区三田1-4-1 (住友不動産麻布十番ビル 9F)","place":"株式会社アイ・エム・ジェイ","lat":35.6541,"lon":139.742,"state":"active","id":null},{"event_id":"76464","title":"自分たちのプロジェクトのJTBDは何か？","url":"https://uxdt.connpass.com/event/76464/","shortener_url":null,"started_at":"2018-02-24T04:00:00.000+09:00","ended_at":"2018-02-24T07:00:00.000+09:00","limit_number":41,"address":"東京都港区南青山2-27-25　ヒューリック南青山ビル 3F","place":"PR TIMES","lat":35.6694,"lon":139.717,"state":"active","id":null},{"event_id":"78882","title":"AITCシニア技術者勉強会 「一からはじめるIoT ３周目」第2回 Arduinoワークショップ","url":"https://aitc-senior.connpass.com/event/78882/","shortener_url":null,"started_at":"2018-02-17T14:00:00.000+09:00","ended_at":"2018-02-17T18:00:00.000+09:00","limit_number":25,"address":"東京都中央区晴海1-8-10（晴海アイランド トリトンスクエア オフィスタワーＸ 14階）","place":"ウルシステムズ株式会社　会議室","lat":35.6564,"lon":139.782,"state":"active","id":null},{"event_id":"79311","title":"fukuoka.ex#5 (懇親会も)：福岡におけるElixirの進化～福岡Elixir会","url":"https://techjin.connpass.com/event/79311/","shortener_url":null,"started_at":"2018-02-24T04:00:00.000+09:00","ended_at":"2018-02-24T06:00:00.000+09:00","limit_number":23,"address":" 株式会社TechJIN  〒810-0001 福岡県福岡市中央区天神3-4-3大隈ビル8F","place":"株式会社TechJIN","lat":33.5919,"lon":130.396,"state":"active","id":null},{"event_id":"78902","title":"Node学園 29時限目","url":"https://nodejs.connpass.com/event/78902/","shortener_url":null,"started_at":"2018-02-23T04:00:00.000+09:00","ended_at":"2018-02-23T08:00:00.000+09:00","limit_number":100,"address":"東京都中央区築地1-13-1","place":"ドワンゴセミナールーム(銀座松竹スクエア13F)","lat":35.6683,"lon":139.769,"state":"active","id":null},{"event_id":"79584","title":"UX JAM 24","url":"https://uxmilk.connpass.com/event/79584/","shortener_url":"https://goo.gl/FpPFvg","started_at":"2018-02-27T19:30:00.000+09:00","ended_at":"2018-02-27T22:00:00.000+09:00","limit_number":150,"address":"〒102-0081 東京都千代田区四番町6(東急番町ビル)","place":"株式会社オプト イベントスペース","lat":35.6894,"lon":139.736,"state":"active","id":null},{"event_id":"79575","title":"UX JAM 24","url":"https://uxmilk.connpass.com/event/79575/","shortener_url":"https://goo.gl/qcSqof","started_at":"2018-02-27T19:30:00.000+09:00","ended_at":"2018-02-27T22:00:00.000+09:00","limit_number":150,"address":"〒102-0081 東京都千代田区四番町6(東急番町ビル)","place":"株式会社オプト イベントスペース","lat":35.6894,"lon":139.736,"state":"active","id":null},{"event_id":"77572","title":"Mashup名古屋・テクノロジー勉強会","url":"https://mashup-nagoya.connpass.com/event/77572/","shortener_url":"https://goo.gl/NdKiUj","started_at":"2018-02-16T19:00:00.000+09:00","ended_at":"2018-02-16T21:00:00.000+09:00","limit_number":63,"address":"愛知県名古屋市中村区名駅1丁目1-1 JPタワー名古屋 28階","place":"日本アイ・ビー・エム株式会社　名古屋事業所","lat":35.1731,"lon":136.882,"state":"active","id":null},{"event_id":"79503","title":"スクラム道関西 第100回定例会(オープン・ジャム)","url":"https://scrumdo-kansai.connpass.com/event/79503/","shortener_url":null,"started_at":"2018-02-20T19:00:00.000+09:00","ended_at":"2018-02-20T21:00:00.000+09:00","limit_number":24,"address":"大阪府大阪市北区末広町3-7","place":"TAM COWORKING OSAKA","lat":34.7019,"lon":135.51,"state":"active","id":null},{"event_id":"78584","title":"ミクスタをハックする！ミクスタハッカソン2018","url":"https://connpass.com/event/78584/","shortener_url":"https://goo.gl/X7XtWs","started_at":"2018-02-24T19:00:00.000+09:00","ended_at":"2018-03-04T04:00:00.000+09:00","limit_number":30,"address":"福岡県北九州市小倉北区浅野3−9−33","place":"ミクニワールドスタジアム北九州","lat":33.89,"lon":130.888,"state":"active","id":null},{"event_id":"78941","title":"TOKYO CS JAM #16  〜トレーナーズ・ブートキャンプ！〜","url":"https://csjam.connpass.com/event/78941/","shortener_url":null,"started_at":"2018-02-21T19:15:00.000+09:00","ended_at":"2018-02-21T21:30:00.000+09:00","limit_number":40,"address":"東京都港区六本木6-10-1（六本木ヒルズ森タワー18F）","place":"株式会社メルカリ","lat":35.6604,"lon":139.729,"state":"active","id":null},{"event_id":"78718","title":"#学生LT もくもく会@神保町","url":"https://student-lt.connpass.com/event/78718/","shortener_url":null,"started_at":"2018-02-11T19:00:00.000+09:00","ended_at":"2018-02-12T03:00:00.000+09:00","limit_number":20,"address":"東京都千代田区神田神保町1-4-6 クロサワビル6F","place":"Basis Point 神保町店","lat":35.6962,"lon":139.76,"state":"active","id":null},{"event_id":"78784","title":"ローカルメディアの未来を考えるアイデアソン　テーマ「AI」","url":"https://sapporo-openinovation.connpass.com/event/78784/","shortener_url":"https://goo.gl/uCJ9g3","started_at":"2018-02-28T19:00:00.000+09:00","ended_at":"2018-02-28T22:00:00.000+09:00","limit_number":45,"address":"北海道札幌市中央区大通西１丁目１","place":"NHK札幌放送局　第一スタジオ","lat":43.0617,"lon":141.356,"state":"active","id":null},{"event_id":"78899","title":"[秋葉原] 第16回 ゆるふわIoT電子工作入門","url":"https://weeyble-iot.connpass.com/event/78899/","shortener_url":null,"started_at":"2018-02-11T22:00:00.000+09:00","ended_at":"2018-02-12T03:00:00.000+09:00","limit_number":8,"address":"東京都千代田区神田須田町２丁目１９−２３ (野村第３ビル ４階)","place":"コワーキングスペース秋葉原Weeyble","lat":35.6966,"lon":139.772,"state":"active","id":null},{"event_id":"78853","title":"ブロックチェーンハッカソン by Team AI 2/26(月)","url":"https://teamai.connpass.com/event/78853/","shortener_url":"https://goo.gl/uL1T2i","started_at":"2018-02-27T04:00:00.000+09:00","ended_at":"2018-02-27T06:00:00.000+09:00","limit_number":10,"address":"東京都渋谷区渋谷1丁目8 (TOC第１ビル3階)","place":"みんなの会議室2-1　渋谷宮益坂","lat":35.6603,"lon":139.705,"state":"active","id":null},{"event_id":"78799","title":"子ども向けプログラミングクラブ コーダー道場甲府#8","url":"https://coderdojokofu.connpass.com/event/78799/","shortener_url":null,"started_at":"2018-02-12T09:20:00.000+09:00","ended_at":"2018-02-12T11:40:00.000+09:00","limit_number":10,"address":"山梨県甲府市北口２丁目８番１号","place":"山梨県立図書館","lat":35.6685,"lon":138.57,"state":"active","id":null},{"event_id":"78526","title":"量子コンピュータハッカソン by Team AI 2/19(月)","url":"https://teamai.connpass.com/event/78526/","shortener_url":"https://goo.gl/tFsPh1","started_at":"2018-02-20T04:00:00.000+09:00","ended_at":"2018-02-20T06:00:00.000+09:00","limit_number":10,"address":"","place":"Online","lat":35.6618,"lon":139.696,"state":"active","id":null},{"event_id":"78497","title":"和歌山デジもく会 #1　(和歌山デジタル工作もくもく会)","url":"https://wakayama-dezimoku.connpass.com/event/78497/","shortener_url":null,"started_at":"2018-02-24T22:00:00.000+09:00","ended_at":"2018-02-25T03:00:00.000+09:00","limit_number":10,"address":"〒640-8226 和歌山県和歌山市小人町6番地","place":"株式会社正和情報サービス 2階会議室","lat":34.2308,"lon":135.167,"state":"active","id":null},{"event_id":"70082","title":"FinTechデータ分析ハッカソン","url":"https://team-ai.doorkeeper.jp/events/70082","shortener_url":"https://goo.gl/HGdc3C","started_at":"2018-02-17T04:00:00.000+09:00","ended_at":"2018-02-17T06:00:00.000+09:00","limit_number":5,"address":"東京都渋谷区宇田川町36-17 ニューシブヤマンション202","place":"Team AIベース（ニューシブヤマンション202）","lat":35.6618,"lon":139.696,"state":"active","id":null},{"event_id":"70408","title":"量子コンピュータハッカソン","url":"https://team-ai.doorkeeper.jp/events/70408","shortener_url":"https://goo.gl/kU1YLm","started_at":"2018-02-20T04:00:00.000+09:00","ended_at":"2018-02-20T06:00:00.000+09:00","limit_number":5,"address":"東京都渋谷区宇田川町37−7 アットパーク渋谷宇田川町駐車場","place":"Team AIベース（ニューシブヤマンション202）","lat":35.6618,"lon":139.696,"state":"active","id":null},{"event_id":"70503","title":"ブロックチェーンハッカソン","url":"https://team-ai.doorkeeper.jp/events/70503","shortener_url":"https://goo.gl/cggZyY","started_at":"2018-02-27T04:00:00.000+09:00","ended_at":"2018-02-27T06:00:00.000+09:00","limit_number":5,"address":"東京都渋谷区宇田川町36-17 ニューシブヤマンション202","place":"Team AIベース（ニューシブヤマンション202）","lat":35.6618,"lon":139.696,"state":"active","id":null},{"event_id":"70565","title":"ブロックチェーン・アイディアワークショップ#3 〜SWT Blockchain プレイベント〜","url":"https://swtokyo.doorkeeper.jp/events/70565","shortener_url":null,"started_at":"2018-02-20T03:45:00.000+09:00","ended_at":"2018-02-20T06:00:00.000+09:00","limit_number":25,"address":"東京都中央区京橋1-1-5 京橋セントラルビル2階","place":"fabbit京橋","lat":35.6793,"lon":139.771,"state":"active","id":null},{"event_id":"70828","title":"【深圳】座談会","url":"https://swtokyo.doorkeeper.jp/events/70828","shortener_url":null,"started_at":"2018-02-24T22:00:00.000+09:00","ended_at":"2018-02-25T01:00:00.000+09:00","limit_number":30,"address":"東京都台東区竜泉3-4-5","place":"浅草パンダハウス","lat":35.7257,"lon":139.794,"state":"active","id":null},{"event_id":"70830","title":"いわみくと MeetUp！vol.25（いわみICT協議会定例会 ）","url":"https://iwami-ict.doorkeeper.jp/events/70830","shortener_url":null,"started_at":"2018-02-24T03:30:00.000+09:00","ended_at":"2018-02-24T05:00:00.000+09:00","limit_number":40,"address":"島根県浜田市黒川町3748番地1","place":"浜田市立中央図書館多目的ホール","lat":34.6773,"lon":131.839,"state":"active","id":null},{"event_id":"94665","title":"【落合陽一さん登壇決定！日産自動車／メルカリR4Dなど】自動運転、AI、IoT、xR...先端技術領域で広がるエンジニアの未来 #moffers","url":"https://atnd.org/events/94665","shortener_url":null,"started_at":"2018-02-18T13:00:00.000+09:00","ended_at":"2018-02-18T17:00:00.000+09:00","limit_number":350,"address":"東京都千代田区丸の内1-9-2","place":"グラントウキョウサウスタワー　41F","lat":35.6786,"lon":139.767,"state":"closed","id":null},{"event_id":"94536","title":"第50回よちよちAndroid名古屋支部オフライン開発ミーティング","url":"https://atnd.org/events/94536","shortener_url":null,"started_at":"2018-02-18T09:00:00.000+09:00","ended_at":"2018-02-18T12:00:00.000+09:00","limit_number":null,"address":"名古屋市中区栄三丁目18番1号 ナディアパーク デザインセンタービル6階","place":"名古屋市市民活動推進センター","lat":35.1654,"lon":136.905,"state":"closed","id":null},{"event_id":"94399","title":"Raspberry PiとAIで作るIoTデバイス ミニハッカソン","url":"https://atnd.org/events/94399","shortener_url":null,"started_at":"2018-02-12T13:00:00.000+09:00","ended_at":"2018-02-12T17:00:00.000+09:00","limit_number":1,"address":"東京都新宿区西新宿3-20-2 東京オペラシティビル 41F","place":"株式会社デジタルハーツ 本社","lat":35.683,"lon":139.687,"state":"closed","id":null},{"event_id":"94589","title":"第297回 よちよちAndroid オフライン開発ミーティング in 大崎","url":"https://atnd.org/events/94589","shortener_url":null,"started_at":"2018-02-11T10:00:00.000+09:00","ended_at":"2018-02-11T12:00:00.000+09:00","limit_number":null,"address":"東京都品川区大崎1-11-1","place":"ゲートシティ大崎B1アトリウムフリー座席","lat":35.6194,"lon":139.731,"state":"closed","id":null},{"event_id":"94360","title":"第49回よちよちAndroid名古屋支部オフライン開発ミーティング","url":"https://atnd.org/events/94360","shortener_url":null,"started_at":"2018-02-04T09:00:00.000+09:00","ended_at":"2018-02-04T12:00:00.000+09:00","limit_number":null,"address":"名古屋市中区栄三丁目18番1号 ナディアパーク デザインセンタービル6階","place":"名古屋市市民活動推進センター","lat":35.1654,"lon":136.905,"state":"closed","id":null},{"event_id":"94807","title":"海外生活経験者向けの就職イベント【B'Jam】","url":"https://atnd.org/events/94807","shortener_url":null,"started_at":"2018-02-22T14:00:00.000+09:00","ended_at":"2018-02-22T19:00:00.000+09:00","limit_number":null,"address":"東京都中野区中野四丁目1","place":"中野サンプラザ　研修室５+６","lat":35.7078,"lon":139.665,"state":"closed","id":null},{"event_id":"348614","title":"参加→5000円プレゼント！No walk, No engineer.ハッカソン","url":"http://peatix.com/event/348614","shortener_url":"https://goo.gl/q34Tco","started_at":"2018-02-16T18:30:00.000+09:00","ended_at":"2018-02-19T08:59:59.000+09:00","limit_number":null,"address":"東京都新宿区西新宿3-20-2 ","place":"東京都新宿区西新宿3-20-2 東京オペラシティタワー28階","lat":0.0,"lon":0.0,"state":"active","id":null},{"event_id":"350167","title":"Fw:東北Weekly 福島の伝統ある温泉から復興のまちおこしを！　福島県小野町で90年の歴史をもつ温泉旅館を交流人口拡大の拠点にしたいアイデアソン","url":"http://peatix.com/event/350167","shortener_url":null,"started_at":"2018-02-15T04:00:00.000+09:00","ended_at":"2018-02-17T08:59:59.000+09:00","limit_number":null,"address":"千代田区紀尾井町1−3","place":"ヤフー株式会社","lat":35.6797,"lon":139.737,"state":"active","id":null},{"event_id":"350175","title":"Fw:東北Weekly 日本酒を中心に伝統工芸品などをライフスタイルに浸透させることについて考えるアイデアソン（焼物を酒器にした日本酒の飲み比べ体験あり）","url":"http://peatix.com/event/350175","shortener_url":"https://goo.gl/N8TzfL","started_at":"2018-02-23T04:00:00.000+09:00","ended_at":"2018-02-25T08:59:59.000+09:00","limit_number":null,"address":"千代田区紀尾井町1−3","place":"ヤフー株式会社","lat":35.6797,"lon":139.737,"state":"active","id":null},{"event_id":"346023","title":"NHKディレクソン in 静岡！！～参加者全員がTVディレクター！？NHKを使って「静岡を世界に発信する番組」をみんなで考えよう！！","url":"http://nhkdirecthon04.peatix.com","shortener_url":"https://goo.gl/FchqZS","started_at":"2018-02-25T19:00:00.000+09:00","ended_at":"2018-02-28T08:59:59.000+09:00","limit_number":null,"address":"静岡市駿河区八幡一丁目6番1号","place":"NHK静岡放送局 新放送会館","lat":34.9741,"lon":138.394,"state":"active","id":null},{"event_id":"352865","title":"【無料・試食あり！】アイデアソン／御前崎が誇る、最高の“カツオの一本釣り”ブランド化（2/25開催）","url":"http://peatix.com/event/352865","shortener_url":"https://goo.gl/JKgewt","started_at":"2018-02-26T03:00:00.000+09:00","ended_at":"2018-02-28T08:59:59.000+09:00","limit_number":null,"address":"東京都港区赤坂9-7-1 ミッドタウン・タワー5F","place":"東京ミッドタウン・デザインハブ","lat":35.6662,"lon":139.73,"state":"active","id":null},{"event_id":"349774","title":"UUUM（ウーム）鎌田社長講演 なぜ若者にYoutubeが刺さるのか～動画によるこれからのマーケティング手法～ 実現化にこだわったアイデアソン「It’s on Board」supported by ANA","url":"http://anaideathon0221.peatix.com","shortener_url":"https://goo.gl/v78iVp","started_at":"2018-02-22T03:30:00.000+09:00","ended_at":"2018-02-24T08:59:59.000+09:00","limit_number":null,"address":"大阪府大阪市北区鶴野町1-5","place":"関西大学梅田キャンパス８Ｆ","lat":34.7065,"lon":135.501,"state":"active","id":null},{"event_id":"349475","title":"H³ 第十回：医療/介護経営のリアル","url":"http://hhh10.peatix.com","shortener_url":"https://goo.gl/jj8XhL","started_at":"2018-02-18T23:00:00.000+09:00","ended_at":"2018-02-21T08:59:59.000+09:00","limit_number":null,"address":"東京都中央区日本橋本町2-3-11","place":" 日本橋ライフサイエンスビル","lat":35.6877,"lon":139.776,"state":"active","id":null},{"event_id":"350955","title":"メンタリングイベント ～社会的･経済的インフラとしてのブロックチェーンの可能性～","url":"http://cepic-3.peatix.com","shortener_url":null,"started_at":"2018-02-16T04:00:00.000+09:00","ended_at":"2018-02-18T08:59:59.000+09:00","limit_number":null,"address":"台東区浅草橋3丁目10−8","place":"Little Japan リトルジャパン","lat":35.7014,"lon":139.784,"state":"active","id":null},{"event_id":"350956","title":"メンタリングイベント～女性の多様な働き方～","url":"http://cepic-4.peatix.com","shortener_url":null,"started_at":"2018-02-20T04:00:00.000+09:00","ended_at":"2018-02-22T08:59:59.000+09:00","limit_number":null,"address":"台東区浅草橋3丁目10−8","place":"Little Japan リトルジャパン","lat":35.7014,"lon":139.784,"state":"active","id":null},{"event_id":"339661","title":"徳谷柿次郎（ジモコロ編集長）× 白石達史（JAM代表）が見た〈わからない？岐阜〉ローカルトーク＆カフェ","url":"http://peatix.com/event/339661","shortener_url":null,"started_at":"2018-02-24T22:00:00.000+09:00","ended_at":"2018-02-27T08:59:59.000+09:00","limit_number":null,"address":"東京都千代田区内神田1-15-10","place":"C-Lounge","lat":35.6922,"lon":139.766,"state":"active","id":null},{"event_id":"329432","title":"第３回こどもプログラミングサミット2018 in Tokyo","url":"http://peatix.com/event/329432","shortener_url":null,"started_at":"2018-02-24T19:00:00.000+09:00","ended_at":"2018-02-27T08:59:59.000+09:00","limit_number":null,"address":"東京都台東区上野公園 7-20","place":"国立科学博物館","lat":35.7156,"lon":139.777,"state":"active","id":null},{"event_id":"350957","title":"メンタリングイベント ～地域×クラウドファンディング～","url":"http://cepic-5.peatix.com","shortener_url":null,"started_at":"2018-02-23T04:00:00.000+09:00","ended_at":"2018-02-25T08:59:59.000+09:00","limit_number":null,"address":"台東区浅草橋3丁目10−8","place":"Little Japan リトルジャパン","lat":35.7014,"lon":139.784,"state":"active","id":null},{"event_id":"351567","title":"Hack for Good","url":"http://t4gc.peatix.com","shortener_url":"https://goo.gl/QBFftL","started_at":"2018-02-26T10:00:00.000+09:00","ended_at":"2018-03-01T08:59:59.000+09:00","limit_number":null,"address":"Jalan Sultan Yahya Petra, Kampung Datuk Keramat, Kuala Lumpur","place":"Innovation Centre for 5G, UTM Kuala Lumpur","lat":3.17317,"lon":101.719,"state":"active","id":null},{"event_id":"350063","title":"おおいた暮らし塾 in京都","url":"http://peatix.com/event/350063","shortener_url":null,"started_at":"2018-02-17T19:30:00.000+09:00","ended_at":"2018-02-20T08:59:59.000+09:00","limit_number":null,"address":"京都府京都市南区久世高田町376-1","place":"イオンモール京都桂川3階　イオンホール","lat":34.9654,"lon":135.707,"state":"active","id":null},{"event_id":"347115","title":"人生100年時代 50歳から考える 人生二毛作プログラム #1","url":"http://peatix.com/event/347115","shortener_url":null,"started_at":"2018-02-23T19:00:00.000+09:00","ended_at":"2018-02-26T08:59:59.000+09:00","limit_number":null,"address":"東京都港区赤坂1-8-1 赤坂インターシティAIR ","place":"赤坂インターシティAIRビル","lat":0.0,"lon":0.0,"state":"active","id":null},{"event_id":"349839","title":"【無料トークイベント】経営層と現場をつなぐコミュニケーションデザイン（2/25開催）","url":"http://peatix.com/event/349839","shortener_url":null,"started_at":"2018-02-26T02:00:00.000+09:00","ended_at":"2018-02-28T08:59:59.000+09:00","limit_number":null,"address":"東京都港区赤坂9-7-1 ミッドタウン・タワー5F","place":"東京ミッドタウン・デザインハブ","lat":35.6662,"lon":139.73,"state":"active","id":null},{"event_id":"343593","title":"Pashadelic x Adobe Stock Workshop","url":"http://pxaworkshop.peatix.com","shortener_url":null,"started_at":"2018-02-24T22:00:00.000+09:00","ended_at":"2018-02-27T08:59:59.000+09:00","limit_number":null,"address":"〒150-0001 東京都渋谷区 神宮前5-3-8 AF Lohas St. Bldg 1-2F","place":"hanami 表参道","lat":0.0,"lon":0.0,"state":"active","id":null},{"event_id":"350898","title":"初心者向け大喜利体験スポット『ひなどり』 2/22(木)19:30～","url":"http://peatix.com/event/350898","shortener_url":null,"started_at":"2018-02-23T08:00:00.000+09:00","ended_at":"2018-02-25T08:59:59.000+09:00","limit_number":null,"address":"東京都新宿区西新宿7-1-7 新宿ダイカンビルA館1109号室","place":"『ひなどり』新宿ダイカン教室","lat":0.0,"lon":0.0,"state":"active","id":null},{"event_id":"332535","title":"Care CROSSING - 2018 re:start","url":"http://peatix.com/event/332535","shortener_url":null,"started_at":"2018-02-17T22:30:00.000+09:00","ended_at":"2018-02-20T08:59:59.000+09:00","limit_number":null,"address":"東京都港区芝公園4丁目4−7 東京タワースタジオ","place":"Studio Jupiter, StarRise Tower","lat":35.6577,"lon":139.745,"state":"active","id":null},{"event_id":"347964","title":"【草叢BOOKS 】草叢女子部読書会 vol.３　草叢女子部　パワーアップお片付け　片付けの苦手なあなたにおすすめ！","url":"http://peatix.com/event/347964","shortener_url":null,"started_at":"2018-02-27T20:00:00.000+09:00","ended_at":"2018-03-02T08:59:59.000+09:00","limit_number":null,"address":"岐阜県 各務原市鵜沼各務原町8丁目7番地 アピタ各務原店1階","place":"【草叢BOOKS 】岐阜/各務原","lat":35.3979,"lon":136.904,"state":"active","id":null},{"event_id":"347966","title":"【草叢BOOKS 】草叢女子部読書会 vol.３パワーアップお片付け/片付けの苦手なあなたにおすすめ！","url":"http://peatix.com/event/347966","shortener_url":null,"started_at":"2018-02-26T20:00:00.000+09:00","ended_at":"2018-03-01T08:59:59.000+09:00","limit_number":null,"address":"愛知県 名古屋市守山区新守山2830 アピタ新守山店2階","place":"【草叢BOOKS 】名古屋/新守山店","lat":35.2049,"lon":136.949,"state":"active","id":null},{"event_id":"339719","title":"知財広め隊in山形「ヒット商品・ブランド化のヒント～第1部セミナー　第2部懇親会～」","url":"http://peatix.com/event/339719","shortener_url":null,"started_at":"2018-02-23T01:00:00.000+09:00","ended_at":"2018-02-25T08:59:59.000+09:00","limit_number":null,"address":"山形県山形市本町1-7-42","place":"山形グランドホテル2階「サンリヴァ」","lat":38.2507,"lon":140.337,"state":"active","id":null},{"event_id":"350016","title":"歌舞伎町観察ツアー02.17","url":"http://peatix.com/event/350016","shortener_url":null,"started_at":"2018-02-18T05:00:00.000+09:00","ended_at":"2018-02-20T08:59:59.000+09:00","limit_number":null,"address":"歌舞伎町","place":"歌舞伎町","lat":0.0,"lon":0.0,"state":"active","id":null},{"event_id":"349757","title":"かたまり肉を食べる会 #4","url":"http://peatix.com/event/349757","shortener_url":null,"started_at":"2018-02-17T04:30:00.000+09:00","ended_at":"2018-02-19T08:59:59.000+09:00","limit_number":null,"address":"渋谷区円山町5-4","place":"渋谷駅徒歩5分","lat":35.657,"lon":139.695,"state":"active","id":null},{"event_id":"347609","title":"FRISK風ヘッドフォンアンプをつくろう【02/18(日)開催】","url":"http://dmmmake1802frsk.peatix.com","shortener_url":null,"started_at":"2018-02-18T20:00:00.000+09:00","ended_at":"2018-02-21T08:59:59.000+09:00","limit_number":null,"address":"東京都千代田区神田練塀町 AKSビルディング","place":"DMM.make AKIBA 10F Studio","lat":35.7008,"lon":139.774,"state":"active","id":null},{"event_id":"350027","title":"歌舞伎町観察ツアー02.24","url":"http://peatix.com/event/350027","shortener_url":null,"started_at":"2018-02-25T05:00:00.000+09:00","ended_at":"2018-02-27T08:59:59.000+09:00","limit_number":null,"address":"歌舞伎町","place":"歌舞伎町","lat":0.0,"lon":0.0,"state":"active","id":null},{"event_id":"347677","title":"Bücher bauen Brücken– Bilderbuchgeschichten aus Deutschland / 本が橋を造る - ドイツの絵本を読む会","url":"http://peatix.com/event/347677","shortener_url":null,"started_at":"2018-02-19T00:45:00.000+09:00","ended_at":"2018-02-21T08:59:59.000+09:00","limit_number":null,"address":"107-0052東京都港区赤坂7-5-56ドイツ文化会館2F ","place":"Goethe-Institut Bibliothek","lat":35.6732,"lon":139.73,"state":"active","id":null},{"event_id":"352045","title":"Crackhouse Comedy Presents : Ahmed Ahmed (US)","url":"http://ahmedahmedoncrack.peatix.com","shortener_url":null,"started_at":"2018-02-24T07:00:00.000+09:00","ended_at":"2018-02-26T08:59:59.000+09:00","limit_number":null,"address":"24A (1st Floor) Lorong Rahim Kajai 14, Taman Tun Dr. Ismail, 60000 Kuala Lumpur","place":"The Crackhouse Comedy Club KL","lat":3.15478,"lon":101.623,"state":"active","id":null},{"event_id":"346106","title":"愛とAI〜『超AI時代の生存戦略』（落合陽一）＋エーリッヒ・フロムde【大人の教養大学】#8","url":"http://peatix.com/event/346106","shortener_url":null,"started_at":"2018-02-24T22:15:00.000+09:00","ended_at":"2018-02-27T08:59:59.000+09:00","limit_number":null,"address":"東京都港区南青山一丁目2番6号 ラティス青山スクエア2F","place":"SENQ青山 ワークプレイス","lat":35.6722,"lon":139.726,"state":"active","id":null},{"event_id":"347118","title":"Bücher bauen Brücken– Bilderbuchgeschichten aus Deutschland / 本が橋を造る - ドイツの絵本を読む会","url":"http://peatix.com/event/347118","shortener_url":null,"started_at":"2018-02-19T00:45:00.000+09:00","ended_at":"2018-02-21T08:59:59.000+09:00","limit_number":null,"address":"107-0052東京都港区赤坂7-5-56ドイツ文化会館2F","place":"Goethe-Institut Tokyo Bibliothek","lat":35.6732,"lon":139.73,"state":"active","id":null},{"event_id":"351008","title":"Rojak Comedy in English \u0026 BM","url":"http://rojak5.peatix.com","shortener_url":null,"started_at":"2018-02-23T07:00:00.000+09:00","ended_at":"2018-02-25T08:59:59.000+09:00","limit_number":null,"address":"24A Lorong Rahim Kajai 14, Taman Tun Dr. Ismail, 60000 Kuala Lumpur","place":"Crackhouse Comedy Club Kuala Lumpur","lat":3.15474,"lon":101.623,"state":"active","id":null},{"event_id":"340115","title":"知財広め隊in宮崎「ヒット商品・ブランド化へのヒント」","url":"http://peatix.com/event/340115","shortener_url":null,"started_at":"2018-02-23T00:00:00.000+09:00","ended_at":"2018-02-25T08:59:59.000+09:00","limit_number":null,"address":"宮崎県宮崎市宮崎駅東1-2-8","place":"ニューウェルシティ宮崎","lat":31.9146,"lon":131.434,"state":"active","id":null},{"event_id":"347955","title":"【草叢BOOKS 】\"たった10分\"があなたを変える 明日を幸せにするお風呂講座＆ワークショップ　和ハーブ＆ソルト＆アロマを使った自然入浴剤作り (複製)","url":"http://peatix.com/event/347955","shortener_url":null,"started_at":"2018-02-20T23:00:00.000+09:00","ended_at":"2018-02-23T08:59:59.000+09:00","limit_number":null,"address":"岐阜県 各務原市鵜沼各務原町8丁目7番地 アピタ各務原店1階","place":"【草叢BOOKS 】岐阜/各務原","lat":35.3979,"lon":136.904,"state":"active","id":null},{"event_id":"346866","title":"【2/25】HADO SPRING CUP予選（サードプラネット）","url":"http://peatix.com/event/346866","shortener_url":null,"started_at":"2018-02-25T22:00:00.000+09:00","ended_at":"2018-02-28T08:59:59.000+09:00","limit_number":null,"address":"神奈川県横浜市都筑区中川中央1-25-1ノースポート・モール6F","place":"サードプラネット横浜本店","lat":35.5527,"lon":139.58,"state":"active","id":null},{"event_id":"342148","title":"Kampong Gelam Tales: A Dramatised Tour","url":"http://kgelamtales-17feb2018.peatix.com","shortener_url":null,"started_at":"2018-02-17T21:00:00.000+09:00","ended_at":"2018-02-20T08:59:59.000+09:00","limit_number":null,"address":"85 Sultan Gate, Singapore 198501","place":"Malay Heritage Centre","lat":1.30317,"lon":103.86,"state":"active","id":null},{"event_id":"348733","title":"MOVEMENTS ONENESS MEETING 縄文と弥生","url":"http://peatix.com/event/348733","shortener_url":null,"started_at":"2018-02-17T05:00:00.000+09:00","ended_at":"2018-02-19T08:59:59.000+09:00","limit_number":null,"address":"渋谷区恵比寿西1-34-17 ザ・ハウスビル","place":"代官山UNIT\u0026UNICE","lat":35.6471,"lon":139.702,"state":"active","id":null},{"event_id":"350574","title":"2/23 Adventure Nightlife DiA Tokyo Roppongi Club pub bar crawl Disco Dance Aitai International Party 六本木クラブ国際パーティー (無料入場)","url":"http://peatix.com/event/350574","shortener_url":null,"started_at":"2018-02-24T07:00:00.000+09:00","ended_at":"2018-02-26T08:59:59.000+09:00","limit_number":null,"address":"港区六本木3丁目8−15","place":"DiA tokyo","lat":35.6633,"lon":139.734,"state":"active","id":null},{"event_id":"346462","title":"Live English Standup Comedy Show in Asakusa","url":"http://peatix.com/event/346462","shortener_url":null,"started_at":"2018-02-25T04:45:00.000+09:00","ended_at":"2018-02-27T08:59:59.000+09:00","limit_number":null,"address":"東京都墨田区東駒形 2-20-10","place":"浅草スマイルバー","lat":0.0,"lon":0.0,"state":"active","id":null},{"event_id":"346048","title":"【秘めフォト部関西 2/16(金)】自分史上最高にSEXYな1枚を撮る「秘めフォト部」！新しく「SEXY」な自分を見つけて明日に自信を持つための女性限定フォトサービス！《女性限定／10名様限定／初めての方大歓迎》","url":"http://peatix.com/event/346048","shortener_url":null,"started_at":"2018-02-17T04:30:00.000+09:00","ended_at":"2018-02-19T08:59:59.000+09:00","limit_number":null,"address":"京都府京都市東山区博多町112−5","place":"京都天狼院","lat":35.0017,"lon":135.773,"state":"active","id":null},{"event_id":"351924","title":"Crackhouse Comedy Presents : CNY SPECIAL with SAM SEE (SINGAPORE) \u0026 JASON LEONG (MALAYSIA)","url":"http://samdoescrack.peatix.com","shortener_url":null,"started_at":"2018-02-17T07:00:00.000+09:00","ended_at":"2018-02-19T08:59:59.000+09:00","limit_number":null,"address":"24A (1st Floor) Lorong Rahim Kajai 14, Taman Tun Dr. Ismail, 60000 Kuala Lumpur","place":"The Crackhouse Comedy Club KL","lat":3.15478,"lon":101.623,"state":"active","id":null},{"event_id":"350576","title":"2/24 Adventure Nightlife DiA Tokyo Roppongi Club pub bar crawl Disco Dance Aitai International Party 六本木クラブ国際パーティー (無料入場) ","url":"http://tokyo-aitai-international-club-party.peatix.com","shortener_url":null,"started_at":"2018-02-25T07:00:00.000+09:00","ended_at":"2018-02-27T08:59:59.000+09:00","limit_number":null,"address":"港区六本木3丁目8−15","place":"DiA tokyo","lat":35.6633,"lon":139.734,"state":"active","id":null},{"event_id":"350571","title":"Adventure Nightlife DiA Tokyo Roppongi Club pub bar crawl Disco Dance Aitai Party 六本木クラブ国際パーティー (無料入場)","url":"http://peatix.com/event/350571","shortener_url":null,"started_at":"2018-02-17T07:00:00.000+09:00","ended_at":"2018-02-19T08:59:59.000+09:00","limit_number":null,"address":"港区六本木3丁目8−15","place":"DiA tokyo","lat":35.6633,"lon":139.734,"state":"active","id":null},{"event_id":"350572","title":"2/17 Adventure Nightlife DiA Tokyo Roppongi Club pub bar crawl Disco Dance Aitai International Party 六本木クラブ国際パーティー (無料入場)","url":"http://peatix.com/event/350572","shortener_url":null,"started_at":"2018-02-18T07:00:00.000+09:00","ended_at":"2018-02-20T08:59:59.000+09:00","limit_number":null,"address":"港区六本木3丁目8−15","place":"DiA tokyo","lat":35.6633,"lon":139.734,"state":"active","id":null},{"event_id":"351946","title":"KUAH JENHAN: Trial Of A New Show That I Quite Like...So We Try Lah, okay? Also Known As ELECTRIC BUTTERFLIES","url":"http://kuahjenhanwip.peatix.com","shortener_url":null,"started_at":"2018-02-27T07:00:00.000+09:00","ended_at":"2018-03-01T08:59:59.000+09:00","limit_number":null,"address":"24, Lorong Rahim Kajai 14, Taman Tun Dr Ismail, 60000 Kuala Lumpur, Wilayah Persekutuan Kuala Lumpur, Malaysia","place":"The Crackhouse Comedy Club Kuala Lumpur","lat":3.15474,"lon":101.623,"state":"active","id":null},{"event_id":"348835","title":"3.11前。Fun Fun 福島！社会学者 開沼博さんと話そう～『はじめての福島学』de【大人の教養大学】 #7","url":"http://peatix.com/event/348835","shortener_url":null,"started_at":"2018-02-22T04:00:00.000+09:00","ended_at":"2018-02-24T08:59:59.000+09:00","limit_number":null,"address":"東京都杉並区高円寺南3-66-3 高円寺コモンズ","place":"NPOカタリバ事務所　高円寺コモンズ1F　Creative room","lat":35.7051,"lon":139.647,"state":"active","id":null},{"event_id":"351016","title":"Open Crack! Open-mic Night | 9pm","url":"http://opencrackfeb21.peatix.com","shortener_url":null,"started_at":"2018-02-22T07:00:00.000+09:00","ended_at":"2018-02-24T08:59:59.000+09:00","limit_number":null,"address":"24A, 1st Floor, Lorong Rahim Kajai 14, Taman Tun Dr. Ismail, 60000 Kuala Lumpur","place":"The Crackhouse Comedy Club KL","lat":3.15493,"lon":101.623,"state":"active","id":null},{"event_id":"349395","title":"2/21開催【女性限定】クラウドファンディングを活用した資金調達\u0026プロモーションセミナー","url":"http://peatix.com/event/349395","shortener_url":null,"started_at":"2018-02-22T04:30:00.000+09:00","ended_at":"2018-02-24T08:59:59.000+09:00","limit_number":null,"address":"東京都千代田区神田神保町2-7 芳賀書店ビル5階","place":"みんなの会議室　神保町","lat":35.6957,"lon":139.756,"state":"active","id":null},{"event_id":"350907","title":"[本日開催・残り2枠]｜鍋座「訪日外国人観光客との交流ビジネス」をつつく夜〜働き方と関わり方に変化をもたらす規制緩和〜","url":"http://peatix.com/event/350907","shortener_url":null,"started_at":"2018-02-21T04:30:00.000+09:00","ended_at":"2018-02-23T08:59:59.000+09:00","limit_number":null,"address":"中央区日本橋本町3丁目10−1","place":"BETTARA STAND 日本橋","lat":35.6892,"lon":139.777,"state":"active","id":null},{"event_id":"347036","title":"Sharul Weds Sharul","url":"http://sharulwedssharul.peatix.com","shortener_url":null,"started_at":"2018-02-25T06:00:00.000+09:00","ended_at":"2018-02-27T08:59:59.000+09:00","limit_number":null,"address":"114 - 116, Jalan Berhala, Brickfields, 50470 Kuala Lumpur, Wilayah Persekutuan","place":"Temple Of Fine Arts","lat":3.12783,"lon":101.688,"state":"active","id":null},{"event_id":"348310","title":"「社会人男子コンin宇都宮」2018年2月24日(土) 19:00-21:30","url":"http://peatix.com/event/348310","shortener_url":null,"started_at":"2018-02-25T04:00:00.000+09:00","ended_at":"2018-02-27T08:59:59.000+09:00","limit_number":null,"address":"宇都宮駅","place":"宇都宮駅周辺エリア","lat":36.559,"lon":139.898,"state":"active","id":null},{"event_id":"348860","title":"25歳から35歳限定「第89回 アラサーコンin金沢」2018年2月18日(日) 15:00-17:30","url":"http://peatix.com/event/348860","shortener_url":null,"started_at":"2018-02-19T00:00:00.000+09:00","ended_at":"2018-02-21T08:59:59.000+09:00","limit_number":null,"address":"石川県金沢市香林坊1‐1‐1 香林坊大和8F ","place":"ブッフェレストラン「ザ・ダイニング　」","lat":36.563,"lon":136.654,"state":"active","id":null},{"event_id":"349128","title":"アニメ好きの街コン「アニコンin金沢」2018年2月25日(日) 15:00-17:30","url":"http://peatix.com/event/349128","shortener_url":null,"started_at":"2018-02-26T00:00:00.000+09:00","ended_at":"2018-02-28T08:59:59.000+09:00","limit_number":null,"address":"石川県金沢市香林坊1‐1‐1 香林坊大和8F ","place":"ブッフェレストラン「ザ・ダイニング　」","lat":36.563,"lon":136.654,"state":"active","id":null},{"event_id":"346543","title":"「30代限定コンin郡山」2018年2月17日(土) 19:30-22:00","url":"http://peatix.com/event/346543","shortener_url":null,"started_at":"2018-02-18T04:30:00.000+09:00","ended_at":"2018-02-20T08:59:59.000+09:00","limit_number":null,"address":"郡山市中町10-10 メルフ郡山ビルB1","place":"魚民 郡山中町店","lat":37.3979,"lon":140.384,"state":"active","id":null},{"event_id":"349122","title":"「年上彼氏×年下彼女in金沢」2018年2月24日(土) 19:30-21:45","url":"http://peatix.com/event/349122","shortener_url":null,"started_at":"2018-02-25T04:30:00.000+09:00","ended_at":"2018-02-27T08:59:59.000+09:00","limit_number":null,"address":"石川県金沢市香林坊1‐1‐1 香林坊大和8F ","place":"ブッフェレストラン「ザ・ダイニング　」","lat":36.563,"lon":136.654,"state":"active","id":null},{"event_id":"348254","title":"「30代限定コンin太田」2018年2月25日(日) 14:30-17:00","url":"http://peatix.com/event/348254","shortener_url":null,"started_at":"2018-02-25T23:30:00.000+09:00","ended_at":"2018-02-28T08:59:59.000+09:00","limit_number":null,"address":" 群馬県太田市飯田町1389-2 武藤ビル2F","place":"白木屋　太田南口駅前店","lat":36.2932,"lon":139.379,"state":"active","id":null},{"event_id":"348867","title":"「社会人男子コンin金沢」2018年2月17日(土) 19:30-21:45","url":"http://peatix.com/event/348867","shortener_url":null,"started_at":"2018-02-18T04:30:00.000+09:00","ended_at":"2018-02-20T08:59:59.000+09:00","limit_number":null,"address":"石川県金沢市香林坊1‐1‐1 香林坊大和8F ","place":"ブッフェレストラン「ザ・ダイニング　」","lat":36.563,"lon":136.654,"state":"active","id":null},{"event_id":"348242","title":"25歳から35歳限定「アラサーコンin太田」2018年2月18日(日) 14:30-17:00","url":"http://peatix.com/event/348242","shortener_url":null,"started_at":"2018-02-18T23:30:00.000+09:00","ended_at":"2018-02-21T08:59:59.000+09:00","limit_number":null,"address":" 群馬県太田市飯田町1389-2 武藤ビル2F","place":"白木屋　太田南口駅前店","lat":36.2932,"lon":139.379,"state":"active","id":null},{"event_id":"342622","title":"急増する詐欺や不正利用。その実態と対策を総まとめ。EC-CUBE×かっこ×GMO-PG3社共催セミナー","url":"http://peatix.com/event/342622","shortener_url":null,"started_at":"2018-02-23T23:30:00.000+09:00","ended_at":"2018-02-26T08:59:59.000+09:00","limit_number":null,"address":"〒103-0026 東京都中央区日本橋兜町12-7 兜町第3ビル ","place":"NATULUCK茅場町 新館 2階大会議室","lat":35.6807,"lon":139.777,"state":"active","id":null},{"event_id":"328541","title":"【2/24土 15～17:00 最終受付決定】RED BULL SNOW CHARGE 2018 @ 野沢温泉スキー場（長野県）","url":"http://rbsc201802.peatix.com","shortener_url":null,"started_at":"2018-02-25T02:00:00.000+09:00","ended_at":"2018-02-27T08:59:59.000+09:00","limit_number":null,"address":"長野県下高井郡野沢温泉村豊郷7653","place":"野沢温泉スキー場","lat":36.92,"lon":138.452,"state":"active","id":null},{"event_id":"348737","title":"Singapore Cult \u0026 Underground Film Festival (SCUFF) 2018","url":"http://scuff2018.peatix.com","shortener_url":null,"started_at":"2018-02-24T06:00:00.000+09:00","ended_at":"2018-02-26T08:59:59.000+09:00","limit_number":null,"address":"2 Orchard Link, S(237978)","place":"The Gallery, *SCAPE Level 5 ","lat":1.30104,"lon":103.836,"state":"active","id":null},{"event_id":"79799","title":"Xamarin もくもく会 豊橋 #2","url":"https://kuxu.connpass.com/event/79799/","shortener_url":null,"started_at":"2018-02-23T03:00:00.000+09:00","ended_at":"2018-02-23T05:00:00.000+09:00","limit_number":5,"address":"愛知県豊橋市西幸町浜池３３３−９ 豊橋サイエンスコア 1F","place":"Startup Garage","lat":34.7216,"lon":137.412,"state":"active","id":null},{"event_id":"79960","title":"Cloud Study Jam","url":"https://gdgkyoto.connpass.com/event/79960/","shortener_url":null,"started_at":"2018-02-24T13:30:00.000+09:00","ended_at":"2018-02-24T18:00:00.000+09:00","limit_number":9,"address":"東大阪市小若江３−４−１","place":"近畿大学東大阪キャンパス","lat":34.6515,"lon":135.587,"state":"active","id":null},{"event_id":"77136","title":"札幌版IoT縛りの勉強会！IoTLT札幌 Vol.3","url":"https://iotlt.connpass.com/event/77136/","shortener_url":null,"started_at":"2018-02-14T03:45:00.000+09:00","ended_at":"2018-02-14T05:30:00.000+09:00","limit_number":27,"address":"札幌市中央区北1条東4丁目1-1(サッポロファクトリー1条館)","place":"株式会社インフィニットループ会議室(サッポロファクトリー1条館3階)","lat":43.0642,"lon":141.362,"state":"active","id":null},{"event_id":"79887","title":"PHPでハッカソン！第2回 CI\u0026T Hackathon【2月24日】","url":"https://ciandt-hackathon.connpass.com/event/79887/","shortener_url":"https://goo.gl/5UaYg7","started_at":"2018-02-24T08:00:00.000+09:00","ended_at":"2018-02-24T18:30:00.000+09:00","limit_number":10,"address":"東京都墨田区江東橋4-26-5、東京トラフィック錦糸町ビル 7階","place":"CI\u0026T Japan","lat":35.6955,"lon":139.816,"state":"active","id":null},{"event_id":"79885","title":"CI\u0026T Hackathon, 2/24","url":"https://ciandt-hackathon.connpass.com/event/79885/","shortener_url":"https://goo.gl/dGGyDk","started_at":"2018-02-24T08:00:00.000+09:00","ended_at":"2018-02-24T18:30:00.000+09:00","limit_number":10,"address":"東京都墨田区江東橋4-26-5、東京トラフィック錦糸町ビル 7階","place":"CI\u0026T Japan","lat":35.6955,"lon":139.816,"state":"active","id":null},{"event_id":"345558","title":"【大学生限定無料】ジャーナリストとローカルメディア編集長が直伝！情報の伝え方講座　Vol.1","url":"http://peatix.com/event/345558","shortener_url":null,"started_at":"2018-02-28T22:00:00.000+09:00","ended_at":"2018-03-03T08:59:59.000+09:00","limit_number":null,"address":"〒150-0002  東京都渋谷区渋谷3-3-5 NBF渋谷イースト","place":"株式会社フロンティアインターナショナル渋谷オフィス","lat":35.6567,"lon":139.707,"state":"active","id":null},{"event_id":"353120","title":"PreStartup＠事業デザインワークショップ","url":"http://business-design.peatix.com","shortener_url":null,"started_at":"2018-02-25T22:15:00.000+09:00","ended_at":"2018-02-28T08:59:59.000+09:00","limit_number":null,"address":"中央区日本橋本町2丁目3−11","place":"日本橋ライフサイエンスビル","lat":35.6877,"lon":139.776,"state":"active","id":null},{"event_id":"80060","title":"Sota講習会 【Vstone Magicを始めよう】 Part 3（有料）","url":"https://sota.connpass.com/event/80060/","shortener_url":null,"started_at":"2018-02-24T23:30:00.000+09:00","ended_at":"2018-02-25T00:20:00.000+09:00","limit_number":4,"address":"東京都千代田区外神田1-9-9 内田ビル4F","place":"ヴイストン ロボットセンター秋葉原店","lat":35.6987,"lon":139.77,"state":"active","id":null},{"event_id":"354472","title":"X-jamのいろりばた会議Vol.13 「「ドキュメンタリーを撮る写真家」和田芽衣さんが見ている世界。医療福祉の現場で撮り続けるのはなぜ？","url":"http://peatix.com/event/354472","shortener_url":null,"started_at":"2018-02-28T04:00:00.000+09:00","ended_at":"2018-03-02T08:59:59.000+09:00","limit_number":null,"address":"飯能市八幡町8-20","place":"atelier HACHI","lat":35.8545,"lon":139.321,"state":"active","id":null},{"event_id":"353814","title":"TechTarik #1 - What The Hack-athon means for Industry 4.0","url":"http://peatix.com/event/353814","shortener_url":null,"started_at":"2018-02-28T20:00:00.000+09:00","ended_at":"2018-03-03T08:59:59.000+09:00","limit_number":null,"address":"MIDA Sentral No. 5, Jalan Stesen Sentral 5, Kuala Lumpur Sentral, Kuala Lumpur","place":"Malaysian Investment Development Authority","lat":3.13296,"lon":101.684,"state":"active","id":null},{"event_id":"354369","title":"2/25ようパレ8・モーニングスタッフ","url":"http://peatix.com/event/354369","shortener_url":null,"started_at":"2018-02-25T18:30:00.000+09:00","ended_at":"2018-02-28T08:59:59.000+09:00","limit_number":null,"address":"台東区花川戸2丁目6−5","place":"東京都立産業貿易センター台東館","lat":35.7144,"lon":139.799,"state":"active","id":null},{"event_id":"94951","title":"第51回よちよちAndroid名古屋支部オフライン開発ミーティング","url":"https://atnd.org/events/94951","shortener_url":null,"started_at":"2018-02-25T09:00:00.000+09:00","ended_at":"2018-02-25T12:00:00.000+09:00","limit_number":null,"address":"名古屋市中区栄三丁目18番1号 ナディアパーク デザインセンタービル6階","place":"名古屋市市民活動推進センター","lat":35.1654,"lon":136.905,"state":"closed","id":null},{"event_id":"80468","title":"第13回 強化学習アーキテクチャ勉強会","url":"https://rlarch.connpass.com/event/80468/","shortener_url":"https://goo.gl/Uim5E5","started_at":"2018-02-28T03:45:00.000+09:00","ended_at":"2018-02-28T04:40:00.000+09:00","limit_number":40,"address":"東京都文京区本郷5丁目24-5　角川本郷ビル6F","place":"φcafe","lat":35.7092,"lon":139.761,"state":"active","id":null},{"event_id":"107526","title":"Ngopi Sambil Maen Judi Memang Asik","url":"https://atnd.org/events/107526","shortener_url":null,"started_at":"2018-02-04T01:30:00.000+09:00","ended_at":"2018-08-15T01:00:00.000+09:00","limit_number":null,"address":"","place":"","lat":null,"lon":null,"state":"closed","id":null},{"event_id":"43524743680","title":"Develop a Successful Cybersecurity Tech Startup Business Company Today!","url":"https://www.eventbrite.com/e/develop-a-successful-cybersecurity-tech-startup-business-company-today-tickets-43524743680","shortener_url":null,"started_at":"2018-02-26T03:00:00.000+09:00","ended_at":"2022-12-29T07:00:00.000+09:00","limit_number":null,"address":null,"place":"online","lat":null,"lon":null,"state":"active","id":null},{"event_id":"43515287396","title":"Develop a Successful Artificial Intelligence Tech Startup Business Today!","url":"https://www.eventbrite.com/e/develop-a-successful-artificial-intelligence-tech-startup-business-today-tickets-43515287396","shortener_url":null,"started_at":"2018-02-28T03:00:00.000+09:00","ended_at":"2022-12-28T07:00:00.000+09:00","limit_number":null,"address":null,"place":"online","lat":null,"lon":null,"state":"active","id":null}]