[{"event_id":"339067","title":"9.22~23 英語集中講座〜マルチリンガルメソッド2day講座〜","url":"http://multilingual922.peatix.com","shortener_url":null,"started_at":"2018-09-22T19:00:00.000+09:00","ended_at":"2018-09-25T08:59:59.000+09:00","limit_number":null,"address":"四ツ谷","place":"マルチリンガルサロン in 四谷","lat":35.6862,"lon":139.73,"state":"active","id":null},{"event_id":"314620","title":"Emerald Hill Walking Tour  ","url":"http://emhill2509.peatix.com","shortener_url":null,"started_at":"2018-09-25T19:00:00.000+09:00","ended_at":"2018-09-28T08:59:59.000+09:00","limit_number":null,"address":"Emerald Hill Road","place":"Emerald Hill Singapore","lat":1.30373,"lon":103.84,"state":"active","id":null},{"event_id":"377178","title":"N-festa","url":"http://peatix.com/event/377178","shortener_url":null,"started_at":"2018-09-23T18:00:00.000+09:00","ended_at":"2018-09-26T08:59:59.000+09:00","limit_number":null,"address":"〒300-0032 茨城県 土浦市 湖北2-10-35","place":"アール医療福祉専門学校","lat":36.0849,"lon":140.213,"state":"active","id":null},{"event_id":"377476","title":"RACHEL BRICE 2018 \"PARALUMAN\" SHOW \u0026 WORKSHOPS / レイチェル・ブライス \"パラルマン\" ショー\u0026ダンスワークショップ","url":"http://peatix.com/event/377476","shortener_url":null,"started_at":"2018-09-08T03:30:00.000+09:00","ended_at":"2018-09-10T08:59:59.000+09:00","limit_number":null,"address":"スクエア荏原, 4 Chome-5−28 Ebara, 品川区","place":"Square Ebara Hiratsuka Hall","lat":35.6155,"lon":139.707,"state":"active","id":null},{"event_id":"378638","title":"【参加者募集】アトツギU34のための事業開発アイデアソン","url":"http://atotugithon2018s.peatix.com","shortener_url":"https://goo.gl/RhfHbH","started_at":"2018-09-01T04:00:00.000+09:00","ended_at":"2018-09-03T08:59:59.000+09:00","limit_number":null,"address":"〒530-0014 大阪府大阪市北区鶴野町1番5号","place":"関西大学梅田キャンパス／大阪イノベーションハブ","lat":34.7065,"lon":135.501,"state":"active","id":null},{"event_id":"378650","title":"【エントリー受付中】アトツギのための新規事業ピッチコンテスト","url":"http://atotugipitch-2018s.peatix.com","shortener_url":null,"started_at":"2018-09-24T22:00:00.000+09:00","ended_at":"2018-09-27T08:59:59.000+09:00","limit_number":null,"address":"大阪市 北区大深町3番1号 グランフロント大阪 ナレッジキャピタルタワーC 7階","place":"大阪イノベーションハブ","lat":34.7059,"lon":135.495,"state":"active","id":null},{"event_id":"387350","title":"旅祭2018×PEACE DAY- Play on Earth , Believe in Peace -","url":"http://peatix.com/event/387350","shortener_url":null,"started_at":"2018-09-01T19:00:00.000+09:00","ended_at":"2018-09-04T08:59:59.000+09:00","limit_number":null,"address":"千葉市美浜区豊砂114","place":"幕張海浜公園 Gブロック","lat":35.6504,"lon":140.027,"state":"active","id":null},{"event_id":"88340","title":"[秋葉原] Unityもくもく勉強会×1週間ゲームジャム追込＆打上会","url":"https://weeyble-game.connpass.com/event/88340/","shortener_url":"https://goo.gl/bRnJtF","started_at":"2018-09-02T18:00:00.000+09:00","ended_at":"2018-09-02T22:00:00.000+09:00","limit_number":22,"address":"東京都千代田区神田須田町２丁目１９−２３ (野村第３ビル ４階)","place":"コワーキングスペース秋葉原Weeyble","lat":35.6966,"lon":139.772,"state":"active","id":null},{"event_id":"381772","title":"【OTOMANA】御菓子司にならう　季節を彩る　桔梗と山の秋の和菓子づくり","url":"http://edoart0909.peatix.com","shortener_url":null,"started_at":"2018-09-09T20:00:00.000+09:00","ended_at":"2018-09-12T08:59:59.000+09:00","limit_number":null,"address":"東京都新宿区新宿3-15-17","place":"新宿伊勢丹会館5F","lat":35.6925,"lon":139.704,"state":"active","id":null},{"event_id":"394898","title":"【edoARTworkshop】鳥居 満智栄の恋する和菓子づくり～９月編","url":"http://edoart0901.peatix.com","shortener_url":null,"started_at":"2018-09-01T22:30:00.000+09:00","ended_at":"2018-09-04T08:59:59.000+09:00","limit_number":null,"address":"東京都台東区西浅草2-6-2","place":"かっぱ橋道具街 はし藤本店 ２Ｆ","lat":35.7127,"lon":139.789,"state":"active","id":null},{"event_id":"395385","title":"ジブン起業塾 ～基礎講座～第0-2期 in 大阪","url":"http://jibun-startup20180917.peatix.com","shortener_url":null,"started_at":"2018-09-17T19:30:00.000+09:00","ended_at":"2018-09-20T08:59:59.000+09:00","limit_number":null,"address":"大阪市北区堂島2-1-25","place":"堂島インキュベーションサロン","lat":34.696,"lon":135.495,"state":"active","id":null},{"event_id":"397611","title":"ITAMI GREENJAM2018","url":"http://itamigreenjam2018.peatix.com","shortener_url":null,"started_at":"2018-09-01T19:00:00.000+09:00","ended_at":"2018-09-04T08:59:59.000+09:00","limit_number":null,"address":"兵庫県伊丹市昆陽池","place":"兵庫県伊丹市昆陽池公園","lat":0.0,"lon":0.0,"state":"active","id":null},{"event_id":"388783","title":"【9/2開催】「アトツギソン」最終日！観覧者募集！","url":"http://peatix.com/event/388783","shortener_url":null,"started_at":"2018-09-03T01:00:00.000+09:00","ended_at":"2018-09-05T08:59:59.000+09:00","limit_number":null,"address":"大阪府大阪市北区大深町3","place":"日本、大阪府大阪市北区大深町３ 大阪イノベーションハブ","lat":34.7069,"lon":135.494,"state":"active","id":null},{"event_id":"398016","title":"【残席18】優勝作品100万円！SOCIAL FIGHTER AWARD最終審査会","url":"http://sfaward917.peatix.com","shortener_url":"https://goo.gl/Mrvd7L","started_at":"2018-09-17T22:00:00.000+09:00","ended_at":"2018-09-20T08:59:59.000+09:00","limit_number":null,"address":"〒108-0075 東京都 港区東京都港区港南 2-16-3 品川グランドセントラルタワー","place":"日本マイクロソフト","lat":35.6267,"lon":139.74,"state":"active","id":null},{"event_id":"389674","title":"第5回 ハニカムジカ 【午前の部】","url":"http://hanicamusica180922-am.peatix.com","shortener_url":null,"started_at":"2018-09-22T19:30:00.000+09:00","ended_at":"2018-09-25T08:59:59.000+09:00","limit_number":null,"address":"東京都目黒区八雲1-1-1","place":"めぐろパーシモンホール　小ホール","lat":35.6215,"lon":139.673,"state":"active","id":null},{"event_id":"395500","title":"第5回 ハニカムジカ 【午後の部】","url":"http://hanicamusica180922-pm.peatix.com","shortener_url":null,"started_at":"2018-09-22T22:30:00.000+09:00","ended_at":"2018-09-25T08:59:59.000+09:00","limit_number":null,"address":"東京都目黒区八雲1-1-1","place":"めぐろパーシモンホール　小ホール","lat":35.6215,"lon":139.673,"state":"active","id":null},{"event_id":"398673","title":"8/31(金) にほんごナイト@六本木 / Nihongo Night at Stylish Bar in Roppongi","url":"http://peatix.com/event/398673","shortener_url":null,"started_at":"2018-09-01T04:00:00.000+09:00","ended_at":"2018-09-03T08:59:59.000+09:00","limit_number":null,"address":"東京都港区六本木5-3-1レーヌ第2ビル3F","place":"BAR QUEST ","lat":35.6621,"lon":139.733,"state":"active","id":null},{"event_id":"398773","title":"9月16日(日)18:00～★ 青山【シングル限定】優雅なセレブラウンジでGaitomo国際交流パーティー","url":"http://peatix.com/event/398773","shortener_url":null,"started_at":"2018-09-17T03:00:00.000+09:00","ended_at":"2018-09-19T08:59:59.000+09:00","limit_number":null,"address":"東京都港区北青山3-2-5 NH青山ビル2F","place":"青山 Aoyama Lounge ","lat":35.6689,"lon":139.715,"state":"active","id":null},{"event_id":"398747","title":"9月5日(水)19:00～★ 恵比寿 仕事帰りにロマンチックカフェで平日Gaitomo国際交流パーティー","url":"http://peatix.com/event/398747","shortener_url":null,"started_at":"2018-09-06T04:00:00.000+09:00","ended_at":"2018-09-08T08:59:59.000+09:00","limit_number":null,"address":"渋谷区恵比寿1丁目18−14","place":"dot.Eatery and Bar","lat":35.6475,"lon":139.715,"state":"active","id":null},{"event_id":"398935","title":"9月19日(水)19:00～★ 恵比寿 仕事帰りに駅近のお洒落カフェで平日Gaitomo国際交流パーティー","url":"http://peatix.com/event/398935","shortener_url":null,"started_at":"2018-09-20T04:00:00.000+09:00","ended_at":"2018-09-22T08:59:59.000+09:00","limit_number":null,"address":"東京都渋谷区恵比寿南1-3-2","place":"恵比寿 dot. Grill and Bar ","lat":35.6456,"lon":139.708,"state":"active","id":null},{"event_id":"399605","title":"8月31日(金)19:00～★ 恵比寿 新しい出会いの場立ち飲みバーでGaitomo国際交流パーティー","url":"http://peatix.com/event/399605","shortener_url":null,"started_at":"2018-09-01T04:00:00.000+09:00","ended_at":"2018-09-03T08:59:59.000+09:00","limit_number":null,"address":"渋谷区恵比寿1丁目7−4 2階","place":"私を恵比寿に連れてって 330BAR","lat":35.648,"lon":139.71,"state":"active","id":null},{"event_id":"399346","title":"9月23日(日)18:00～★ 銀座 初めての方でも参加しやすい人気エリアでGaitomo国際交流パーティー","url":"http://peatix.com/event/399346","shortener_url":null,"started_at":"2018-09-24T03:00:00.000+09:00","ended_at":"2018-09-26T08:59:59.000+09:00","limit_number":null,"address":"中央区銀座5丁目9−13 菊正ビル9F","place":"パーティプラネット「銀座ＰＰサロン」-貸切ダイニング-","lat":35.6699,"lon":139.765,"state":"active","id":null},{"event_id":"399601","title":"9月17日(月祝)18:00～★ 赤坂見附【１人参加限定】アクセス抜群Gaitomo国際交流パーティー","url":"http://peatix.com/event/399601","shortener_url":null,"started_at":"2018-09-18T03:00:00.000+09:00","ended_at":"2018-09-20T08:59:59.000+09:00","limit_number":null,"address":"TS共和六番館, 3丁目-21−14 赤坂, 港区","place":"貸切パーティのお店 FIORE｜フィオーレ","lat":35.6768,"lon":139.736,"state":"active","id":null},{"event_id":"88839","title":"IoTハッカソン 〜business〜","url":"https://ueqareer.connpass.com/event/88839/","shortener_url":"https://goo.gl/ffGEgU","started_at":"2018-09-01T10:00:00.000+09:00","ended_at":"2018-09-02T17:30:00.000+09:00","limit_number":45,"address":"東京都品川区大崎1-2-2（アートヴィレッジ大崎セントラルタワー14階 リビングルーム）","place":"フューチャーアーキテクト","lat":35.6223,"lon":139.727,"state":"active","id":null},{"event_id":"400616","title":"9/23タロット読書会（「悪魔 Devil」×「マリー・アントワネット」に関する本）＠下北沢","url":"http://peatix.com/event/400616","shortener_url":null,"started_at":"2018-09-23T23:00:00.000+09:00","ended_at":"2018-09-26T08:59:59.000+09:00","limit_number":null,"address":"東京都世田谷区北沢3-30-3","place":"日本、東京都世田谷区北沢３丁目３０ Tbooks下北沢","lat":35.6644,"lon":139.667,"state":"active","id":null},{"event_id":"403048","title":"ROTH BART BARON Live at FEVER","url":"http://rbbliveatfever0916.peatix.com","shortener_url":null,"started_at":"2018-09-17T02:00:00.000+09:00","ended_at":"2018-09-19T08:59:59.000+09:00","limit_number":null,"address":"世田谷区 羽根木1丁目1−14新代田ビル1F","place":"LIVE HOUSE FEVER","lat":35.6628,"lon":139.66,"state":"active","id":null},{"event_id":"369627","title":"TEDxKobe 2018: Burning to Go!","url":"http://tedxkobe2018.peatix.com","shortener_url":null,"started_at":"2018-09-24T19:00:00.000+09:00","ended_at":"2018-09-27T08:59:59.000+09:00","limit_number":null,"address":"兵庫県神戸市東灘区岡本8丁目9−1","place":"甲南大学 岡本キャンパス (甲友会館・i-commons) 〒658-8501 兵庫県神戸市東灘区岡本8-9-1","lat":34.7297,"lon":135.268,"state":"active","id":null},{"event_id":"92120","title":"琵琶湖 coding camp 2018","url":"https://connpass.com/event/92120/","shortener_url":null,"started_at":"2018-09-07T15:00:00.000+09:00","ended_at":"2018-09-09T12:00:00.000+09:00","limit_number":18,"address":"〒526-0829 長浜市田村町１４１１番地１","place":"長浜バイオ大学ドーム研修施設","lat":35.3514,"lon":136.279,"state":"active","id":null},{"event_id":"403726","title":"9/1(土) 20代の異文化交流会@西新宿/ 20's Social Meetup in Nishi-Shinjuku","url":"http://peatix.com/event/403726","shortener_url":null,"started_at":"2018-09-01T23:00:00.000+09:00","ended_at":"2018-09-04T08:59:59.000+09:00","limit_number":null,"address":"新宿区西新宿8丁目19−11","place":"KASHIWAGI CAFE","lat":35.6956,"lon":139.691,"state":"active","id":null},{"event_id":"402772","title":"Emerald Hill Walking Tour","url":"http://emeraldhill240918.peatix.com","shortener_url":null,"started_at":"2018-09-24T19:00:00.000+09:00","ended_at":"2018-09-27T08:59:59.000+09:00","limit_number":null,"address":"57 Cuppage Rd, Singapore 229468","place":"Emerald Hill","lat":1.30313,"lon":103.84,"state":"active","id":null},{"event_id":"404775","title":"9/1(土)~2(日) festivo ウェブデザイン Camp@東京 【学生15,000円、一般20,000円】～2講師体制で戦うスキルを身につける15時間！HTML/CSS/WEBサイトコーディング/Photoshop集中合宿！～","url":"http://peatix.com/event/404775","shortener_url":"https://goo.gl/MMQWsx","started_at":"2018-09-01T19:30:00.000+09:00","ended_at":"2018-09-04T08:59:59.000+09:00","limit_number":null,"address":"東京都練馬区豊玉北3-15-17","place":"起業家シェアハウス x-garden セミナールーム","lat":35.7329,"lon":139.661,"state":"active","id":null},{"event_id":"404770","title":"（大阪）9/23(日)~24(祝)festivo はじめてのプログラミング Camp【学生15,000円、一般20,000円】～戦うスキルを身につける15時間！プログラミング概要からPHP/SQL集中合宿！～","url":"http://peatix.com/event/404770","shortener_url":"https://goo.gl/6oEEE6","started_at":"2018-09-23T19:00:00.000+09:00","ended_at":"2018-09-26T08:59:59.000+09:00","limit_number":null,"address":"大阪市中央区備後町3-6-2 大雅ビル10F","place":"オオサカンスペース","lat":34.6849,"lon":135.501,"state":"active","id":null},{"event_id":"404390","title":"9/5(Wed) Roppongi Italian Night /Free Entrance for Italian Native Speakers","url":"http://peatix.com/event/404390","shortener_url":null,"started_at":"2018-09-06T04:00:00.000+09:00","ended_at":"2018-09-08T08:59:59.000+09:00","limit_number":null,"address":"東京都港区六本木3−16−33","place":"Hobgoblin Roppongi","lat":35.6623,"lon":139.737,"state":"active","id":null},{"event_id":"404388","title":"9/5(水) イタリアンナイト@六本木 / Italian Night in Roppongi","url":"http://peatix.com/event/404388","shortener_url":null,"started_at":"2018-09-06T04:00:00.000+09:00","ended_at":"2018-09-08T08:59:59.000+09:00","limit_number":null,"address":"東京都港区六本木3−16−33","place":"Hobgoblin Roppongi","lat":35.6623,"lon":139.737,"state":"active","id":null},{"event_id":"404749","title":"9/6(Thu) Shibuya Japanese Sake Night","url":"http://peatix.com/event/404749","shortener_url":null,"started_at":"2018-09-07T04:00:00.000+09:00","ended_at":"2018-09-09T08:59:59.000+09:00","limit_number":null,"address":"東京都渋谷区円山町1-1","place":"NCREDIBLE","lat":35.6598,"lon":139.695,"state":"active","id":null},{"event_id":"404687","title":"9/5(水) イタリアンナイト@六本木 / Italian Night in Roppongi","url":"http://peatix.com/event/404687","shortener_url":null,"started_at":"2018-09-06T04:00:00.000+09:00","ended_at":"2018-09-08T08:59:59.000+09:00","limit_number":null,"address":"港区六本木3丁目16−33","place":"Hobgoblin Roppongi British Pub","lat":35.6619,"lon":139.736,"state":"active","id":null},{"event_id":"94041","title":"熊本ショッカソン2018","url":"https://kumamcn.connpass.com/event/94041/","shortener_url":"https://goo.gl/SLNMTY","started_at":"2018-09-01T09:30:00.000+09:00","ended_at":"2018-09-02T18:00:00.000+09:00","limit_number":20,"address":"熊本市中央区世安町172","place":"びぷれす","lat":32.7895,"lon":130.69,"state":"active","id":null},{"event_id":"405661","title":"H³ 第十六回：”価値に基づく医療費支払”入門講座","url":"http://hhh16.peatix.com","shortener_url":"https://goo.gl/dgTwVB","started_at":"2018-09-21T04:00:00.000+09:00","ended_at":"2018-09-23T08:59:59.000+09:00","limit_number":null,"address":"東京都中央区日本橋本町2-3-11","place":" 日本橋ライフサイエンスビル","lat":35.6877,"lon":139.776,"state":"active","id":null},{"event_id":"402335","title":"第3回・東京版石積みワークショップ～石積み学校 in 檜原村のわさび田～","url":"http://hinoharawabi3biya-stonework3.peatix.com","shortener_url":null,"started_at":"2018-09-22T18:30:00.000+09:00","ended_at":"2018-09-25T08:59:59.000+09:00","limit_number":null,"address":"檜原村人里","place":"ゲストハウス へんぼり堂","lat":35.7132,"lon":139.087,"state":"active","id":null},{"event_id":"405035","title":"LABOR DAY PARTY! (FRI) レーバー・デイ パーティー（金）","url":"http://peatix.com/event/405035","shortener_url":null,"started_at":"2018-09-01T04:00:00.000+09:00","ended_at":"2018-09-03T08:59:59.000+09:00","limit_number":null,"address":"東京都港区六本木3-14-9 ユア六本木2F","place":"Bar Propaganda (2F)","lat":35.6623,"lon":139.735,"state":"active","id":null},{"event_id":"405036","title":"LABOR DAY PARTY! (SAT) レーバー・デイ パーティー（土）","url":"http://peatix.com/event/405036","shortener_url":null,"started_at":"2018-09-02T04:00:00.000+09:00","ended_at":"2018-09-04T08:59:59.000+09:00","limit_number":null,"address":"東京都港区六本木3-14-9 ユア六本木2F","place":"Bar Propaganda (2F)","lat":35.6623,"lon":139.735,"state":"active","id":null},{"event_id":"404732","title":"Foodiegram Sundays 2018: Bangkok Jam","url":"http://0209msqfs-bangkokjam.peatix.com","shortener_url":null,"started_at":"2018-09-02T23:00:00.000+09:00","ended_at":"2018-09-05T08:59:59.000+09:00","limit_number":null,"address":"02-105B/C, 6 Raffles Boulevard, Singapore","place":"Bangkok Jam","lat":1.2922,"lon":103.857,"state":"active","id":null},{"event_id":"92618","title":"【大阪】VTuberハッカソン大阪大会","url":"https://osaka-driven-dev.connpass.com/event/92618/","shortener_url":"https://goo.gl/NGkh1k","started_at":"2018-09-01T18:30:00.000+09:00","ended_at":"2018-09-03T06:00:00.000+09:00","limit_number":59,"address":"大阪市中央区本町4丁目2番12号 東芝大阪ビル8F","place":"billageOsaka","lat":34.6834,"lon":135.5,"state":"active","id":null},{"event_id":"404778","title":"Foodiegram Sundays 2018: Collin's","url":"http://0909msqfs-collins.peatix.com","shortener_url":null,"started_at":"2018-09-09T23:00:00.000+09:00","ended_at":"2018-09-12T08:59:59.000+09:00","limit_number":null,"address":"6 Raffles Boulevard, 01-204/205, Singapore","place":"COLLIN'S Marina Square","lat":1.29148,"lon":103.858,"state":"active","id":null},{"event_id":"387041","title":"Zen2.0 マインドフルネス国際フォーラム - Kamakura, Japan (Sept. 8-9, 2018）","url":"http://zen20-20180908-09.peatix.com","shortener_url":null,"started_at":"2018-09-08T18:00:00.000+09:00","ended_at":"2018-09-11T08:59:59.000+09:00","limit_number":null,"address":"神奈川県鎌倉市山之内8","place":"北鎌倉 大本山 建長寺／鎌倉学園","lat":35.3313,"lon":139.554,"state":"active","id":null},{"event_id":"406238","title":"9/8(Sat) Nihongo Night in Nishi-Shinjuku","url":"http://peatix.com/event/406238","shortener_url":null,"started_at":"2018-09-09T04:00:00.000+09:00","ended_at":"2018-09-11T08:59:59.000+09:00","limit_number":null,"address":"東京都新宿区西新宿8-19-11","place":"KASHIWAGI CAFE  ","lat":35.6956,"lon":139.691,"state":"active","id":null},{"event_id":"406239","title":"9/9(Sun) Drink Meetup in Meguro / FREE Entrance for Non-Japanese","url":"http://peatix.com/event/406239","shortener_url":null,"started_at":"2018-09-10T03:00:00.000+09:00","ended_at":"2018-09-12T08:59:59.000+09:00","limit_number":null,"address":"目黒区下目黒1-3-28","place":"The Meguro Tavern","lat":35.6343,"lon":139.713,"state":"active","id":null},{"event_id":"406235","title":"9/8(土) にほんごナイト@西新宿 / Nihongo Night in NishiShinjuku","url":"http://peatix.com/event/406235","shortener_url":null,"started_at":"2018-09-09T04:00:00.000+09:00","ended_at":"2018-09-11T08:59:59.000+09:00","limit_number":null,"address":"東京都新宿区西新宿8-19-11","place":"KASHIWAGI CAFE ","lat":35.6956,"lon":139.691,"state":"active","id":null},{"event_id":"407514","title":"9月22日(土)19:00～★ 西麻布 シックでお洒落なNYスタイルのバーでGaitomo国際交流パーティー","url":"http://peatix.com/event/407514","shortener_url":null,"started_at":"2018-09-23T04:00:00.000+09:00","ended_at":"2018-09-25T08:59:59.000+09:00","limit_number":null,"address":"東京都港区西麻布1-4-10","place":"西麻布 B612 ","lat":35.6619,"lon":139.726,"state":"active","id":null},{"event_id":"407603","title":"9月29日（土）クラウドファンディングで始める創業スタイル","url":"http://180929crowd.peatix.com","shortener_url":null,"started_at":"2018-09-29T22:10:00.000+09:00","ended_at":"2018-10-02T08:59:59.000+09:00","limit_number":null,"address":"横浜市中区海岸通1-1","place":"波止場会館　４Ｆ小会議室Ａ","lat":35.4484,"lon":139.645,"state":"active","id":null},{"event_id":"407518","title":"9月29日（土）アイデアからビジネスを創るワークショップ「Startup Discussion」","url":"http://180929discussion.peatix.com","shortener_url":null,"started_at":"2018-09-29T23:30:00.000+09:00","ended_at":"2018-10-02T08:59:59.000+09:00","limit_number":null,"address":"横浜市中区海岸通1-1","place":"波止場会館　４Ｆ小会議室Ａ","lat":35.4483,"lon":139.645,"state":"active","id":null},{"event_id":"94676","title":"京都Devかふぇ#3 〜フロントエンド〜","url":"https://kyoto-dev-cafe.connpass.com/event/94676/","shortener_url":null,"started_at":"2018-09-15T04:00:00.000+09:00","ended_at":"2018-09-15T06:30:00.000+09:00","limit_number":53,"address":"Kyoto Prefecture, Kyoto, Shimogyo Ward, 烏丸通七条下ル東塩小路町721-1","place":"フリュー株式会社会議室（京都タワーホテル4階）","lat":34.9875,"lon":135.759,"state":"active","id":null},{"event_id":"92167","title":"データから考える和歌山のミライセミナー","url":"https://connpass.com/event/92167/","shortener_url":"https://goo.gl/GqHGJt","started_at":"2018-09-13T22:30:00.000+09:00","ended_at":"2018-09-14T01:30:00.000+09:00","limit_number":70,"address":"熊本市中央区桜町3-1","place":"IoTスクウェア熊本","lat":32.8012,"lon":130.704,"state":"active","id":null},{"event_id":"92162","title":"和歌山県×NTTドコモ　地方創生ハッカソン","url":"https://connpass.com/event/92162/","shortener_url":"https://goo.gl/rgn36A","started_at":"2018-09-01T11:00:00.000+09:00","ended_at":"2018-09-02T19:30:00.000+09:00","limit_number":40,"address":"熊本市中央区桜町3-1","place":"IoTスクウェア熊本","lat":32.8012,"lon":130.704,"state":"active","id":null},{"event_id":"408712","title":"【募集開始】常陸の国・里山古民家＆野外ワークショップ＆マインドフルネス合宿（9月1日・2日）","url":"http://hoops.peatix.com","shortener_url":null,"started_at":"2018-09-01T19:00:00.000+09:00","ended_at":"2018-09-04T08:59:59.000+09:00","limit_number":null,"address":"茨城県常陸太田市大中町1547","place":"里美 150年古民家の宿「荒蒔邸」","lat":36.7327,"lon":140.491,"state":"active","id":null},{"event_id":"408699","title":"『ソーシャルメディア四半世紀:情報資本主義に飲み込まれる時間とコンテンツ』東京経済大学　佐々木裕一教授　2018/9/5（水）19:00-21:00 遊学堂（ビジネスエアポート東京）","url":"http://peatix.com/event/408699","shortener_url":null,"started_at":"2018-09-06T04:00:00.000+09:00","ended_at":"2018-09-08T08:59:59.000+09:00","limit_number":null,"address":"東京都千代田区丸の内1-1-3 日本生命丸の内ガーデンタワー3階 ビジネスエアポート東京「遊学堂」","place":" 「遊学堂」ビジネスエアポート東京","lat":35.6849,"lon":139.762,"state":"active","id":null},{"event_id":"408114","title":"EMURGOブロックチェーンハッカソン@東京理科大学 主催：EMURGO（エマーゴ）／東京理科大学インベストメント・マネジメント","url":"http://emurgo-rikadai-hackathon.peatix.com","shortener_url":"https://goo.gl/yVbEze","started_at":"2018-09-07T22:00:00.000+09:00","ended_at":"2018-09-10T08:59:59.000+09:00","limit_number":null,"address":"東京都新宿区神楽河岸1-1","place":"セントラルプラザ・ラムラ内、東京理科大学インベストメント・マネジメント","lat":35.701,"lon":139.744,"state":"active","id":null},{"event_id":"408840","title":"LABOR DAY PARTY! (FRI) レーバー・デイ パーティー！（金）","url":"http://peatix.com/event/408840","shortener_url":null,"started_at":"2018-09-01T04:00:00.000+09:00","ended_at":"2018-09-03T08:59:59.000+09:00","limit_number":null,"address":"大阪市中央区東心斎橋2-5-27","place":"The Blarney Stone (B1F)","lat":34.6718,"lon":135.504,"state":"active","id":null},{"event_id":"408841","title":"LABOR DAY PARTY! (SAT) レーバー・デイ パーティー！（土）","url":"http://peatix.com/event/408841","shortener_url":null,"started_at":"2018-09-02T04:00:00.000+09:00","ended_at":"2018-09-04T08:59:59.000+09:00","limit_number":null,"address":"1 Chome7-18 Nishishinsaibashi, Chuo Ward, Osaka, Osaka Prefecture","place":"Domus by DS","lat":34.6726,"lon":135.498,"state":"active","id":null},{"event_id":"409445","title":"関西【9/26(水)朝10:00】自分史上最高にSEXYな1枚を撮る「秘めフォト部」！新しく「SEXY」な自分を見つけて明日に自信を持つための女性限定フォトサービス！《10名様限定／初めての方大歓迎》","url":"http://peatix.com/event/409445","shortener_url":null,"started_at":"2018-09-26T19:00:00.000+09:00","ended_at":"2018-09-29T08:59:59.000+09:00","limit_number":null,"address":"京都府京都市東山区博多町112−5","place":"京都天狼院","lat":35.0017,"lon":135.773,"state":"active","id":null},{"event_id":"408517","title":"関西【9/21(金)夜19:30】自分史上最高にSEXYな1枚を撮る「秘めフォト部」！新しく「SEXY」な自分を見つけて明日に自信を持つための女性限定フォトサービス！《10名様限定／初めての方大歓迎》","url":"http://peatix.com/event/408517","shortener_url":null,"started_at":"2018-09-22T04:30:00.000+09:00","ended_at":"2018-09-24T08:59:59.000+09:00","limit_number":null,"address":"京都府京都市東山区博多町112−5","place":"京都天狼院","lat":35.0017,"lon":135.773,"state":"active","id":null},{"event_id":"408881","title":"JDL 2018 Round5 ログホテル ザ・メープルロッジ 北海道","url":"http://peatix.com/event/408881","shortener_url":null,"started_at":"2018-09-22T17:00:00.000+09:00","ended_at":"2018-09-25T08:59:59.000+09:00","limit_number":null,"address":"北海道岩見沢市毛陽町183","place":"LOG HOTEL THE MAPLELODGE  ","lat":43.1568,"lon":141.93,"state":"active","id":null},{"event_id":"88967","title":"匠の夏まつり2018　～みんなValue Hackerになろう！～","url":"https://it-takumi.connpass.com/event/88967/","shortener_url":null,"started_at":"2018-09-14T23:00:00.000+09:00","ended_at":"2018-09-15T03:00:00.000+09:00","limit_number":60,"address":"東京都千代田区内神田３丁目２４−５","place":"エッサム神田ホール2号館（6F）","lat":35.6924,"lon":139.769,"state":"active","id":null},{"event_id":"77070","title":"スタートアップウィークエンド京都インターナショナル","url":"https://swkyoto.doorkeeper.jp/events/77070","shortener_url":null,"started_at":"2018-09-01T03:30:00.000+09:00","ended_at":"2018-09-03T06:00:00.000+09:00","limit_number":50,"address":"京都市左京区松ヶ崎橋上町","place":"京都工業繊維大学 ノートルダム館　（東３号館）","lat":35.05,"lon":135.783,"state":"active","id":null},{"event_id":"409880","title":"スマートコーチング1Dayキャンプ","url":"http://20180909cyclecamp.peatix.com","shortener_url":null,"started_at":"2018-09-09T15:00:00.000+09:00","ended_at":"2018-09-12T08:59:59.000+09:00","limit_number":null,"address":"山中湖","place":"山梨県山中湖周辺","lat":0.0,"lon":0.0,"state":"active","id":null},{"event_id":"410177","title":"鷺巣詩郎デビュー40周年「アニソン録 プラス。」発売記念LIVE\u0026トークイベント","url":"http://peatix.com/event/410177","shortener_url":null,"started_at":"2018-09-01T03:00:00.000+09:00","ended_at":"2018-09-03T08:59:59.000+09:00","limit_number":null,"address":"渋谷区渋谷1丁目23−16 4階 cocoti SHIBUYA(渋谷 ココチ)","place":"東京カルチャーカルチャー","lat":35.6622,"lon":139.702,"state":"active","id":null},{"event_id":"408319","title":"【edoARTworkshop】竹細工職人が手ほどきする　竹バスケットづくり","url":"http://edoart180902.peatix.com","shortener_url":null,"started_at":"2018-09-02T19:00:00.000+09:00","ended_at":"2018-09-05T08:59:59.000+09:00","limit_number":null,"address":"東京都港区新橋3-26-4","place":"新橋相互ビル　802号室","lat":35.665,"lon":139.759,"state":"active","id":null},{"event_id":"77552","title":"9/1(土)~2(日) festivo ウェブデザイン Camp@東京 【学生15,000円、一般20,000円】～2講師体制で戦うスキルを身につける15時間！HTML/CSS/WEBサイトコーディング/Photoshop集中合宿！～","url":"https://festivo.doorkeeper.jp/events/77552","shortener_url":"https://goo.gl/zxx3eq","started_at":"2018-09-01T19:30:00.000+09:00","ended_at":"2018-09-03T03:30:00.000+09:00","limit_number":3,"address":"東京都練馬区豊玉北3-15-17","place":"起業家シェアハウス x-garden セミナールーム","lat":35.7329,"lon":139.661,"state":"active","id":null},{"event_id":"410228","title":"9/19(Wed) German Night in Roppongi ","url":"http://peatix.com/event/410228","shortener_url":null,"started_at":"2018-09-20T04:00:00.000+09:00","ended_at":"2018-09-22T08:59:59.000+09:00","limit_number":null,"address":"東京都港区六本木3−16−33","place":"Hobgoblin Roppongi","lat":35.6623,"lon":139.737,"state":"active","id":null},{"event_id":"410219","title":"9/17(Mon) Nihongo Night in Roppongi ","url":"http://peatix.com/event/410219","shortener_url":null,"started_at":"2018-09-18T03:00:00.000+09:00","ended_at":"2018-09-20T08:59:59.000+09:00","limit_number":null,"address":"東京都港区六本木3−16−33","place":"Hobgoblin Roppongi","lat":35.6623,"lon":139.737,"state":"active","id":null},{"event_id":"409089","title":"#06 UML東京","url":"http://06umltokyo.peatix.com","shortener_url":null,"started_at":"2018-09-09T01:30:00.000+09:00","ended_at":"2018-09-11T08:59:59.000+09:00","limit_number":null,"address":"東京都千代田区神田駿河台4-6","place":"御茶ノ水 ソラシティアカデミア 3F デジタルハリウッド大学院 駿河台ホール","lat":35.6986,"lon":139.767,"state":"active","id":null},{"event_id":"408075","title":"9月2日(日)18:00～★ 六本木【独身限定】駅近セレブラウンジでGaitomo国際交流パーティー","url":"http://peatix.com/event/408075","shortener_url":null,"started_at":"2018-09-03T03:00:00.000+09:00","ended_at":"2018-09-05T08:59:59.000+09:00","limit_number":null,"address":"東京都港区六本木4-10-10 正直屋ビルB1","place":"六本木 balance(バランス) ","lat":35.6639,"lon":139.732,"state":"active","id":null},{"event_id":"408074","title":"9月1日(土)19:00～★ 六本木 土曜日は新しい飲み友探しGaitomo国際交流パーティー","url":"http://peatix.com/event/408074","shortener_url":null,"started_at":"2018-09-02T04:00:00.000+09:00","ended_at":"2018-09-04T08:59:59.000+09:00","limit_number":null,"address":"港区六本木3丁目13−12 2F エルサビル","place":"MAGNET","lat":35.6629,"lon":139.734,"state":"active","id":null},{"event_id":"408083","title":"9月7日(金)19:00～★ 代官山 婚活恋活OnlyのGaitomo国際交流パーティー","url":"http://peatix.com/event/408083","shortener_url":null,"started_at":"2018-09-08T04:00:00.000+09:00","ended_at":"2018-09-10T08:59:59.000+09:00","limit_number":null,"address":"渋谷区恵比寿西1丁目34−17 B1F Za HOUSE ビル","place":"ユナイス 代官山","lat":35.6468,"lon":139.702,"state":"active","id":null},{"event_id":"77624","title":"Startup Weekend Kumamoto Vol.8","url":"https://swkumamoto.doorkeeper.jp/events/77624","shortener_url":null,"started_at":"2018-09-22T03:00:00.000+09:00","ended_at":"2018-09-24T07:00:00.000+09:00","limit_number":38,"address":"熊本県熊本市中央区下通1-12-27 CORE21 下通ビル5F","place":"未来会議室","lat":32.8001,"lon":130.708,"state":"active","id":null},{"event_id":"95661","title":"学生8ackathon@長崎県立大学","url":"https://digien.connpass.com/event/95661/","shortener_url":null,"started_at":"2018-09-22T18:30:00.000+09:00","ended_at":"2018-09-23T04:00:00.000+09:00","limit_number":23,"address":"長崎県西彼杵郡長与町 まなび野１丁目１−１","place":"長崎県立大学W205教室","lat":32.8088,"lon":129.875,"state":"active","id":null},{"event_id":"77912","title":"9/16(日)~17(祝)festivo ホームページ作成（WordPress） Camp@東京【学生15,000円、一般20,000円】～戦うスキルを身につける15時間！WordPress集中合宿！～","url":"https://festivo.doorkeeper.jp/events/77912","shortener_url":"https://goo.gl/BWbxxf","started_at":"2018-09-16T19:30:00.000+09:00","ended_at":"2018-09-18T03:30:00.000+09:00","limit_number":1,"address":"東京都練馬区豊玉北3-15-17","place":"起業家シェアハウス x-garden セミナールーム","lat":35.7329,"lon":139.661,"state":"active","id":null},{"event_id":"411172","title":"9/8(土)~9(日)festivo はじめてのプログラミング Camp@東京【学生15,000円、一般20,000円】～戦うスキルを身につける15時間！プログラミング概要からPHP/SQL集中合宿！～","url":"http://peatix.com/event/411172","shortener_url":"https://goo.gl/2ouHZQ","started_at":"2018-09-08T19:00:00.000+09:00","ended_at":"2018-09-11T08:59:59.000+09:00","limit_number":null,"address":"東京都練馬区豊玉北3-15-17","place":"起業家シェアハウス x-garden セミナールーム","lat":35.7329,"lon":139.661,"state":"active","id":null},{"event_id":"410917","title":"9/16(日)~17(祝)festivo ホームページ作成（WordPress） Camp@東京【学生15,000円、一般20,000円】～戦うスキルを身につける15時間！WordPress集中合宿！～","url":"http://peatix.com/event/410917","shortener_url":"https://goo.gl/Y3LxbP","started_at":"2018-09-16T19:30:00.000+09:00","ended_at":"2018-09-19T08:59:59.000+09:00","limit_number":null,"address":"東京都練馬区豊玉北3-15-17","place":"起業家シェアハウス x-garden セミナールーム","lat":35.7329,"lon":139.661,"state":"active","id":null},{"event_id":"411130","title":"BLOCKCHAIN2.0 MEETUP - ブロックチェーンがつくる、あたらしい未来 -","url":"http://blockchain2meetup.peatix.com","shortener_url":null,"started_at":"2018-09-08T22:00:00.000+09:00","ended_at":"2018-09-11T08:59:59.000+09:00","limit_number":null,"address":"渋谷区神南1丁目11−3","place":"EDGEof","lat":35.6624,"lon":139.701,"state":"active","id":null},{"event_id":"411476","title":"Microsoft Power BI 実践ハンズオン 入門編（2018年9月）","url":"http://powerbi201809.peatix.com","shortener_url":null,"started_at":"2018-09-05T23:00:00.000+09:00","ended_at":"2018-09-08T08:59:59.000+09:00","limit_number":null,"address":"東京都中央区銀座3丁目9 銀座3-9-4 銀座草野ビルディング 4F","place":"マイスペース 銀座マロニエ通り店","lat":35.6718,"lon":139.768,"state":"active","id":null},{"event_id":"411479","title":"大阪開催：Microsoft Power BI 実践ハンズオン 入門編（2018年9月）","url":"http://powerbi201809osaka.peatix.com","shortener_url":null,"started_at":"2018-09-13T23:00:00.000+09:00","ended_at":"2018-09-16T08:59:59.000+09:00","limit_number":null,"address":"大阪府大阪市淀川区西中島4-2-26 天神第一ビル 6階","place":"貸し会議室プランセカンス","lat":34.7264,"lon":135.498,"state":"active","id":null},{"event_id":"95847","title":"【9月開催】大好評！！アイディア出しから実装までを体験できる3daysインターン","url":"https://ceres.connpass.com/event/95847/","shortener_url":"https://goo.gl/H8naT4","started_at":"2018-09-10T10:00:00.000+09:00","ended_at":"2018-09-12T19:00:00.000+09:00","limit_number":4,"address":"世田谷区用賀4-10-1 世田谷ビジネススクエア24階","place":"株式会社セレス","lat":35.6267,"lon":139.633,"state":"active","id":null},{"event_id":"411030","title":"Comedy Masala presents: KAVIN JAY (from NETFLIX) in 'ANGER MANAGEMENT' | Brand New Show Singapore Debut","url":"http://agonysept.peatix.com","shortener_url":null,"started_at":"2018-09-05T06:00:00.000+09:00","ended_at":"2018-09-07T08:59:59.000+09:00","limit_number":null,"address":"69 Circular Road, Boat Quay, Singapore 049423","place":"HERO'S, 69 Circular Road, Singapore 049423","lat":1.28641,"lon":103.849,"state":"active","id":null},{"event_id":"411799","title":"英語でのスピーチを２ヶ月で徹底的に学ぶ！英語でロジカルに話せる自分になろう『Logical Speaking』〜自己紹介から本格プレゼンまで〜","url":"http://peatix.com/event/411799","shortener_url":null,"started_at":"2018-09-13T04:00:00.000+09:00","ended_at":"2018-09-15T08:59:59.000+09:00","limit_number":null,"address":"東京都港区元麻布3-1-35 地下2階","place":"六本木 The P@rk","lat":35.658,"lon":139.728,"state":"active","id":null},{"event_id":"411809","title":"２ヶ月で英語ライティングを基本型から徹底的に学ぶ！英語ライティングコース(全６回コース）","url":"http://peatix.com/event/411809","shortener_url":null,"started_at":"2018-09-11T04:00:00.000+09:00","ended_at":"2018-09-13T08:59:59.000+09:00","limit_number":null,"address":"東京都港区元麻布3-1-35 地下2階","place":"六本木 The P@rk","lat":35.658,"lon":139.728,"state":"active","id":null},{"event_id":"95774","title":"南島原 IoT Hack Day 2018","url":"https://serakumedia.connpass.com/event/95774/","shortener_url":"https://goo.gl/DWHhZM","started_at":"2018-09-15T13:00:00.000+09:00","ended_at":"2018-09-16T12:00:00.000+09:00","limit_number":20,"address":"長崎県南島原市加津佐町1208","place":"株式会社セラク 南島原農業IT研究所（赤い屋根ふるさと交流館）","lat":32.6383,"lon":130.189,"state":"active","id":null},{"event_id":"411787","title":"道産食パン食べ比べ！～北海道小麦農家と街のパン屋を応援しながら、働き女子たちの朝食もワンランクアップ♡～(Sapporo　Smile　Woman　Project　＃7)","url":"http://sapporosmilewomanproject-7.peatix.com","shortener_url":null,"started_at":"2018-09-01T23:00:00.000+09:00","ended_at":"2018-09-04T08:59:59.000+09:00","limit_number":null,"address":"札幌市中央区北4条西3丁目1-17","place":"コミュニティスペース「コバル計画」","lat":43.0664,"lon":141.351,"state":"active","id":null},{"event_id":"412602","title":"BTY LIVE 2018 in Ichihara vol.2","url":"http://bty-live-ichihara2.peatix.com","shortener_url":null,"started_at":"2018-09-09T21:15:00.000+09:00","ended_at":"2018-09-12T08:59:59.000+09:00","limit_number":null,"address":"市原市五井中央西1丁目1−25","place":"サンプラザ市原","lat":35.5129,"lon":140.089,"state":"active","id":null},{"event_id":"410624","title":"内海聡の内海塾 in 福岡 「東洋医学と占い」「言語医学と実践〜内海式療法デモ」9/17(月祝）","url":"http://wonder20180917.peatix.com","shortener_url":null,"started_at":"2018-09-17T22:00:00.000+09:00","ended_at":"2018-09-20T08:59:59.000+09:00","limit_number":null,"address":"福岡市博多区博多駅前2丁目20-1大博多ビル11F・12F","place":"リファレンス大博多貸会議室","lat":33.5927,"lon":130.416,"state":"active","id":null},{"event_id":"411871","title":"9/24(Mon)  Drink Meetup in Asakusa","url":"http://peatix.com/event/411871","shortener_url":null,"started_at":"2018-09-24T23:00:00.000+09:00","ended_at":"2018-09-27T08:59:59.000+09:00","limit_number":null,"address":"東京都台東区西浅草2-2-2","place":"CAMPION ALE ","lat":35.712,"lon":139.791,"state":"active","id":null},{"event_id":"411867","title":"9/23 (Sun) 20s Social Meetup Shibuya","url":"http://peatix.com/event/411867","shortener_url":null,"started_at":"2018-09-23T23:00:00.000+09:00","ended_at":"2018-09-26T08:59:59.000+09:00","limit_number":null,"address":"東京都渋谷区猿楽町2-12 相野谷ビル 1F","place":"Asian Spice King","lat":35.6532,"lon":139.705,"state":"active","id":null},{"event_id":"411880","title":"9/24(Mon) Shinjuku Around 30s Night","url":"http://peatix.com/event/411880","shortener_url":null,"started_at":"2018-09-25T03:00:00.000+09:00","ended_at":"2018-09-27T08:59:59.000+09:00","limit_number":null,"address":"東京都新宿区西新宿8-19-11","place":"KASHIWAGI CAFE","lat":35.692,"lon":139.686,"state":"active","id":null},{"event_id":"411861","title":"9/21(Fri) Roppongi Drink Meetup ","url":"http://peatix.com/event/411861","shortener_url":null,"started_at":"2018-09-22T04:00:00.000+09:00","ended_at":"2018-09-24T08:59:59.000+09:00","limit_number":null,"address":"東京都港区六本木5-3-1レーヌ第2ビル3F","place":"BAR QUEST","lat":35.6641,"lon":139.729,"state":"active","id":null},{"event_id":"410745","title":"9/20(Thu) Nihongo Curry Night in Shibuya ","url":"http://peatix.com/event/410745","shortener_url":null,"started_at":"2018-09-21T04:00:00.000+09:00","ended_at":"2018-09-23T08:59:59.000+09:00","limit_number":null,"address":"2-12 Sarugakucho Shibuya-ku Tokyo","place":"Asian Spice King","lat":35.6533,"lon":139.705,"state":"active","id":null},{"event_id":"411865","title":"9/23(日) 20代の英会話@渋谷 / 20's Social Meetup in Shibuya","url":"http://peatix.com/event/411865","shortener_url":null,"started_at":"2018-09-23T23:00:00.000+09:00","ended_at":"2018-09-26T08:59:59.000+09:00","limit_number":null,"address":"東京都渋谷区猿楽町2-12 相野谷ビル 1F","place":"Asian Spice King","lat":35.6532,"lon":139.705,"state":"active","id":null},{"event_id":"410747","title":"9/20(木)  にんごカレーナイト@渋谷 / Nihongo Curry Night in Shibuya ","url":"http://peatix.com/event/410747","shortener_url":null,"started_at":"2018-09-21T04:00:00.000+09:00","ended_at":"2018-09-23T08:59:59.000+09:00","limit_number":null,"address":"東京都渋谷区猿楽町2-12 相野谷ビル 1F","place":"Asian Spice King ","lat":35.6532,"lon":139.705,"state":"active","id":null},{"event_id":"411629","title":"9月8日(土)19:00～★ 六本木 新しいウォーミングアップバーでGaitomo国際交流パーティー","url":"http://peatix.com/event/411629","shortener_url":null,"started_at":"2018-09-09T04:00:00.000+09:00","ended_at":"2018-09-11T08:59:59.000+09:00","limit_number":null,"address":"港区 六本木5-1-7 六本木ストリートビル 1F,2F","place":"MEZZO(メゾ) BAR LOUNGE 貸切パーティー","lat":35.6625,"lon":139.733,"state":"active","id":null},{"event_id":"412043","title":"9月15日(土)19:00～★ 渋谷 スタッフ一押しの美味しいカレーのお店でGaitomo国際交流パーティー","url":"http://peatix.com/event/412043","shortener_url":null,"started_at":"2018-09-16T04:00:00.000+09:00","ended_at":"2018-09-18T08:59:59.000+09:00","limit_number":null,"address":"渋谷区 猿楽町2−12","place":"Asian Spice King 渋谷・代官山","lat":35.6533,"lon":139.705,"state":"active","id":null},{"event_id":"412063","title":"9月27日(木)19:00～★ 新宿御苑 本場ナポリピッツァが食べれる平日Gaitomo国際交流パーティー","url":"http://peatix.com/event/412063","shortener_url":null,"started_at":"2018-09-28T04:00:00.000+09:00","ended_at":"2018-09-30T08:59:59.000+09:00","limit_number":null,"address":"新宿区新宿2丁目8−1","place":"ピッツァナポレターノカフェ 新宿御苑前店","lat":35.689,"lon":139.71,"state":"active","id":null},{"event_id":"412089","title":"9月28日(金)19:00～★ 恵比寿 新しい出会いの場立ち飲みバーでGaitomo国際交流パーティー","url":"http://peatix.com/event/412089","shortener_url":null,"started_at":"2018-09-29T04:00:00.000+09:00","ended_at":"2018-10-01T08:59:59.000+09:00","limit_number":null,"address":"渋谷区恵比寿1丁目7−4 2階","place":"私を恵比寿に連れてって 330BAR","lat":35.648,"lon":139.71,"state":"active","id":null},{"event_id":"412034","title":"9月15日(土)15:00～★ 渋谷 未成年者も参加出来るGaitomo国際交流ノンアルコールパーティー","url":"http://peatix.com/event/412034","shortener_url":null,"started_at":"2018-09-16T00:00:00.000+09:00","ended_at":"2018-09-18T08:59:59.000+09:00","limit_number":null,"address":"東京都渋谷区円山町15-3","place":"渋谷 エンカウント零式","lat":35.6577,"lon":139.694,"state":"active","id":null},{"event_id":"411986","title":"9月9日(日)18:00～★ 自由が丘 アイリッシュ・バーでGaitomo国際交流パーティー","url":"http://peatix.com/event/411986","shortener_url":null,"started_at":"2018-09-10T03:00:00.000+09:00","ended_at":"2018-09-12T08:59:59.000+09:00","limit_number":null,"address":"目黒区自由が丘1丁目8−18 ノーブルビル 3F","place":"Irish pub Clann","lat":35.6069,"lon":139.669,"state":"active","id":null},{"event_id":"412023","title":"9月13日(木)19:00～★ 銀座 帰宅前にちょこっと充実時間Gaitomo国際交流パーティー","url":"http://peatix.com/event/412023","shortener_url":null,"started_at":"2018-09-14T04:00:00.000+09:00","ended_at":"2018-09-16T08:59:59.000+09:00","limit_number":null,"address":"中央区 銀座4-3-5 ハトリビル4F","place":"POP INN.GINZA(ポップイン 銀座)","lat":35.6723,"lon":139.765,"state":"active","id":null},{"event_id":"412117","title":"9月29日(土)19:00～★ 六本木 英語が話せなくても◎誰でも楽しめるGaitomo国際交流パーティー","url":"http://peatix.com/event/412117","shortener_url":null,"started_at":"2018-09-30T04:00:00.000+09:00","ended_at":"2018-10-02T08:59:59.000+09:00","limit_number":null,"address":"港区六本木3丁目11−10","place":"RAKAN TOKYO","lat":35.6633,"lon":139.733,"state":"active","id":null},{"event_id":"412149","title":"朝活/昼活/夜活〈寄り道ミニセミナー〉イデコに加入したら知っておきたいこと （飲み物付）無料","url":"http://tsumitate-plaza-yaesu0919.peatix.com","shortener_url":null,"started_at":"2018-09-19T16:30:00.000+09:00","ended_at":"2018-09-22T08:59:59.000+09:00","limit_number":null,"address":"東京都中央区八重洲2-1","place":"つみたてプラザやえす(八重洲地下街北１号)","lat":35.6799,"lon":139.77,"state":"active","id":null},{"event_id":"412143","title":"朝活/昼活/夜活〈寄り道ミニセミナー〉イデコに加入したら知っておきたいこと （飲み物付）無料","url":"http://tsumitate-plaza-yaesu0914.peatix.com","shortener_url":null,"started_at":"2018-09-14T16:30:00.000+09:00","ended_at":"2018-09-17T08:59:59.000+09:00","limit_number":null,"address":"東京都中央区八重洲2-1","place":"つみたてプラザやえす(八重洲地下街北１号)","lat":35.6799,"lon":139.77,"state":"active","id":null},{"event_id":"413134","title":"【限定６名・六本木クラス】2ヶ月みっちり国内留学！英語で英語を学ぶ、大人のための本格英語講座（留学前の学生さんにもぴったり)","url":"http://peatix.com/event/413134","shortener_url":null,"started_at":"2018-09-16T19:00:00.000+09:00","ended_at":"2018-09-19T08:59:59.000+09:00","limit_number":null,"address":"東京都港区元麻布3-1-35","place":"六本木 The P@rk","lat":35.658,"lon":139.728,"state":"active","id":null},{"event_id":"78042","title":"（参加無料）今の経験・知識を活かして、ITコンサルタントとして収入を得る方法を学ぶ「ITコンサルタント育成1日合宿」説明会","url":"https://majicarri.doorkeeper.jp/events/78042","shortener_url":null,"started_at":"2018-09-07T04:00:00.000+09:00","ended_at":"2018-09-07T05:30:00.000+09:00","limit_number":20,"address":"東京都港区海岸1丁目14−17ベイサイド竹芝1307","place":"マジセミ竹芝オフィス（注意：日通商事と同じビルで、入り口は反対側です。入り口で1307を呼び出してください)","lat":35.6535,"lon":139.761,"state":"active","id":null},{"event_id":"98718","title":"会津大学競技プログラミング合宿2018","url":"https://atnd.org/events/98718","shortener_url":"https://goo.gl/Z7yqiZ","started_at":"2018-09-19T13:00:00.000+09:00","ended_at":"2018-09-21T15:00:00.000+09:00","limit_number":50,"address":"福島県会津若松市一箕町鶴賀","place":"会津大学","lat":37.5208,"lon":139.938,"state":"closed","id":null},{"event_id":"412982","title":"真空管ヘッドフォンアンプをつくろう！【09/09(日)開催】","url":"http://dmmmake1809sink.peatix.com","shortener_url":null,"started_at":"2018-09-09T20:00:00.000+09:00","ended_at":"2018-09-12T08:59:59.000+09:00","limit_number":null,"address":"東京都千代田区神田練塀町3 富士ソフト秋葉原ビル 10F DMM.make AKIBA Studio","place":"DMM.make AKIBA 10F Studio","lat":35.7008,"lon":139.774,"state":"active","id":null},{"event_id":"412980","title":"レーザーカッターで作るUSBで灯せる行燈(あんどん)【09/08(土)開催】","url":"http://dmmmake1809andon.peatix.com","shortener_url":null,"started_at":"2018-09-09T00:00:00.000+09:00","ended_at":"2018-09-11T08:59:59.000+09:00","limit_number":null,"address":"東京都千代田区神田練塀町3 富士ソフト秋葉原ビル 10F DMM.make AKIBA Studio","place":"DMM.make AKIBA 10F Studio","lat":35.7008,"lon":139.774,"state":"active","id":null},{"event_id":"413070","title":"9/26(Wed) French Night in Roppongi","url":"http://peatix.com/event/413070","shortener_url":null,"started_at":"2018-09-27T04:00:00.000+09:00","ended_at":"2018-09-29T08:59:59.000+09:00","limit_number":null,"address":"東京都港区六本木3−16−33","place":"Hobgoblin Roppongi","lat":35.6623,"lon":139.737,"state":"active","id":null},{"event_id":"413410","title":"とことん３Dスキャン体験【09/08(土)開催】","url":"http://dmmmake1809scan.peatix.com","shortener_url":null,"started_at":"2018-09-08T23:00:00.000+09:00","ended_at":"2018-09-11T08:59:59.000+09:00","limit_number":null,"address":"東京都千代田区神田練塀町3 富士ソフト秋葉原ビル 10F DMM.make AKIBA Studio","place":"DMM.make AKIBA 10F Studio","lat":35.7008,"lon":139.774,"state":"active","id":null},{"event_id":"413163","title":"Comedy Masala ft. JUSTIN RIVERA (USA) | as seen on NBC, 'AMERICA'S GOT TALENT' \u0026 Comedy Central","url":"http://jrivera.peatix.com","shortener_url":null,"started_at":"2018-09-26T06:00:00.000+09:00","ended_at":"2018-09-28T08:59:59.000+09:00","limit_number":null,"address":"69 Circular Road, Boat Quay, Singapore 049423","place":"HERO'S, 69 Circular Road, Singapore 049423","lat":1.28641,"lon":103.849,"state":"active","id":null},{"event_id":"412484","title":"\u0026DAY","url":"http://and-day.peatix.com","shortener_url":null,"started_at":"2018-09-24T22:30:00.000+09:00","ended_at":"2018-09-27T08:59:59.000+09:00","limit_number":null,"address":"大阪市住之江区北加賀屋4丁目1−55 名村造船跡地","place":"クリエイティブセンター大阪","lat":34.6254,"lon":135.474,"state":"active","id":null},{"event_id":"413064","title":"9/26(水) フレンチナイト@六本木 / French Night in Roppongi","url":"http://peatix.com/event/413064","shortener_url":null,"started_at":"2018-09-27T04:00:00.000+09:00","ended_at":"2018-09-29T08:59:59.000+09:00","limit_number":null,"address":"東京都港区六本木3−16−33","place":"Hobgoblin Roppongi ","lat":35.6623,"lon":139.737,"state":"active","id":null},{"event_id":"413024","title":"tabimatsuri2018×PEACE DAY- Play on Earth , Believe in Peace ※for foreginer","url":"http://peatix.com/event/413024","shortener_url":null,"started_at":"2018-09-01T19:00:00.000+09:00","ended_at":"2018-09-04T08:59:59.000+09:00","limit_number":null,"address":"千葉市美浜区豊砂114","place":"幕張海浜公園 Gブロック","lat":35.6504,"lon":140.027,"state":"active","id":null},{"event_id":"86808","title":"VTuberハッカソン 全国ツアー2018【島根会場】","url":"https://chiikiokoshi-vr.connpass.com/event/86808/","shortener_url":"https://goo.gl/ZyU7eH","started_at":"2018-09-08T18:00:00.000+09:00","ended_at":"2018-09-10T06:00:00.000+09:00","limit_number":35,"address":"島根県松江市津田町301番地","place":"AJITO","lat":35.4609,"lon":133.066,"state":"active","id":null},{"event_id":"411932","title":"【定年後も強みを活かして仕事ができる 自分史の棚卸しワークショップ】～人生100年時代の50歳から考える人生二毛作#3～","url":"http://nimousaku3.peatix.com","shortener_url":null,"started_at":"2018-09-29T20:00:00.000+09:00","ended_at":"2018-10-02T08:59:59.000+09:00","limit_number":null,"address":"渋谷区恵比寿","place":"ラクナ恵比寿","lat":0.0,"lon":0.0,"state":"active","id":null},{"event_id":"414547","title":"STARRY NIGHT JAM Vol.23　COSMIC DANCE～惑星を旅するプラネタリウムライブ～","url":"http://snj23.peatix.com","shortener_url":null,"started_at":"2018-09-09T04:00:00.000+09:00","ended_at":"2018-09-11T08:59:59.000+09:00","limit_number":null,"address":"福岡市中央区 六本松4丁目2−1","place":"福岡市科学館","lat":33.5774,"lon":130.378,"state":"active","id":null},{"event_id":"414704","title":"ケン・ハラクマ　ラジヨガ体操指導者養成講座　【IYC認定証発行】","url":"http://peatix.com/event/414704","shortener_url":null,"started_at":"2018-09-07T23:30:00.000+09:00","ended_at":"2018-09-10T08:59:59.000+09:00","limit_number":null,"address":"東京都新宿区西新宿1-22-2 新宿サンエービル4階","place":"YMC新宿校","lat":35.6888,"lon":139.696,"state":"active","id":null},{"event_id":"413977","title":"9/28(Fri) Roppongi Drink Meetup","url":"http://peatix.com/event/413977","shortener_url":null,"started_at":"2018-09-29T04:00:00.000+09:00","ended_at":"2018-10-01T08:59:59.000+09:00","limit_number":null,"address":"東京都港区六本木5-3-1レーヌ第2ビル3F","place":"BAR QUEST","lat":35.6641,"lon":139.729,"state":"active","id":null},{"event_id":"414986","title":"9/19(水) ドイツ語ナイト@六本木 / German Night in Roppongi","url":"http://peatix.com/event/414986","shortener_url":null,"started_at":"2018-09-20T04:00:00.000+09:00","ended_at":"2018-09-22T08:59:59.000+09:00","limit_number":null,"address":"東京都港区六本木3−16−33","place":"Hob goblin at Roppongi","lat":35.6623,"lon":139.737,"state":"active","id":null},{"event_id":"414975","title":"9/27(木) ロシア語ナイト@六本木 / Russian Night in Roppongi","url":"http://peatix.com/event/414975","shortener_url":null,"started_at":"2018-09-28T04:00:00.000+09:00","ended_at":"2018-09-30T08:59:59.000+09:00","limit_number":null,"address":"東京都港区六本木3−16−33","place":"Hob goblin at Roppongi","lat":35.6623,"lon":139.737,"state":"active","id":null},{"event_id":"414669","title":"9/29(土) にほんごナイト@赤坂 / Nihongo Night in Akasaka","url":"http://peatix.com/event/414669","shortener_url":null,"started_at":"2018-09-30T04:00:00.000+09:00","ended_at":"2018-10-02T08:59:59.000+09:00","limit_number":null,"address":"東京都港区赤坂2-13-19 多聞堂ビルB1","place":"AKASAKA HOBGOBLIN","lat":35.6727,"lon":139.738,"state":"active","id":null},{"event_id":"414981","title":"9/22(土) にほんごナイト@赤坂 / Nihongo Night in Akasaka","url":"http://peatix.com/event/414981","shortener_url":null,"started_at":"2018-09-23T04:00:00.000+09:00","ended_at":"2018-09-25T08:59:59.000+09:00","limit_number":null,"address":"東京都港区赤坂2-13-19 多聞堂ビルB1","place":"AKASAKA HOBGOBLIN","lat":35.6727,"lon":139.738,"state":"active","id":null},{"event_id":"414055","title":"9/15(土) にほんごナイト@青山 / Nihongo Night in Aoyama","url":"http://peatix.com/event/414055","shortener_url":null,"started_at":"2018-09-16T04:00:00.000+09:00","ended_at":"2018-09-18T08:59:59.000+09:00","limit_number":null,"address":"東京都港区南青山5-10-1 H2 AOYAMA BLDG B1","place":"eragu","lat":0.0,"lon":0.0,"state":"active","id":null},{"event_id":"414054","title":"9/12(水) スペイン語交流会@西新宿 / Spanish Meetup in Nishi-Shinjuku","url":"http://peatix.com/event/414054","shortener_url":null,"started_at":"2018-09-13T04:00:00.000+09:00","ended_at":"2018-09-15T08:59:59.000+09:00","limit_number":null,"address":"8-19-11 NishiShinjuku Shinjuku-ku Tokyo","place":"KASHIWAGI CAFE","lat":35.6956,"lon":139.691,"state":"active","id":null},{"event_id":"96282","title":"VTuberハッカソン2018 岡山大会 in 高梁","url":"https://okauni.connpass.com/event/96282/","shortener_url":"https://goo.gl/RKMXvZ","started_at":"2018-09-15T18:00:00.000+09:00","ended_at":"2018-09-17T04:00:00.000+09:00","limit_number":50,"address":"〒716-0007 岡山県高梁市奥万田町３７５２−１","place":"吉備国際大学 国際交流会館","lat":34.7959,"lon":133.623,"state":"active","id":null},{"event_id":"78283","title":"【9/21（金）午後・大阪開催】データ分析教育講座・法務編『ユーザー企業がAI開発の外注・内製化で失敗しないための契約ノウハウ』","url":"https://soleildatadojo.doorkeeper.jp/events/78283","shortener_url":null,"started_at":"2018-09-21T22:30:00.000+09:00","ended_at":"2018-09-22T01:30:00.000+09:00","limit_number":15,"address":"大阪府大阪市北区西天満二丁目5番3号(堂島深川ビル3階)","place":"SCRIBBLE OSAKA LAB（SOL）（大阪メトロ御堂筋線「淀屋橋」駅から徒歩４分）","lat":34.6951,"lon":135.502,"state":"active","id":null},{"event_id":"415064","title":"ゲームの問題をブロックチェーン技術で解決するアイデアソン【7/28から9/1にリスケ再募集】【一部ルール修正】","url":"http://gwbc-ideathon2018.peatix.com","shortener_url":"https://goo.gl/jJ4oKr","started_at":"2018-09-01T18:00:00.000+09:00","ended_at":"2018-09-04T08:59:59.000+09:00","limit_number":null,"address":"〒160-0023, 4丁目-34-7 西新宿, 新宿区","place":"株式会社gumi","lat":35.6865,"lon":139.688,"state":"active","id":null},{"event_id":"415210","title":"ケン・ハラクマ　ラジヨガ体操指導者養成講座【IYC認定証発行】","url":"http://peatix.com/event/415210","shortener_url":null,"started_at":"2018-09-15T02:00:00.000+09:00","ended_at":"2018-09-17T08:59:59.000+09:00","limit_number":null,"address":"横浜市西区北幸1-11-15 横浜STビル11階","place":"YMCメディカルトレーナーズスクール横浜校","lat":35.4679,"lon":139.618,"state":"active","id":null},{"event_id":"91473","title":"FUKUOKA Engineers Day 2018 ~Autumn~","url":"https://engineers-day.connpass.com/event/91473/","shortener_url":null,"started_at":"2018-09-22T19:00:00.000+09:00","ended_at":"2018-09-23T05:00:00.000+09:00","limit_number":84,"address":"福岡県福岡市中央区大名2丁目6番11号","place":"Fukuoka Growth Next イベントスペース","lat":33.5891,"lon":130.395,"state":"active","id":null},{"event_id":"97024","title":"【増枠しました！9/16・17】LINE BOOT AWARDS 2018 ハッカソン@大阪","url":"https://code4osaka.connpass.com/event/97024/","shortener_url":"https://goo.gl/S1YDks","started_at":"2018-09-16T10:00:00.000+09:00","ended_at":"2018-09-17T17:30:00.000+09:00","limit_number":50,"address":"大阪市北区大深町4番20号 グランフロント大阪タワーA 35階","place":"さくらインターネット株式会社 大阪本社","lat":34.7041,"lon":135.495,"state":"active","id":null},{"event_id":"96583","title":"第17回　CoderDojo横浜","url":"https://coderdojo-yokohama.connpass.com/event/96583/","shortener_url":null,"started_at":"2018-09-01T14:00:00.000+09:00","ended_at":"2018-09-01T16:00:00.000+09:00","limit_number":null,"address":"神奈川県横浜市神奈川区鶴屋町2-24-2","place":"かながわ県民センター","lat":35.4684,"lon":139.621,"state":"active","id":null},{"event_id":"414937","title":"yogaとモンテッソーリお話し会","url":"http://peatix.com/event/414937","shortener_url":null,"started_at":"2018-09-28T22:00:00.000+09:00","ended_at":"2018-10-01T08:59:59.000+09:00","limit_number":null,"address":"東京都目黒区下目黒1","place":"目黒駅プライベートスペース","lat":35.6334,"lon":139.713,"state":"active","id":null},{"event_id":"413267","title":"【お知らせ】この秋、グリーンズ×ハバタク×秋田県がタッグを組んで、秋田の地域づくりリーダーを応援する『秋田・ソーシャルデザインの学校』を開講します！（申込締切9/12）","url":"http://social-akita2018.peatix.com","shortener_url":null,"started_at":"2018-09-20T04:00:00.000+09:00","ended_at":"2018-09-22T08:59:59.000+09:00","limit_number":null,"address":"秋田市","place":"秋田市内会場予定","lat":39.7199,"lon":140.104,"state":"active","id":null},{"event_id":"415522","title":"Foodiegram Sundays 2018: Shabu Tan","url":"http://0909msqfs-shabutan.peatix.com","shortener_url":null,"started_at":"2018-09-09T21:30:00.000+09:00","ended_at":"2018-09-12T08:59:59.000+09:00","limit_number":null,"address":"6 Raffles Boulevard, 01-18","place":"Emporium Shokuhin","lat":1.29147,"lon":103.856,"state":"active","id":null},{"event_id":"415615","title":"Foodiegram Sundays 2018: Shabu Tan","url":"http://0209msqfs-shabutan.peatix.com","shortener_url":null,"started_at":"2018-09-02T21:30:00.000+09:00","ended_at":"2018-09-05T08:59:59.000+09:00","limit_number":null,"address":"6 Raffles Boulevard, 01-18","place":"Emporium Shokuhin","lat":1.29147,"lon":103.856,"state":"active","id":null},{"event_id":"415532","title":"Foodiegram Sundays 2018: Umi+Vino","url":"http://0909msqfs-umivino.peatix.com","shortener_url":null,"started_at":"2018-09-09T21:30:00.000+09:00","ended_at":"2018-09-12T08:59:59.000+09:00","limit_number":null,"address":"6 Raffles Boulevard, 01-18","place":"Emporium Shokuhin","lat":0.0,"lon":0.0,"state":"active","id":null},{"event_id":"415619","title":"Foodiegram Sundays 2018: Umi+Vino","url":"http://0209msqfs-umivino.peatix.com","shortener_url":null,"started_at":"2018-09-02T21:30:00.000+09:00","ended_at":"2018-09-05T08:59:59.000+09:00","limit_number":null,"address":"6 Raffles Boulevard, 01-18","place":"Emporium Shokuhin","lat":0.0,"lon":0.0,"state":"active","id":null},{"event_id":"413677","title":"Bumpy Lens 〜劇場で出会ったクリエイティブな人たち〜 #4","url":"http://bumpy-lens004.peatix.com","shortener_url":null,"started_at":"2018-09-05T03:30:00.000+09:00","ended_at":"2018-09-07T08:59:59.000+09:00","limit_number":null,"address":"千代田区 有楽町2丁目5−1 阪急MEN'S TOKYO B1F","place":"THE MONOCLE CAFE｜有楽町","lat":35.6736,"lon":139.763,"state":"active","id":null},{"event_id":"78411","title":"【9/1（土）午後】初心者向けシリーズ①『PythonとJupyterNotebookの基礎』","url":"https://soleildatadojo.doorkeeper.jp/events/78411","shortener_url":null,"started_at":"2018-09-01T22:00:00.000+09:00","ended_at":"2018-09-02T02:10:00.000+09:00","limit_number":7,"address":"大阪府大阪市北区西天満二丁目5番3号(堂島深川ビル3階)","place":"SCRIBBLE OSAKA LAB（SOL）（大阪メトロ御堂筋線「淀屋橋」駅から徒歩４分）","lat":34.6951,"lon":135.502,"state":"active","id":null},{"event_id":"78412","title":"【9/8（土）午後】初心者向けシリーズ②『Pandasとデータ可視化の基礎』","url":"https://soleildatadojo.doorkeeper.jp/events/78412","shortener_url":null,"started_at":"2018-09-08T22:00:00.000+09:00","ended_at":"2018-09-09T02:10:00.000+09:00","limit_number":6,"address":"大阪府大阪市北区西天満二丁目5番3号(堂島深川ビル3階)","place":"SCRIBBLE OSAKA LAB（SOL）（大阪メトロ御堂筋線「淀屋橋」駅から徒歩４分）","lat":34.6951,"lon":135.502,"state":"active","id":null},{"event_id":"78426","title":"9/8(土)~9(日)festivo はじめてのプログラミング Camp@東京【学生15,000円、一般20,000円】～戦うスキルを身につける15時間！プログラミング概要からPHP/SQL集中合宿！～","url":"https://festivo.doorkeeper.jp/events/78426","shortener_url":"https://goo.gl/otwcRB","started_at":"2018-09-08T19:00:00.000+09:00","ended_at":"2018-09-10T04:00:00.000+09:00","limit_number":8,"address":"東京都練馬区豊玉北3-15-17","place":"起業家シェアハウス x-garden セミナールーム","lat":35.7329,"lon":139.661,"state":"active","id":null},{"event_id":"415252","title":"STARRY NIGHT JAM vol.24 「お月見スペシャル！　星語り～星空と音楽の夕べ～　」","url":"http://snj24.peatix.com","shortener_url":null,"started_at":"2018-09-23T01:00:00.000+09:00","ended_at":"2018-09-25T08:59:59.000+09:00","limit_number":null,"address":"福岡市中央区 六本松4丁目2−1","place":"福岡市科学館","lat":33.5774,"lon":130.378,"state":"active","id":null},{"event_id":"415119","title":"【ISCO／沖縄県産業振興公社 後援】第5回 さぶみっと！ヨクスル in 沖縄【2018年9月28日(金)開催】","url":"http://peatix.com/event/415119","shortener_url":null,"started_at":"2018-09-29T04:30:00.000+09:00","ended_at":"2018-10-01T08:59:59.000+09:00","limit_number":null,"address":"沖縄県豊見城市与根518-7","place":"レンタルスペース epic（株式会社アザナ内）","lat":26.1616,"lon":127.665,"state":"active","id":null},{"event_id":"417209","title":"結ぶ、繋がる、水引づくり","url":"http://peatix.com/event/417209","shortener_url":null,"started_at":"2018-09-13T04:00:00.000+09:00","ended_at":"2018-09-15T08:59:59.000+09:00","limit_number":null,"address":"東京都豊島区長崎1-9-2","place":"金剛院 蓮華堂B1","lat":35.7272,"lon":139.696,"state":"active","id":null},{"event_id":"417212","title":"9/1(土) 泡パ® @clubasia #泡パ #泡パーティー #泡パラダイス","url":"http://awapa180901.peatix.com","shortener_url":null,"started_at":"2018-09-02T08:00:00.000+09:00","ended_at":"2018-09-04T08:59:59.000+09:00","limit_number":null,"address":"東京都渋谷区円山町1-8","place":"club asia ","lat":35.659,"lon":139.695,"state":"active","id":null},{"event_id":"417652","title":"9月21日(金)19:00～★ 代官山 目的別ブレスレットで出会い率アップのGaitomo国際交流パーティー","url":"http://peatix.com/event/417652","shortener_url":null,"started_at":"2018-09-22T04:00:00.000+09:00","ended_at":"2018-09-24T08:59:59.000+09:00","limit_number":null,"address":"東京都渋谷区代官山町20-20","place":"代官山 BLU JAM CAFE ","lat":35.6481,"lon":139.702,"state":"active","id":null},{"event_id":"97220","title":"五反田なにがしハッカソン in Mobile Factory","url":"https://connpass.com/event/97220/","shortener_url":"https://goo.gl/pVRC1X","started_at":"2018-09-24T19:00:00.000+09:00","ended_at":"2018-09-25T04:30:00.000+09:00","limit_number":15,"address":"東京都品川区東五反田1-24-2 (東五反田1丁目ビル8階)","place":"株式会社モバイルファクトリー","lat":35.6259,"lon":139.727,"state":"active","id":null},{"event_id":"96834","title":"【9/2】LINE BOOT AWARDS×サイボウズ　ビジネス/ワーク部門賞狙いのハッカソン！","url":"https://linedev.connpass.com/event/96834/","shortener_url":"https://goo.gl/f3UZbd","started_at":"2018-09-02T10:00:00.000+09:00","ended_at":"2018-09-02T20:00:00.000+09:00","limit_number":40,"address":"東京都中央区日本橋2-7-1 東京日本橋タワー 27階","place":"サイボウズ株式会社","lat":35.6819,"lon":139.774,"state":"active","id":null},{"event_id":"97104","title":"【賞品3万円分！】建築 ✕ IT アイデアソン@スタジオアンビルト OthloEvent#36","url":"https://othlotech.connpass.com/event/97104/","shortener_url":"https://goo.gl/JDmgLA","started_at":"2018-09-15T10:00:00.000+09:00","ended_at":"2018-09-15T19:30:00.000+09:00","limit_number":32,"address":"名古屋市東区矢田南4丁目102-9（名城大学ナゴヤドーム前キャンパス西館2F）","place":"名城大学 ナゴヤドーム前キャンパス 社会連携ゾーンshake","lat":35.189,"lon":136.944,"state":"active","id":null},{"event_id":"97508","title":"プリッカソン#5 (プリリズ/プリパラ/プリチャン)","url":"https://prickathon.connpass.com/event/97508/","shortener_url":"https://goo.gl/9gHCjv","started_at":"2018-09-23T10:00:00.000+09:00","ended_at":"2018-09-23T20:00:00.000+09:00","limit_number":null,"address":"東京都渋谷区神泉町8-16 渋谷ファーストプレイス8F","place":"株式会社VOYAGE 渋谷ファーストプレイスオフィス","lat":35.6553,"lon":139.694,"state":"active","id":null},{"event_id":"97501","title":"道東×IoTハッカソン！観光・防災の課題を解決する！Vol.2","url":"https://kushirohack.connpass.com/event/97501/","shortener_url":"https://goo.gl/a4Sqsf","started_at":"2018-09-22T09:00:00.000+09:00","ended_at":"2018-09-23T17:00:00.000+09:00","limit_number":45,"address":"日本、〒085-0836 北海道釧路市幣舞町４−４−２８","place":"釧路市生涯学習センター（まなぼっと幣舞）22日が802号室、23日が705号室","lat":42.9793,"lon":144.386,"state":"active","id":null},{"event_id":"97124","title":"【増枠しました！】 初心者歓迎！アプリ開発をはじめるためのAndroidハンズオン 基礎編","url":"https://maruttolt.connpass.com/event/97124/","shortener_url":null,"started_at":"2018-09-06T19:00:00.000+09:00","ended_at":"2018-09-06T20:30:00.000+09:00","limit_number":20,"address":"6-19-13 Shimbashi Minato-ku Tokyo","place":"WeWork新橋","lat":35.6607,"lon":139.754,"state":"active","id":null},{"event_id":"97231","title":"WHILLモビリティアイデアソン","url":"https://tmcn.connpass.com/event/97231/","shortener_url":"https://goo.gl/grd4N6","started_at":"2018-09-12T19:00:00.000+09:00","ended_at":"2018-09-12T21:00:00.000+09:00","limit_number":50,"address":"東京都渋谷区 道玄坂 1-22-7道玄坂ピア10Ｆ ","place":"fab cafe MTRL","lat":35.6561,"lon":139.696,"state":"active","id":null},{"event_id":"97523","title":"【9/7-8熊本開催】LINE BOOT AWARDS 2018ハンズオン＆ハッカソン","url":"https://linedev.connpass.com/event/97523/","shortener_url":"https://goo.gl/p7xEYs","started_at":"2018-09-08T05:00:00.000+09:00","ended_at":"2018-09-09T04:00:00.000+09:00","limit_number":35,"address":"熊本県熊本市","place":"【７日】えきまえスペース、【８日】Bar RUMBULLION","lat":32.8031,"lon":130.708,"state":"active","id":null},{"event_id":"78562","title":"『Python, Machine Learning \u0026 Raspberry Pi』自主勉強会#3","url":"https://soleildatadojo.doorkeeper.jp/events/78562","shortener_url":null,"started_at":"2018-09-14T04:30:00.000+09:00","ended_at":"2018-09-14T06:40:00.000+09:00","limit_number":8,"address":"大阪府大阪市北区西天満二丁目5番3号(堂島深川ビル3階)","place":"SCRIBBLE OSAKA LAB（SOL）（大阪メトロ御堂筋線「淀屋橋」駅から徒歩４分）","lat":34.6951,"lon":135.502,"state":"active","id":null},{"event_id":"96643","title":"【地震の影響により開催中止】ショッカソンin札幌 〜触覚でVRの先をつくるハッカソン〜","url":"https://shokkason.connpass.com/event/96643/","shortener_url":"https://goo.gl/EXLFNd","started_at":"2018-09-09T10:00:00.000+09:00","ended_at":"2018-09-09T19:30:00.000+09:00","limit_number":52,"address":"北海道札幌市中央区北二条西2丁目1番1号","place":"プロビジョン","lat":43.0646,"lon":141.354,"state":"active","id":null},{"event_id":"97574","title":"【9/14-15 徳島】ママッカソン - LINE BOOT AWARDS 2018 -","url":"https://connpass.com/event/97574/","shortener_url":null,"started_at":"2018-09-15T04:00:00.000+09:00","ended_at":"2018-09-16T04:00:00.000+09:00","limit_number":33,"address":"徳島県徳島市南島田町2丁目25番地","place":"テレワークセンター徳島","lat":34.0789,"lon":134.51,"state":"active","id":null},{"event_id":"96979","title":"おおがきIoT×AIハッカソン by Mashup Awards 2018 #ma_2018","url":"https://mashupawards.connpass.com/event/96979/","shortener_url":"https://goo.gl/tzuhPA","started_at":"2018-09-01T10:00:00.000+09:00","ended_at":"2018-09-02T19:00:00.000+09:00","limit_number":35,"address":"岐阜県大垣市今宿6-52-16","place":"ソフトピアジャパン ドリーム・コア2F メッセ","lat":35.3679,"lon":136.637,"state":"active","id":null},{"event_id":"78563","title":"【無料】アイデアの作り方（SW加賀プレイベント）","url":"https://swkaga.doorkeeper.jp/events/78563","shortener_url":null,"started_at":"2018-09-08T19:00:00.000+09:00","ended_at":"2018-09-08T21:00:00.000+09:00","limit_number":20,"address":"石川県加賀市山代温泉温泉通24","place":"CoworkingCafe山代コドン","lat":36.2916,"lon":136.363,"state":"active","id":null},{"event_id":"78617","title":"【9/14（金）・21（金）】初心者向け・２回で学ぶシリーズ③『NumPyと線形代数の基礎』","url":"https://soleildatadojo.doorkeeper.jp/events/78617","shortener_url":null,"started_at":"2018-09-15T04:30:00.000+09:00","ended_at":"2018-09-22T06:30:00.000+09:00","limit_number":6,"address":"大阪府大阪市北区西天満二丁目5番3号(堂島深川ビル3階)","place":"SCRIBBLE OSAKA LAB（SOL）（大阪メトロ御堂筋線「淀屋橋」駅から徒歩４分）","lat":34.6951,"lon":135.502,"state":"active","id":null},{"event_id":"98163","title":"仙台発･岩手大船渡2018アイデアソン参加者募集!","url":"https://connpass.com/event/98163/","shortener_url":"https://goo.gl/8z8bT6","started_at":"2018-09-15T09:30:00.000+09:00","ended_at":"2018-09-16T19:00:00.000+09:00","limit_number":40,"address":"岩手県大船渡市盛町馬場２３－７（盛中央団地1号棟）","place":"大船渡テレワークセンター","lat":39.0818,"lon":141.713,"state":"active","id":null},{"event_id":"96550","title":"【まつもとゆきひろ氏　特別講演】20代エンジニアのためのプログラマー勉強法","url":"https://supporterz-seminar.connpass.com/event/96550/","shortener_url":null,"started_at":"2018-09-29T22:45:00.000+09:00","ended_at":"2018-09-30T01:00:00.000+09:00","limit_number":null,"address":"東京都渋谷区道玄坂1-9-5","place":"渋谷スクエアA 11F","lat":35.6573,"lon":139.699,"state":"active","id":null},{"event_id":"97005","title":"DLLAB Hackathon September","url":"https://dllab.connpass.com/event/97005/","shortener_url":"https://goo.gl/weneVq","started_at":"2018-09-08T13:00:00.000+09:00","ended_at":"2018-09-08T19:00:00.000+09:00","limit_number":48,"address":"東京都港区港南2-16-3 (品川グランドセントラルタワー)","place":"日本マイクロソフト本社(品川)","lat":35.6266,"lon":139.741,"state":"active","id":null},{"event_id":"420352","title":"ショッカソンin札幌 〜触覚でVRの先をつくるハッカソン〜","url":"http://shokkason.peatix.com","shortener_url":"https://goo.gl/C7iZFc","started_at":"2018-09-09T19:00:00.000+09:00","ended_at":"2018-09-12T08:59:59.000+09:00","limit_number":null,"address":"北海道 札幌市白石区東札幌5条1丁目1-1","place":"インタークロスクリエイティブセンター","lat":43.0562,"lon":141.386,"state":"active","id":null},{"event_id":"97934","title":"オフチェーンアカデミーハックデー(Off-chain Academy Hackday)","url":"https://lightning-academy.connpass.com/event/97934/","shortener_url":"https://goo.gl/CJ5iFg","started_at":"2018-09-29T11:00:00.000+09:00","ended_at":"2018-09-30T19:00:00.000+09:00","limit_number":33,"address":"東京都文京区本郷3–38–1本郷信徳ビル7階","place":"HashHub","lat":35.7068,"lon":139.762,"state":"active","id":null},{"event_id":"98327","title":"International IT\u0026AI Engineer Meetup by TeamAI 9/3","url":"https://teamai.connpass.com/event/98327/","shortener_url":null,"started_at":"2018-09-03T19:00:00.000+09:00","ended_at":"2018-09-03T21:00:00.000+09:00","limit_number":15,"address":"東京都渋谷区宇田川町37-10","place":"オール トーキョー （OL Tokyo） ","lat":35.6621,"lon":139.696,"state":"active","id":null},{"event_id":"98328","title":"（中止）Remote Worker Meetup by TeamAI 9/5(水)","url":"https://teamai.connpass.com/event/98328/","shortener_url":null,"started_at":"2018-09-05T19:00:00.000+09:00","ended_at":"2018-09-05T21:00:00.000+09:00","limit_number":10,"address":"東京都渋谷区宇田川町37-10","place":"オール トーキョー （OL Tokyo） ","lat":35.6621,"lon":139.696,"state":"active","id":null},{"event_id":"97438","title":"WHILLモビリティハッカソン","url":"https://tmcn.connpass.com/event/97438/","shortener_url":"https://goo.gl/4ew3Wq","started_at":"2018-09-22T10:00:00.000+09:00","ended_at":"2018-09-23T18:00:00.000+09:00","limit_number":30,"address":"東京都渋谷区 道玄坂 1-22-7道玄坂ピア10Ｆ ","place":"fab cafe MTRL","lat":35.6561,"lon":139.696,"state":"active","id":null},{"event_id":"96041","title":"ショッカソン2018　東京","url":"https://tmcn.connpass.com/event/96041/","shortener_url":"https://goo.gl/GPnwem","started_at":"2018-09-01T10:00:00.000+09:00","ended_at":"2018-09-02T18:00:00.000+09:00","limit_number":82,"address":"東京都渋谷区 道玄坂 1-22-7道玄坂ピア10Ｆ ","place":"fab cafe MTRL","lat":35.6561,"lon":139.696,"state":"active","id":null},{"event_id":"78724","title":"International IT\u0026AI Engineer Meetup","url":"https://team-ai.doorkeeper.jp/events/78724","shortener_url":null,"started_at":"2018-09-04T04:00:00.000+09:00","ended_at":"2018-09-04T06:00:00.000+09:00","limit_number":10,"address":"東京都渋谷区宇田川町37-10 オールトーキョー","place":"オールトーキョー","lat":35.6622,"lon":139.696,"state":"active","id":null},{"event_id":"78725","title":"Remote Worker Meetup","url":"https://team-ai.doorkeeper.jp/events/78725","shortener_url":null,"started_at":"2018-09-06T04:00:00.000+09:00","ended_at":"2018-09-06T06:00:00.000+09:00","limit_number":10,"address":"東京都渋谷区宇田川町37-10 オールトーキョー","place":"オールトーキョー","lat":35.6622,"lon":139.696,"state":"active","id":null},{"event_id":"419419","title":"フリーペーパー・ZINEを作るための学び舎『言志の学校』","url":"http://genshi-18aw.peatix.com","shortener_url":null,"started_at":"2018-09-16T13:00:00.000+09:00","ended_at":"2018-09-19T08:59:59.000+09:00","limit_number":null,"address":"京都市下京区本塩竈町554","place":"MTRL KYOTO マテリアル京都","lat":34.9952,"lon":135.764,"state":"active","id":null},{"event_id":"96813","title":"【9/15-16】奈良先端科学技術大学院大学ユビ研×LINE BOOT AWARDSハッカソン","url":"https://linedev.connpass.com/event/96813/","shortener_url":"https://goo.gl/hYXcyv","started_at":"2018-09-15T13:00:00.000+09:00","ended_at":"2018-09-16T19:00:00.000+09:00","limit_number":50,"address":"奈良県生駒市高山町8916番地の５","place":"奈良先端科学技術大学院大学","lat":34.7321,"lon":135.735,"state":"active","id":null},{"event_id":"99563","title":"電波をジャミングする","url":"https://atnd.org/events/99563","shortener_url":null,"started_at":"2018-09-13T10:00:00.000+09:00","ended_at":"2018-09-16T08:59:59.000+09:00","limit_number":null,"address":"","place":"","lat":null,"lon":null,"state":"closed","id":null},{"event_id":"420425","title":"新しいカタチのオープンイノベーション！ミンナのカチをチカラに！ーmikachiー","url":"http://peatix.com/event/420425","shortener_url":null,"started_at":"2018-09-02T19:00:00.000+09:00","ended_at":"2018-09-05T08:59:59.000+09:00","limit_number":null,"address":"大阪市北区西天満2丁目5-3堂島深川ビル3F","place":"SOL (SCRIBBLE OSAKA LAB )","lat":34.6951,"lon":135.502,"state":"active","id":null},{"event_id":"98429","title":"【オフィスバスターズ×朝日新聞社共催】サーキュラーエコノミー × 未来技術 アイデアソン#2","url":"https://future-tech-association.connpass.com/event/98429/","shortener_url":"https://goo.gl/j2kWMJ","started_at":"2018-09-13T19:00:00.000+09:00","ended_at":"2018-09-13T22:00:00.000+09:00","limit_number":22,"address":"〒103-0022 東京都中央区日本橋室町1-5-3 三越前福島ビル2F","place":"株式会社オフィスバスターズ","lat":35.6859,"lon":139.775,"state":"active","id":null},{"event_id":"98219","title":"【神戸開催】LINE BOOT AWARDSに向けたClovaスキル＆LINE Bot連携ハンズオン","url":"https://vuikobe.connpass.com/event/98219/","shortener_url":"https://goo.gl/kXRmRX","started_at":"2018-09-15T21:30:00.000+09:00","ended_at":"2018-09-16T03:00:00.000+09:00","limit_number":35,"address":"神戸市中央区京町72番地(新クレセントビル10F)","place":"神戸デジタル・ラボ 10Fセミナールーム","lat":34.6899,"lon":135.193,"state":"active","id":null},{"event_id":"96835","title":"レッドハッカソンひろしま 2018","url":"https://hmcn.connpass.com/event/96835/","shortener_url":"https://goo.gl/dvVEVd","started_at":"2018-09-29T10:00:00.000+09:00","ended_at":"2018-09-30T17:00:00.000+09:00","limit_number":65,"address":"広島市中区紙屋町1-4-3 (エフケイビル1F)","place":"イノベーション・ハブ・ひろしまCamps","lat":34.3941,"lon":132.459,"state":"active","id":null},{"event_id":"78763","title":"【オフィスバスターズ×朝日新聞社共催】サーキュラーエコノミー × 未来技術 アイデアソン#2 ～テクノロジーで循環型社会を実現しよう！","url":"https://future-tech-association.doorkeeper.jp/events/78763","shortener_url":"https://goo.gl/cHhpjk","started_at":"2018-09-14T04:00:00.000+09:00","ended_at":"2018-09-14T07:00:00.000+09:00","limit_number":22,"address":"〒103-0022 東京都中央区日本橋室町1-5-3 三越前福島ビル2F","place":"オフィスバスターズ本社会議室","lat":35.6858,"lon":139.774,"state":"active","id":null},{"event_id":"421358","title":"Inmagine: Ethereum + Tokenisation Training + Hackathon with Dameon Green (from Blockvisors): Intake A","url":"http://inmagine-ethereum-bootcamp-hackathon.peatix.com","shortener_url":"https://goo.gl/kpk7EE","started_at":"2018-09-03T19:00:00.000+09:00","ended_at":"2018-09-06T08:59:59.000+09:00","limit_number":null,"address":"3, Jalan SS 6/2, Ss 6, 47301 Petaling Jaya, Selangor, Malaysia","place":"Inmagine/123RF Group Event Space, Grand Sofo","lat":3.1014,"lon":101.599,"state":"active","id":null},{"event_id":"421796","title":"信州つなぐラボ - 第一期プログラム＆キックオフ合宿-","url":"http://shinshu-tsunagu.peatix.com","shortener_url":"https://goo.gl/wqnAFS","started_at":"2018-09-22T22:00:00.000+09:00","ended_at":"2018-09-25T08:59:59.000+09:00","limit_number":null,"address":"長野県長野市","place":"長野県長野市（鬼無里地区・小川村）","lat":36.6486,"lon":138.195,"state":"active","id":null},{"event_id":"97868","title":"PyCon JP 2018 Sprint","url":"https://pyconjp.connpass.com/event/97868/","shortener_url":"https://goo.gl/HetMAu","started_at":"2018-09-15T10:00:00.000+09:00","ended_at":"2018-09-15T18:00:00.000+09:00","limit_number":120,"address":"東京都渋谷区南平台町16番28号","place":"HENNGE株式会社","lat":35.6549,"lon":139.695,"state":"active","id":null},{"event_id":"418141","title":"\u003c世界を目指すアイデアソン\u003eSMASH for Startups #2","url":"http://smashforstartups2.peatix.com","shortener_url":"https://goo.gl/eHwgea","started_at":"2018-09-29T19:00:00.000+09:00","ended_at":"2018-10-02T08:59:59.000+09:00","limit_number":null,"address":"港区六本木1丁目6−1","place":"Izumi Garden","lat":35.6646,"lon":139.74,"state":"active","id":null},{"event_id":"406678","title":"Singapore International Jazz Battle \u0026 The Forum 2018","url":"http://sijb2018.peatix.com","shortener_url":null,"started_at":"2018-09-21T19:00:00.000+09:00","ended_at":"2018-09-24T08:59:59.000+09:00","limit_number":null,"address":"1 McNally Street","place":"LASALLE College of the Arts","lat":1.30291,"lon":103.852,"state":"active","id":null},{"event_id":"422130","title":"【9/24 夜】Bookmark Cinema #13 「日本一幸せな従業員をつくる！～ホテルアソシア名古屋ターミナルの挑戦～ 」","url":"http://bookmarkcinema13-3.peatix.com","shortener_url":null,"started_at":"2018-09-25T03:00:00.000+09:00","ended_at":"2018-09-27T08:59:59.000+09:00","limit_number":null,"address":"飯能市仲町3−2","place":"Bookmark","lat":35.8528,"lon":139.32,"state":"active","id":null},{"event_id":"416462","title":"厚真町ローカルベンチャースクール　現地フィールドワーク","url":"http://peatix.com/event/416462","shortener_url":null,"started_at":"2018-09-08T22:00:00.000+09:00","ended_at":"2018-09-11T08:59:59.000+09:00","limit_number":null,"address":"北海道勇払郡厚真町字上厚真18‐1","place":"厚真町内","lat":42.6457,"lon":141.849,"state":"active","id":null},{"event_id":"417047","title":"わたしたちの生活はどう変わる！？～女性のための分かりやすいAI入門～","url":"http://peatix.com/event/417047","shortener_url":null,"started_at":"2018-09-01T04:30:00.000+09:00","ended_at":"2018-09-03T08:59:59.000+09:00","limit_number":null,"address":"東京都港区虎ノ門4-3-13 ヒューリック神谷町ビル4F","place":"株式会社ウフル","lat":35.6637,"lon":139.744,"state":"active","id":null},{"event_id":"422107","title":"【9/24 AMお子様連れ歓迎】Bookmark Cinema #13 「日本一幸せな従業員をつくる！～ホテルアソシア名古屋ターミナルの挑戦～ 」","url":"http://bookmarkcinema13.peatix.com","shortener_url":null,"started_at":"2018-09-24T19:30:00.000+09:00","ended_at":"2018-09-27T08:59:59.000+09:00","limit_number":null,"address":"飯能市仲町3−2","place":"Bookmark","lat":35.8528,"lon":139.32,"state":"active","id":null},{"event_id":"422126","title":"【9/24 PM】Bookmark Cinema #13 「日本一幸せな従業員をつくる！～ホテルアソシア名古屋ターミナルの挑戦～ 」","url":"http://bookmarkcinema13-2.peatix.com","shortener_url":null,"started_at":"2018-09-24T23:00:00.000+09:00","ended_at":"2018-09-27T08:59:59.000+09:00","limit_number":null,"address":"飯能市仲町3−2","place":"Bookmark","lat":35.8528,"lon":139.32,"state":"active","id":null},{"event_id":"413892","title":"キングコング西野亮廣 氏の海外エージェント 佐伯麻衣子「3ヵ月で外国語を習得し、6ヶ国語を操る、”ことば”のプロフェッショナルによる英語文法講座＋海外営業講座」","url":"http://peatix.com/event/413892","shortener_url":null,"started_at":"2018-09-16T22:00:00.000+09:00","ended_at":"2018-09-19T08:59:59.000+09:00","limit_number":null,"address":"渋谷区千駄ヶ谷5丁目14−10 新宿明治通りビル6階","place":"みんなの会議室 代々木第１","lat":35.6845,"lon":139.704,"state":"active","id":null},{"event_id":"414284","title":"大企業を辞めてベンチャーを選択したリアルな話 ～01Booster合田ジョージ氏基調講演～","url":"http://ovent0916.peatix.com","shortener_url":null,"started_at":"2018-09-16T22:00:00.000+09:00","ended_at":"2018-09-19T08:59:59.000+09:00","limit_number":null,"address":"大阪市北区鶴野町4−11朝日プラザ梅田ビル2F","place":"デジタルハリウッド 大阪校","lat":34.7086,"lon":135.501,"state":"active","id":null},{"event_id":"420500","title":"【開催間近！】東京9/13開催 meetALIVE Vol.4「人生をITでサポートする ヘルスケア・医療のこれから」","url":"http://meetalive180913.peatix.com","shortener_url":null,"started_at":"2018-09-14T02:30:00.000+09:00","ended_at":"2018-09-16T08:59:59.000+09:00","limit_number":null,"address":"東京都港区六本木三丁目2−1","place":"住友不動産六本木グランドタワー３６階　ウイングアーク１st","lat":0.0,"lon":0.0,"state":"active","id":null},{"event_id":"420561","title":"green drinks Tokyo 自由な生き方としての「ローカル起業」を考える","url":"http://peatix.com/event/420561","shortener_url":null,"started_at":"2018-09-07T04:00:00.000+09:00","ended_at":"2018-09-09T08:59:59.000+09:00","limit_number":null,"address":"東京都台東区下谷1丁目11","place":"SOOO Dramatic!","lat":0.0,"lon":0.0,"state":"active","id":null},{"event_id":"420161","title":"SECRETS TO STARTUP SUCCESS: FROM PLAN TO PITCH","url":"http://fltl-ws-biz-201809.peatix.com","shortener_url":null,"started_at":"2018-09-22T19:00:00.000+09:00","ended_at":"2018-09-25T08:59:59.000+09:00","limit_number":null,"address":"Singapore 409958","place":"Co-V, 12 Arumugam Road, Lion Building B, #06-01","lat":1.325,"lon":103.891,"state":"active","id":null},{"event_id":"418843","title":"【本日開催】【ヒカ☆ラボ】【Kyash、Coiney、PAY】新しい支払いの形を作る、モバイル決済サービスの開発の裏側とは","url":"http://peatix.com/event/418843","shortener_url":null,"started_at":"2018-09-12T04:30:00.000+09:00","ended_at":"2018-09-14T08:59:59.000+09:00","limit_number":null,"address":"東京都渋谷区渋谷2-21-1","place":"レバテック株式会社(渋谷ヒカリエ17F)","lat":35.659,"lon":139.703,"state":"active","id":null},{"event_id":"420194","title":"What's Your Story? - Build An Effective Pitch For Funding","url":"http://fltl-ws-pitching-201809.peatix.com","shortener_url":null,"started_at":"2018-09-14T05:00:00.000+09:00","ended_at":"2018-09-16T08:59:59.000+09:00","limit_number":null,"address":"Singapore 409958","place":"Co-V, 12 Arumugam Road, Lion Building B, #06-01","lat":1.325,"lon":103.891,"state":"active","id":null},{"event_id":"416656","title":"9/1 (Sat) 20s Social Meetup Nishi-Shinjuku","url":"http://peatix.com/event/416656","shortener_url":null,"started_at":"2018-09-02T00:00:00.000+09:00","ended_at":"2018-09-04T08:59:59.000+09:00","limit_number":null,"address":"新宿区西新宿8丁目19−11","place":"KASHIWAGI CAFE","lat":35.6956,"lon":139.691,"state":"active","id":null},{"event_id":"420282","title":"コワーキングツアーVol.16〜仕事組と起業組の2本立て、沖縄国頭村編〜","url":"http://coworkingtour-kunigami201809.peatix.com","shortener_url":null,"started_at":"2018-09-19T21:00:00.000+09:00","ended_at":"2018-09-22T08:59:59.000+09:00","limit_number":null,"address":"沖縄県国頭郡国頭村辺土名119-6","place":"CAMP HENTONA（ほか3ヶ所）","lat":26.7458,"lon":128.178,"state":"active","id":null},{"event_id":"420842","title":"【幸せに働く技術 vol.9】 華道とマネジメントの接続点〜日本古来の思想を組織マネジメントに活かす〜　ゲスト：奥平清祥さん","url":"http://happinessatwork009.peatix.com","shortener_url":null,"started_at":"2018-09-07T04:00:00.000+09:00","ended_at":"2018-09-09T08:59:59.000+09:00","limit_number":null,"address":"千代田区 大手町 1 5 1 大手町ファーストスクエアWEST1F","place":"LIFORK大手町","lat":35.6855,"lon":139.764,"state":"active","id":null},{"event_id":"421564","title":"9/12　製薬業界でマネジメント視点を養う為の虎の巻　～あなたの上司は正しくマネジメントできてる？～","url":"http://peatix.com/event/421564","shortener_url":null,"started_at":"2018-09-13T04:30:00.000+09:00","ended_at":"2018-09-15T08:59:59.000+09:00","limit_number":null,"address":"東京都中央区京橋3丁目9-2宝国ビル4階","place":"東京都中央区京橋3丁目9-2宝国ビル4階","lat":35.675,"lon":139.771,"state":"active","id":null},{"event_id":"414646","title":"【アークヒルズ秋祭り2018】水墨画と墨流しで描く和の小物づくり","url":"http://denmira2018-01.peatix.com","shortener_url":null,"started_at":"2018-09-15T20:00:00.000+09:00","ended_at":"2018-09-18T08:59:59.000+09:00","limit_number":null,"address":"東京都港区赤坂1-12-32","place":"アーク・カラヤン広場","lat":35.6671,"lon":139.74,"state":"active","id":null},{"event_id":"414639","title":"【アークヒルズ秋祭り2018】津軽「こぎん刺し」で栞づくり","url":"http://denmira2018-03.peatix.com","shortener_url":null,"started_at":"2018-09-16T20:00:00.000+09:00","ended_at":"2018-09-19T08:59:59.000+09:00","limit_number":null,"address":"東京都港区赤坂1-12-32","place":"アーク・カラヤン広場","lat":35.6671,"lon":139.74,"state":"active","id":null},{"event_id":"414647","title":"【アークヒルズ秋祭り2018】「型染め」でコースターづくり","url":"http://denmira2018-02.peatix.com","shortener_url":null,"started_at":"2018-09-15T20:00:00.000+09:00","ended_at":"2018-09-18T08:59:59.000+09:00","limit_number":null,"address":"東京都港区赤坂1-12-32","place":"アーク・カラヤン広場","lat":35.6671,"lon":139.74,"state":"active","id":null},{"event_id":"416101","title":"～会いに行ける社長プロジェクト～『全国縦断!!松山洋の中途採用座談会』in横浜","url":"http://peatix.com/event/416101","shortener_url":null,"started_at":"2018-09-09T04:00:00.000+09:00","ended_at":"2018-09-11T08:59:59.000+09:00","limit_number":null,"address":"神奈川県横浜市西区北幸1-1-2","place":"「坐・和民」 横浜西口店（ INB横浜西口ビル6F）","lat":35.4676,"lon":139.622,"state":"active","id":null},{"event_id":"417544","title":"Summer Shindig 2018 at Eden Hall","url":"http://shindig2018.peatix.com","shortener_url":null,"started_at":"2018-09-01T05:00:00.000+09:00","ended_at":"2018-09-03T08:59:59.000+09:00","limit_number":null,"address":"28 Nassim Road","place":"Eden Hall","lat":1.3104,"lon":103.822,"state":"active","id":null},{"event_id":"420313","title":"横浜サンタプロジェクト～地域貢献プロジェクトにおける企業参加の意義と可能性～【第6回 横浜アクションフォーラム】","url":"http://action-forum-santa.peatix.com","shortener_url":null,"started_at":"2018-09-22T04:00:00.000+09:00","ended_at":"2018-09-24T08:59:59.000+09:00","limit_number":null,"address":"神奈川県横浜市中区山下町94番地","place":"中華街パーキング会議室","lat":35.4443,"lon":139.646,"state":"active","id":null},{"event_id":"415375","title":"ビックカメラアクセラレーター2018 ミートアップ","url":"http://peatix.com/event/415375","shortener_url":null,"started_at":"2018-09-04T03:00:00.000+09:00","ended_at":"2018-09-06T08:59:59.000+09:00","limit_number":null,"address":"東京都港区虎ノ門4-3-1城山トラストタワー4F","place":"東京都港区虎ノ門4-3-1城山トラストタワー4F dock-Toranomon","lat":0.0,"lon":0.0,"state":"active","id":null},{"event_id":"410746","title":"★2018年9月開催★「グローバルスキル能力開発ラボ2018」〜語学力を生かした新しい仕事に出会う3日間〜","url":"http://peatix.com/event/410746","shortener_url":null,"started_at":"2018-09-16T22:00:00.000+09:00","ended_at":"2018-09-19T08:59:59.000+09:00","limit_number":null,"address":"中央区日本橋本石町3−2−4","place":"日本映像翻訳アカデミー","lat":35.6876,"lon":139.771,"state":"active","id":null},{"event_id":"416853","title":"ソーシャルデザインとしてのフェスづくり入門「SF」 ＃７","url":"http://sf06.peatix.com","shortener_url":null,"started_at":"2018-09-10T00:00:00.000+09:00","ended_at":"2018-09-12T08:59:59.000+09:00","limit_number":null,"address":"pin 東京都渋谷区道玄坂1-17-9ヴェラハイツ506号室","place":"ヒコーキ会議室","lat":35.6571,"lon":139.697,"state":"active","id":null},{"event_id":"420582","title":"LOB Tech Night - GCPを使った広告システムの舞台裏","url":"http://peatix.com/event/420582","shortener_url":null,"started_at":"2018-09-14T04:00:00.000+09:00","ended_at":"2018-09-16T08:59:59.000+09:00","limit_number":null,"address":"東京都渋谷区道玄坂1-9-5 渋谷スクエアA 11F","place":"サポーターズセミナールーム","lat":35.6573,"lon":139.7,"state":"active","id":null},{"event_id":"415899","title":"island waves - BOY'S CRAFT PRESENTS -","url":"http://peatix.com/event/415899","shortener_url":null,"started_at":"2018-09-16T19:00:00.000+09:00","ended_at":"2018-09-19T08:59:59.000+09:00","limit_number":null,"address":"有田市初島町浜 9-030","place":"地ノ島","lat":34.1119,"lon":135.101,"state":"active","id":null},{"event_id":"418149","title":"Germany's vision string quartet at 15JohorAF","url":"http://15johoraf-visionstring.peatix.com","shortener_url":null,"started_at":"2018-09-22T06:00:00.000+09:00","ended_at":"2018-09-24T08:59:59.000+09:00","limit_number":null,"address":"Jalan Abdullah Ibrahim, Bandar Johor Bahru, Johor Bahru","place":"The Puteri Pacific Johor Bahru","lat":1.46119,"lon":103.762,"state":"active","id":null},{"event_id":"421882","title":"HAHASAN 2020 (An English Stand Up Comedy Show) (One Night Only)","url":"http://hahasan2020onenight.peatix.com","shortener_url":null,"started_at":"2018-09-01T06:30:00.000+09:00","ended_at":"2018-09-03T08:59:59.000+09:00","limit_number":null,"address":"12, Lorong Universiti B, Seksyen 16, Petaling Jaya","place":"General Space","lat":3.11935,"lon":101.643,"state":"active","id":null},{"event_id":"421623","title":"【満員御礼！】『コークリエイションAtlya×自己組織化』","url":"http://atlya-co-64.peatix.com","shortener_url":null,"started_at":"2018-09-14T04:00:00.000+09:00","ended_at":"2018-09-16T08:59:59.000+09:00","limit_number":null,"address":"東京都渋谷区参宮橋代々木4-50-13","place":"Atlya参宮橋(ちとせ保育園のビル１F）","lat":0.0,"lon":0.0,"state":"active","id":null},{"event_id":"420772","title":"WHITE PARTY! (SAT) ホワイト・パーティー（土）","url":"http://peatix.com/event/420772","shortener_url":null,"started_at":"2018-09-09T04:00:00.000+09:00","ended_at":"2018-09-11T08:59:59.000+09:00","limit_number":null,"address":"東京都港区六本木3-14-9 ユア六本木2F","place":"Bar Propaganda (2F)","lat":35.6623,"lon":139.735,"state":"active","id":null},{"event_id":"420784","title":"WHITE PARTY! (SAT) ホワイト・パーティー!（土）","url":"http://peatix.com/event/420784","shortener_url":null,"started_at":"2018-09-09T04:00:00.000+09:00","ended_at":"2018-09-11T08:59:59.000+09:00","limit_number":null,"address":"大阪市中央区東心斎橋2-5-27","place":"The Blarney Stone (B1F)","lat":34.6718,"lon":135.504,"state":"active","id":null},{"event_id":"420787","title":"PROPS PARTY! (FRI) プロップス・パーティー!（金）","url":"http://peatix.com/event/420787","shortener_url":null,"started_at":"2018-09-22T04:00:00.000+09:00","ended_at":"2018-09-24T08:59:59.000+09:00","limit_number":null,"address":"大阪市中央区東心斎橋2-5-27","place":"The Blarney Stone (B1F)","lat":34.6718,"lon":135.504,"state":"active","id":null},{"event_id":"417106","title":"西日本豪雨復興支援活動（2018.9） #1","url":"http://peatix.com/event/417106","shortener_url":null,"started_at":"2018-09-02T01:00:00.000+09:00","ended_at":"2018-09-04T08:59:59.000+09:00","limit_number":null,"address":"〒710-0251 岡山県倉敷市玉島長尾1242-1","place":"倉敷市災害ボランティアセンター","lat":0.0,"lon":0.0,"state":"active","id":null},{"event_id":"418165","title":"【残り3席】アフィリエイト収益最大化セミナー","url":"http://peatix.com/event/418165","shortener_url":null,"started_at":"2018-09-14T04:00:00.000+09:00","ended_at":"2018-09-16T08:59:59.000+09:00","limit_number":null,"address":"愛知県名古屋市西区名駅2-27-8","place":"プライムセントラルタワー名古屋駅前店 第6会議室","lat":35.176,"lon":136.886,"state":"active","id":null},{"event_id":"418932","title":"nest Dataful Day vol.1","url":"http://peatix.com/event/418932","shortener_url":null,"started_at":"2018-09-12T22:30:00.000+09:00","ended_at":"2018-09-15T08:59:59.000+09:00","limit_number":null,"address":"港区六本木三丁目2−1","place":"住友不動産六本木グランドタワー","lat":35.6647,"lon":139.738,"state":"active","id":null},{"event_id":"420788","title":"PROPS PARTY! (SAT) プロップス・パーティー！（土）","url":"http://peatix.com/event/420788","shortener_url":null,"started_at":"2018-09-23T04:00:00.000+09:00","ended_at":"2018-09-25T08:59:59.000+09:00","limit_number":null,"address":"大阪市中央区東心斎橋2-5-27","place":"The Blarney Stone (B1F)","lat":34.6718,"lon":135.504,"state":"active","id":null},{"event_id":"420771","title":"WHITE PARTY! (FRI) ホワイト・パーティー（金）","url":"http://peatix.com/event/420771","shortener_url":null,"started_at":"2018-09-08T04:00:00.000+09:00","ended_at":"2018-09-10T08:59:59.000+09:00","limit_number":null,"address":"東京都港区六本木3-14-9 ユア六本木2F","place":"Bar Propaganda (2F)","lat":35.6623,"lon":139.735,"state":"active","id":null},{"event_id":"420783","title":"WHITE PARTY! (FRI) ホワイト・パーティー（金）","url":"http://peatix.com/event/420783","shortener_url":null,"started_at":"2018-09-08T04:00:00.000+09:00","ended_at":"2018-09-10T08:59:59.000+09:00","limit_number":null,"address":"大阪市中央区東心斎橋2-5-27","place":"The Blarney Stone (B1F)","lat":34.6718,"lon":135.504,"state":"active","id":null},{"event_id":"420779","title":"SENSU PARTY! (SAT) 扇子パーティー！（土）","url":"http://peatix.com/event/420779","shortener_url":null,"started_at":"2018-09-16T04:00:00.000+09:00","ended_at":"2018-09-18T08:59:59.000+09:00","limit_number":null,"address":"東京都港区六本木3-14-9 ユア六本木2F","place":"Bar Propaganda (2F)","lat":35.6623,"lon":139.735,"state":"active","id":null},{"event_id":"420781","title":"RANDOM PROPS PARTY! (SAT) ランダム・プロップス・パーティー!（土）","url":"http://peatix.com/event/420781","shortener_url":null,"started_at":"2018-09-23T04:00:00.000+09:00","ended_at":"2018-09-25T08:59:59.000+09:00","limit_number":null,"address":"東京都港区六本木3-14-9 ユア六本木2F","place":"Bar Propaganda (2F)","lat":35.6623,"lon":139.735,"state":"active","id":null},{"event_id":"420786","title":"SENSU PARTY! (SAT) 扇子パーティー！（土）","url":"http://peatix.com/event/420786","shortener_url":null,"started_at":"2018-09-16T04:00:00.000+09:00","ended_at":"2018-09-18T08:59:59.000+09:00","limit_number":null,"address":"大阪市中央区東心斎橋2-5-27","place":"The Blarney Stone (B1F)","lat":34.6718,"lon":135.504,"state":"active","id":null},{"event_id":"420780","title":"RANDOM PROPS PARTY! (FRI) ランダム プロップス・パーティー（金）","url":"http://peatix.com/event/420780","shortener_url":null,"started_at":"2018-09-22T04:00:00.000+09:00","ended_at":"2018-09-24T08:59:59.000+09:00","limit_number":null,"address":"東京都港区六本木3-14-9 ユア六本木2F","place":"Bar Propaganda (2F)","lat":35.6623,"lon":139.735,"state":"active","id":null},{"event_id":"420785","title":"SENSU PARTY! (FRI) 扇子パーティー!（金）","url":"http://peatix.com/event/420785","shortener_url":null,"started_at":"2018-09-15T04:00:00.000+09:00","ended_at":"2018-09-17T08:59:59.000+09:00","limit_number":null,"address":"大阪市中央区東心斎橋2-5-27","place":"The Blarney Stone (B1F)","lat":34.6718,"lon":135.504,"state":"active","id":null},{"event_id":"420778","title":"SENSU PARTY! (FRI)　扇子パーティー!（金）","url":"http://peatix.com/event/420778","shortener_url":null,"started_at":"2018-09-15T04:00:00.000+09:00","ended_at":"2018-09-17T08:59:59.000+09:00","limit_number":null,"address":"東京都港区六本木3-14-9 ユア六本木2F","place":"Bar Propaganda (2F)","lat":35.6623,"lon":139.735,"state":"active","id":null},{"event_id":"421895","title":"阿部広太郎くろやなぎてっぺいヤギワタル折田拓哉 「企画でメシは食っていけそう？」  『企画でメシを食っていく2018』特別報告会","url":"http://peatix.com/event/421895","shortener_url":null,"started_at":"2018-09-02T00:00:00.000+09:00","ended_at":"2018-09-04T08:59:59.000+09:00","limit_number":null,"address":"世田谷区北沢2-5-2 BIG BEN B1F","place":"本屋B\u0026B","lat":0.0,"lon":0.0,"state":"active","id":null},{"event_id":"418112","title":"TARAKUCHA! featuring Sean Ghazi \u0026 Ida Mariana at 15JohorAF","url":"http://15johoraf-tarakucha.peatix.com","shortener_url":null,"started_at":"2018-09-10T06:00:00.000+09:00","ended_at":"2018-09-12T08:59:59.000+09:00","limit_number":null,"address":"Jalan Abdullah Ibrahim, Bandar Johor Bahru, Johor Bahru","place":"The Puteri Pacific Johor Bahru","lat":1.46119,"lon":103.762,"state":"active","id":null},{"event_id":"419095","title":"Sunset Live 2018 筑前前原駅と会場を結ぶ無料シャトルバス 予約ページ","url":"http://sunsetlive2018-shuttlebus.peatix.com","shortener_url":null,"started_at":"2018-09-01T18:20:00.000+09:00","ended_at":"2018-09-04T08:59:59.000+09:00","limit_number":null,"address":"福岡県糸島市前原中央1丁目1−15","place":"筑前前原駅、SunsetLive会場","lat":33.5571,"lon":130.199,"state":"active","id":null},{"event_id":"420846","title":"【懇親会あり】管理職ゼロの組織が実践する新しい目標管理の形とは？","url":"http://peatix.com/event/420846","shortener_url":null,"started_at":"2018-09-20T01:30:00.000+09:00","ended_at":"2018-09-22T08:59:59.000+09:00","limit_number":null,"address":"台東区浅草橋5丁目20−8 CSタワー7階","place":"株式会社ISAO","lat":35.7014,"lon":139.781,"state":"active","id":null},{"event_id":"418147","title":"Fusion Wayang Kulit at 15JohorAF","url":"http://15johoraf-wayangkulit.peatix.com","shortener_url":null,"started_at":"2018-09-15T01:00:00.000+09:00","ended_at":"2018-09-17T08:59:59.000+09:00","limit_number":null,"address":"Jalan Abdullah Ibrahim, Bandar Johor Bahru, Johor Bahru","place":"The Puteri Pacific Johor Bahru","lat":1.46119,"lon":103.762,"state":"active","id":null},{"event_id":"418139","title":"From Mozart to Totoro - MPO at 15JohorAF","url":"http://15johoraf-mpo.peatix.com","shortener_url":null,"started_at":"2018-09-04T06:00:00.000+09:00","ended_at":"2018-09-06T08:59:59.000+09:00","limit_number":null,"address":"Jalan Abdullah Ibrahim, Johor Bahru","place":"Persada Johor International Convention Centre","lat":1.46177,"lon":103.762,"state":"active","id":null},{"event_id":"418563","title":"「社会人男子コンin松本」2018年9月1日(土) 19:30-22:00","url":"http://peatix.com/event/418563","shortener_url":null,"started_at":"2018-09-02T04:30:00.000+09:00","ended_at":"2018-09-04T08:59:59.000+09:00","limit_number":null,"address":"松本市 深志1-2-33 IMビル 1階","place":"福福屋 松本東口駅前店","lat":36.2309,"lon":137.966,"state":"active","id":null},{"event_id":"418587","title":"25歳から35歳限定「アラサーパーティーin水戸」2018年9月2日(日) 15:00-17:30","url":"http://peatix.com/event/418587","shortener_url":null,"started_at":"2018-09-03T00:00:00.000+09:00","ended_at":"2018-09-05T08:59:59.000+09:00","limit_number":null,"address":"茨城県水戸市宮町1-7-31 エクセルみなみ6F","place":"パパゲーノ水戸","lat":36.3701,"lon":140.477,"state":"active","id":null},{"event_id":"418602","title":"「安定男子限定パーティーinつくば」2018年9月2日 (日) 15:00-17:30","url":"http://peatix.com/event/418602","shortener_url":null,"started_at":"2018-09-03T00:00:00.000+09:00","ended_at":"2018-09-05T08:59:59.000+09:00","limit_number":null,"address":"つくば市 竹園1-9-2 デイズタウンつくば 地下1階","place":"魚民 つくばデイズタウン店","lat":36.0779,"lon":140.116,"state":"active","id":null},{"event_id":"418582","title":"安定男子限定「恋活友活パーティーin水戸」2018年9月2日(日) 15:00-17:30","url":"http://peatix.com/event/418582","shortener_url":null,"started_at":"2018-09-03T00:00:00.000+09:00","ended_at":"2018-09-05T08:59:59.000+09:00","limit_number":null,"address":"茨城県水戸市宮町1-7-31 エクセルみなみ6F","place":"パパゲーノ水戸","lat":36.3701,"lon":140.477,"state":"active","id":null},{"event_id":"418936","title":"「社会人男子コンin盛岡」2018年9月2日(日) 15:00-19:30","url":"http://peatix.com/event/418936","shortener_url":null,"started_at":"2018-09-03T00:00:00.000+09:00","ended_at":"2018-09-05T08:59:59.000+09:00","limit_number":null,"address":"盛岡市菜園2-4-23","place":"琥haku （コハク）","lat":39.7019,"lon":141.147,"state":"active","id":null},{"event_id":"418931","title":"男女20代限定「社会人男子コンin鶴岡」2018年9月2日(日) 15:00-17:30","url":"http://peatix.com/event/418931","shortener_url":null,"started_at":"2018-09-03T00:00:00.000+09:00","ended_at":"2018-09-05T08:59:59.000+09:00","limit_number":null,"address":"山形県鶴岡市末広町2-41 YS鶴岡駅前ビル 1F","place":"千年の宴　鶴岡駅前店","lat":38.7397,"lon":139.838,"state":"active","id":null},{"event_id":"418905","title":"男女20代限定「社会人男子コンin山形」2018年9月1日(土) 19:30-22:00","url":"http://peatix.com/event/418905","shortener_url":null,"started_at":"2018-09-02T04:30:00.000+09:00","ended_at":"2018-09-04T08:59:59.000+09:00","limit_number":null,"address":"山形県山形市香澄町1-15-28 ホテルニュー最上屋","place":"魚民　山形駅前店 ","lat":38.2497,"lon":140.329,"state":"active","id":null},{"event_id":"418917","title":"25歳から35歳限定「アラサーコンin秋田」2018年9月1日(土) 19:30-22:00","url":"http://peatix.com/event/418917","shortener_url":null,"started_at":"2018-09-02T04:30:00.000+09:00","ended_at":"2018-09-04T08:59:59.000+09:00","limit_number":null,"address":"秋田県秋田市中通4-13-2","place":"わらわら　秋田西口駅前店","lat":39.7157,"lon":140.127,"state":"active","id":null},{"event_id":"421458","title":"「30代限定パーティーin水戸」2018年9月8日(土) 19:30-22:00","url":"http://peatix.com/event/421458","shortener_url":null,"started_at":"2018-09-09T04:30:00.000+09:00","ended_at":"2018-09-11T08:59:59.000+09:00","limit_number":null,"address":"茨城県水戸市宮町1-7-31 エクセルみなみ6F","place":"イタリアンバイキング「パパゲーノ水戸」","lat":36.3701,"lon":140.477,"state":"active","id":null},{"event_id":"421713","title":"25歳から35歳限定「アラサーコンin小山」2018年9月8日(土) 19:30-22:00","url":"http://peatix.com/event/421713","shortener_url":null,"started_at":"2018-09-09T04:30:00.000+09:00","ended_at":"2018-09-11T08:59:59.000+09:00","limit_number":null,"address":"小山市駅東通り1-4-7 柿木ビル2F","place":"笑笑 小山東口駅前店","lat":36.3108,"lon":139.807,"state":"active","id":null},{"event_id":"421838","title":"25歳から35歳限定「アラサーコンin太田」2018年9月8日(土) 19:30-22:00","url":"http://peatix.com/event/421838","shortener_url":null,"started_at":"2018-09-09T04:30:00.000+09:00","ended_at":"2018-09-11T08:59:59.000+09:00","limit_number":null,"address":"群馬県太田市飯田町1389-2 武藤ビル2F","place":"白木屋　太田南口駅前店","lat":36.2932,"lon":139.379,"state":"active","id":null},{"event_id":"421270","title":"「安定男子コンin山形」2018年9月9日(日) 15:00-17:30","url":"http://peatix.com/event/421270","shortener_url":null,"started_at":"2018-09-10T00:00:00.000+09:00","ended_at":"2018-09-12T08:59:59.000+09:00","limit_number":null,"address":"山形市香澄町1丁目15−28 ホテルニュー最上屋","place":"魚民 山形駅前店","lat":38.2497,"lon":140.329,"state":"active","id":null},{"event_id":"421294","title":"25歳から35歳限定「アラサーコンin福島」2018年9月9日(日) 15:00-17:30","url":"http://peatix.com/event/421294","shortener_url":null,"started_at":"2018-09-10T00:00:00.000+09:00","ended_at":"2018-09-12T08:59:59.000+09:00","limit_number":null,"address":"福島市栄町11-30 ゼビオビルB1","place":"笑笑 福島東口駅前店","lat":37.754,"lon":140.463,"state":"active","id":null},{"event_id":"421251","title":"「大人の年の差コンin盛岡」2018年9月8日(土) 19:30-22:00","url":"http://peatix.com/event/421251","shortener_url":null,"started_at":"2018-09-09T04:30:00.000+09:00","ended_at":"2018-09-11T08:59:59.000+09:00","limit_number":null,"address":"盛岡市菜園2-4-23","place":"琥haku （コハク）","lat":39.7019,"lon":141.147,"state":"active","id":null},{"event_id":"418369","title":"「大人の年の差パーティーinつくば」2018年9月1日(土) 19:30-22:00","url":"http://peatix.com/event/418369","shortener_url":null,"started_at":"2018-09-02T04:30:00.000+09:00","ended_at":"2018-09-04T08:59:59.000+09:00","limit_number":null,"address":"つくば市 竹園1-9-2 デイズタウンつくば 地下1階","place":"魚民 つくばデイズタウン店","lat":36.0779,"lon":140.116,"state":"active","id":null},{"event_id":"418465","title":"「週末夜コンin千葉」2018年9月1日(土) 19:30-22:00","url":"http://peatix.com/event/418465","shortener_url":null,"started_at":"2018-09-02T04:30:00.000+09:00","ended_at":"2018-09-04T08:59:59.000+09:00","limit_number":null,"address":"千葉市中央区 富士見1丁目2−7 千葉駅前みゆきビル 2階","place":"魚民 ＪＲ千葉駅前店","lat":35.6129,"lon":140.117,"state":"active","id":null},{"event_id":"418799","title":"「社会人男子コンin金沢」2018年9月2日(日) 15:00-17:30","url":"http://peatix.com/event/418799","shortener_url":null,"started_at":"2018-09-03T00:00:00.000+09:00","ended_at":"2018-09-05T08:59:59.000+09:00","limit_number":null,"address":"石川県金沢市香林坊1‐1‐1 香林坊大和8F","place":"ブッフェレストラン「ザ・ダイニング　」","lat":36.563,"lon":136.654,"state":"active","id":null},{"event_id":"418491","title":"男女20代限定「社会人男子コンin富山」2018年9月1日(土) 19:00-21:00","url":"http://peatix.com/event/418491","shortener_url":null,"started_at":"2018-09-02T04:00:00.000+09:00","ended_at":"2018-09-04T08:59:59.000+09:00","limit_number":null,"address":"富山市総曲輪3丁目8−番 6号大和富山店 6F","place":"ザ・ブッフェ 大和富山","lat":36.6894,"lon":137.213,"state":"active","id":null},{"event_id":"418559","title":"「アラサーコンin長野」2018年9月1日(土) 19:30-22:00","url":"http://peatix.com/event/418559","shortener_url":null,"started_at":"2018-09-02T04:30:00.000+09:00","ended_at":"2018-09-04T08:59:59.000+09:00","limit_number":null,"address":"長野市大字鶴賀南千歳町 878-5 グランヴィル南千歳2番館 1階","place":"魚民 長野千歳町通り店","lat":36.6471,"lon":138.189,"state":"active","id":null},{"event_id":"418566","title":"「安定男子コンin郡山」2018年9月2日(日) 15:00-17:30","url":"http://peatix.com/event/418566","shortener_url":null,"started_at":"2018-09-03T00:00:00.000+09:00","ended_at":"2018-09-05T08:59:59.000+09:00","limit_number":null,"address":"郡山市 駅前2-3-12 越後屋プラザ 2階","place":"山内農場 郡山駅前店","lat":37.3982,"lon":140.387,"state":"active","id":null},{"event_id":"418840","title":"金曜夜開催「週末夜コンin山形」2018年8月31日(金) 19:30-22:00","url":"http://peatix.com/event/418840","shortener_url":null,"started_at":"2018-09-01T04:30:00.000+09:00","ended_at":"2018-09-03T08:59:59.000+09:00","limit_number":null,"address":"山形市香澄町1丁目15−28 ホテルニュー最上屋","place":"魚民 山形駅前店","lat":38.2497,"lon":140.329,"state":"active","id":null},{"event_id":"418915","title":"25歳から35歳限定「アラサーコンin福島」2018年9月1日(土) 19:30-22:00","url":"http://peatix.com/event/418915","shortener_url":null,"started_at":"2018-09-02T04:30:00.000+09:00","ended_at":"2018-09-04T08:59:59.000+09:00","limit_number":null,"address":"福島市栄町11-30 ゼビオビルB1","place":"笑笑 福島東口駅前店","lat":37.754,"lon":140.463,"state":"active","id":null},{"event_id":"419103","title":"「30代限定コンinいわき」2018年9月9日(日) 15:00-17:30","url":"http://peatix.com/event/419103","shortener_url":null,"started_at":"2018-09-10T00:00:00.000+09:00","ended_at":"2018-09-12T08:59:59.000+09:00","limit_number":null,"address":"福島県いわき市平字白銀町6-1","place":"「三代目」鳥メロ いわき駅前店","lat":37.0574,"lon":140.894,"state":"active","id":null},{"event_id":"419088","title":"「週末夜コンinいわき」2018年9月1日(土) 19:30-22:00","url":"http://peatix.com/event/419088","shortener_url":null,"started_at":"2018-09-02T04:30:00.000+09:00","ended_at":"2018-09-04T08:59:59.000+09:00","limit_number":null,"address":"いわき市 平字田町1-1 レストランビル3F","place":"JAPANESE DINING 和民 いわき駅前店","lat":37.057,"lon":140.893,"state":"active","id":null},{"event_id":"421716","title":"25歳から35歳限定「アラサーコンin高崎」2018年9月8日(土) 19:30-22:00","url":"http://peatix.com/event/421716","shortener_url":null,"started_at":"2018-09-09T04:30:00.000+09:00","ended_at":"2018-09-11T08:59:59.000+09:00","limit_number":null,"address":"高崎市 西口サウスパークビル 1階","place":"魚民 高崎西口駅前店","lat":36.3208,"lon":139.012,"state":"active","id":null},{"event_id":"421300","title":"「安定男子コンin山形」2018年9月15日(土) 15:00-17:30","url":"http://peatix.com/event/421300","shortener_url":null,"started_at":"2018-09-16T00:00:00.000+09:00","ended_at":"2018-09-18T08:59:59.000+09:00","limit_number":null,"address":"山形市 香澄町1-15-28 ホテルニュー最上屋 地下1階","place":"魚民 山形駅前店","lat":38.2497,"lon":140.329,"state":"active","id":null},{"event_id":"421305","title":"「週末夜コンin鶴岡」2018年9月15日(土) 19:30-22:00","url":"http://peatix.com/event/421305","shortener_url":null,"started_at":"2018-09-16T04:30:00.000+09:00","ended_at":"2018-09-18T08:59:59.000+09:00","limit_number":null,"address":"鶴岡市末広町2-41 YS鶴岡駅前ビル 1階","place":"千年の宴 鶴岡駅前店","lat":38.7397,"lon":139.838,"state":"active","id":null},{"event_id":"421280","title":"「旅行好き・ドライブ好き・アウトドア好きコンin鶴岡」2018年9月9日(日) 15:00-17:30","url":"http://peatix.com/event/421280","shortener_url":null,"started_at":"2018-09-10T00:00:00.000+09:00","ended_at":"2018-09-12T08:59:59.000+09:00","limit_number":null,"address":"鶴岡市末広町2-41 YS鶴岡駅前ビル 1階","place":"千年の宴 鶴岡駅前店","lat":38.7397,"lon":139.838,"state":"active","id":null},{"event_id":"417401","title":"9月14日(金)19:00～★ 表参道 国際的な友活はGaitomo国際交流パーティー","url":"http://peatix.com/event/417401","shortener_url":null,"started_at":"2018-09-15T04:00:00.000+09:00","ended_at":"2018-09-17T08:59:59.000+09:00","limit_number":null,"address":"港区南青山5丁目10−1 H2 AOYAMA BLDG B1","place":"エラグ青山","lat":35.6627,"lon":139.711,"state":"active","id":null},{"event_id":"418358","title":"「週末夜コンin水戸」2018年9月1日(土) 19:30-22:00","url":"http://peatix.com/event/418358","shortener_url":null,"started_at":"2018-09-02T04:30:00.000+09:00","ended_at":"2018-09-04T08:59:59.000+09:00","limit_number":null,"address":"茨城県水戸市宮町1-7-31 エクセルみなみ6F","place":"パパゲーノ水戸","lat":36.3701,"lon":140.477,"state":"active","id":null},{"event_id":"418454","title":"「週末夜コンin太田」2018年9月1日(土) 19:30-22:00","url":"http://peatix.com/event/418454","shortener_url":null,"started_at":"2018-09-02T04:30:00.000+09:00","ended_at":"2018-09-04T08:59:59.000+09:00","limit_number":null,"address":"群馬県太田市飯田町1389-2 武藤ビル2F","place":"白木屋 太田南口店","lat":36.2932,"lon":139.379,"state":"active","id":null},{"event_id":"418461","title":"25歳から35歳限定「アラサーコンin高崎」2018年9月1日(土) 19:30-22:00","url":"http://peatix.com/event/418461","shortener_url":null,"started_at":"2018-09-02T04:30:00.000+09:00","ended_at":"2018-09-04T08:59:59.000+09:00","limit_number":null,"address":"高崎市栄町14−1 イーストセンタービル","place":"魚民 高崎東口駅前店","lat":36.3217,"lon":139.015,"state":"active","id":null},