[{"event_id":"314616","title":"Emerald Hill Walking Tour ","url":"http://emhill0404.peatix.com","shortener_url":null,"started_at":"2018-04-04T10:00:00.000+09:00","ended_at":"2018-04-06T23:59:59.000+09:00","limit_number":null,"address":"Emerald Hill Road","place":"Emerald Hill Singapore","lat":1.30373,"lon":103.84,"state":"active","id":null},{"event_id":"339674","title":"Lesung mit Ilma Rakusa und Yoko Tawada: Mehr Meer /     朗読会　イルマ・ラクーザ／多和田葉子：もっと、海を","url":"http://peatix.com/event/339674","shortener_url":null,"started_at":"2018-04-12T19:00:00.000+09:00","ended_at":"2018-04-14T23:59:59.000+09:00","limit_number":null,"address":"107-0052東京都港区赤坂7-5-56ドイツ文化会館2F","place":"Bibliothek / 図書館","lat":35.6732,"lon":139.73,"state":"active","id":null},{"event_id":"340882","title":"4月15日(日)18:00～シャンデリアの下で旅行好き集まれGaitomo国際交流パーティー","url":"http://peatix.com/event/340882","shortener_url":null,"started_at":"2018-04-15T18:00:00.000+09:00","ended_at":"2018-04-17T23:59:59.000+09:00","limit_number":null,"address":"東京都港区麻布十番1-9-2 ユニマット麻布十番ビル7F","place":"麻布十番 SPUTNIK LOUNGE ","lat":35.6564,"lon":139.735,"state":"active","id":null},{"event_id":"340903","title":"4月22日(日)18:00～六本木【独身限定】駅近セレブラウンジでGaitomo国際交流パーティー","url":"http://peatix.com/event/340903","shortener_url":null,"started_at":"2018-04-22T18:00:00.000+09:00","ended_at":"2018-04-24T23:59:59.000+09:00","limit_number":null,"address":"東京都港区六本木4-10-10 正直屋ビルB1","place":"六本木 balance(バランス) ","lat":35.6638,"lon":139.732,"state":"active","id":null},{"event_id":"322701","title":"Shinoharu English Rakugo in Fukagawa Ⅴ","url":"http://english0417.peatix.com","shortener_url":null,"started_at":"2018-04-17T19:30:00.000+09:00","ended_at":"2018-04-19T23:59:59.000+09:00","limit_number":null,"address":"東京都江東区白河1-3-28","place":"深川江戸資料館　小劇場","lat":35.6812,"lon":139.801,"state":"active","id":null},{"event_id":"345641","title":"【4/8】HADO SPRING CUP予選（VREX渋谷宮益坂）","url":"http://peatix.com/event/345641","shortener_url":"https://goo.gl/QfzoVx","started_at":"2018-04-08T13:00:00.000+09:00","ended_at":"2018-04-10T23:59:59.000+09:00","limit_number":null,"address":"東京都渋谷区渋谷1-12-1カレイド渋谷宮益坂3F","place":"VREX渋谷宮益坂店","lat":35.6603,"lon":139.703,"state":"active","id":null},{"event_id":"344933","title":"1300円 First Big Hanami BBQ of 2018!!  2 hotdogs, 3 drinks, sports,live music","url":"http://peatix.com/event/344933","shortener_url":null,"started_at":"2018-04-01T13:00:00.000+09:00","ended_at":"2018-04-03T23:59:59.000+09:00","limit_number":null,"address":"Ryokuchikoen Station","place":"Ryokuchikoen Station","lat":34.7756,"lon":135.495,"state":"active","id":null},{"event_id":"69444","title":"Startup Weekend えひめ vol.6（スタートアップ ウイークエンド愛媛） ","url":"https://swehime.doorkeeper.jp/events/69444","shortener_url":"https://goo.gl/hs62Vk","started_at":"2018-04-20T18:30:00.000+09:00","ended_at":"2018-04-22T21:00:00.000+09:00","limit_number":40,"address":"愛媛県松山市二番町3丁目7番地12","place":"サイボウズ株式会社　松山オフィス","lat":33.84,"lon":132.769,"state":"active","id":null},{"event_id":"70680","title":"Startup Weekend Tokyo 深圳@SegMaker","url":"https://swtokyo.doorkeeper.jp/events/70680","shortener_url":"https://goo.gl/Jg6JuQ","started_at":"2018-04-27T18:00:00.000+09:00","ended_at":"2018-04-29T21:00:00.000+09:00","limit_number":61,"address":"11F, Seg Square, Hua Qiang Bei, Futian District, Shenzhen, Shenzhen, Guangdong, 518031, China","place":"Segmaker Space 11F","lat":22.5415,"lon":114.087,"state":"active","id":null},{"event_id":"343461","title":"48H2 Hackathon","url":"http://48h2.peatix.com","shortener_url":"https://goo.gl/1M1hXc","started_at":"2018-04-20T20:00:00.000+09:00","ended_at":"2018-04-22T23:59:59.000+09:00","limit_number":null,"address":"MSOGO, 1-123A Prangin Mall, Jalan Dr. Lim Chwee Leong, 10100 Georgetown, Penang, Malaysia","place":"Msogo 1st floor, Atrium B, Prangin Mall, Penang","lat":5.4145,"lon":100.331,"state":"active","id":null},{"event_id":"350239","title":"禅の教えに学ぶ経営道＋リーダー学　経営に活かし、成功へと導く！ 「禅×経営」実践塾・第1期","url":"http://peatix.com/event/350239","shortener_url":"https://goo.gl/v2XEWh","started_at":"2018-04-14T13:30:00.000+09:00","ended_at":"2018-04-16T23:59:59.000+09:00","limit_number":null,"address":"渋谷区広尾1-16-2 VORT恵比寿Ⅱ 7F","place":"G-FIELD EBISU（経営者JPオフィスビル7Fセミナースペース）","lat":0.0,"lon":0.0,"state":"active","id":null},{"event_id":"348876","title":"両国PORTシネマ＃１  「日本一幸せな従業員をつくる！」","url":"http://peatix.com/event/348876","shortener_url":null,"started_at":"2018-04-20T18:00:00.000+09:00","ended_at":"2018-04-22T23:59:59.000+09:00","limit_number":null,"address":"東京都墨田区両国2-9-5TKF第二会館3F","place":"両国PORT","lat":35.6945,"lon":139.794,"state":"active","id":null},{"event_id":"346421","title":"FutureHack 2018","url":"http://futurehack18.peatix.com","shortener_url":null,"started_at":"2018-04-14T10:00:00.000+09:00","ended_at":"2018-04-16T23:59:59.000+09:00","limit_number":null,"address":"Asia Pacific University (New Campus)","place":"Asia Pacific University ","lat":3.05507,"lon":101.701,"state":"active","id":null},{"event_id":"349061","title":"動き出す絵本コンサート「くろねこくんとニッポンのうた」","url":"http://kuroneko.peatix.com","shortener_url":null,"started_at":"2018-04-21T13:00:00.000+09:00","ended_at":"2018-04-23T23:59:59.000+09:00","limit_number":null,"address":"東京都新宿区若葉1-22-16ASTYビル地階","place":"絵本塾ホール","lat":35.6826,"lon":139.726,"state":"active","id":null},{"event_id":"352191","title":"Microsoft Power BI 実践ハンズオン応用編【DAX関数基礎】(2018年4月）","url":"http://powerbi201804advance.peatix.com","shortener_url":"https://goo.gl/DnP8xw","started_at":"2018-04-27T14:00:00.000+09:00","ended_at":"2018-04-29T23:59:59.000+09:00","limit_number":null,"address":"東京都中央区銀座3丁目9 銀座3-9-4 銀座草野ビルディング 4F","place":"マイスペース 銀座マロニエ通り店","lat":35.6718,"lon":139.768,"state":"active","id":null},{"event_id":"352187","title":"Microsoft Power BI 実践ハンズオン 入門編（2018年4月）","url":"http://powerbi201804.peatix.com","shortener_url":"https://goo.gl/5dpuX6","started_at":"2018-04-12T14:00:00.000+09:00","ended_at":"2018-04-14T23:59:59.000+09:00","limit_number":null,"address":"東京都中央区銀座3丁目9 銀座3-9-4 銀座草野ビルディング 4F","place":"マイスペース 銀座マロニエ通り店","lat":35.6718,"lon":139.768,"state":"active","id":null},{"event_id":"349344","title":"4月12日(木)19:00～★ 恵比寿 スペイン料理一軒家レストランで平日Gaitomo国際交流パーティー","url":"http://peatix.com/event/349344","shortener_url":null,"started_at":"2018-04-12T19:00:00.000+09:00","ended_at":"2018-04-14T23:59:59.000+09:00","limit_number":null,"address":"東京都渋谷区恵比寿南3-1-24 シティスクエア恵比寿1F","place":"アマポーラ 恵比寿店 ","lat":35.6459,"lon":139.706,"state":"active","id":null},{"event_id":"349301","title":"4月1日(日)18:00～★ 銀座 花に囲まれたヨーロッパ調サロンでGaitomo国際交流パーティー","url":"http://peatix.com/event/349301","shortener_url":null,"started_at":"2018-04-01T18:00:00.000+09:00","ended_at":"2018-04-03T23:59:59.000+09:00","limit_number":null,"address":"東京都中央区銀座5-9-13 菊正ビル9F","place":"銀座PPサロン ","lat":35.6699,"lon":139.765,"state":"active","id":null},{"event_id":"349313","title":"4月8日(日)18:00～★ 青山【シングル限定】優雅なセレブラウンジでGaitomo国際交流パーティー","url":"http://peatix.com/event/349313","shortener_url":null,"started_at":"2018-04-08T18:00:00.000+09:00","ended_at":"2018-04-10T23:59:59.000+09:00","limit_number":null,"address":"東京都港区北青山3-2-5 NH青山ビル2F","place":"青山 Aoyama Lounge ","lat":35.6689,"lon":139.715,"state":"active","id":null},{"event_id":"351539","title":"安定男子限定「恋活友活パーティーin水戸」2018年4月1日(日) 15:00-17:30","url":"http://peatix.com/event/351539","shortener_url":null,"started_at":"2018-04-01T15:00:00.000+09:00","ended_at":"2018-04-03T23:59:59.000+09:00","limit_number":null,"address":"茨城県水戸市宮町1-7-31 エクセルみなみ6F","place":"パパゲーノ水戸","lat":36.3701,"lon":140.477,"state":"active","id":null},{"event_id":"351555","title":"「安定男子限定パーティーinつくば」2018年4月1日 (日) 14:00-16:30","url":"http://peatix.com/event/351555","shortener_url":null,"started_at":"2018-04-01T14:00:00.000+09:00","ended_at":"2018-04-03T23:59:59.000+09:00","limit_number":null,"address":"茨城県つくば市吾妻1-5-3 MOG2階","place":"月の宴　つくばクレオスクエアＭＯＧ店","lat":0.0,"lon":0.0,"state":"active","id":null},{"event_id":"70560","title":"【4/14（土）開講！第5期生募集】データ分析教育講座《4−6月》","url":"https://soleildatadojo.doorkeeper.jp/events/70560","shortener_url":"https://goo.gl/2rHa8H","started_at":"2018-04-14T10:00:00.000+09:00","ended_at":"2018-06-23T17:10:00.000+09:00","limit_number":20,"address":"大阪府大阪市北区西天満2−5−3(堂島深川ビル3F)","place":"Scrrible Osaka Lab（大阪市営地下鉄「淀屋橋」駅より徒歩4分／京阪電鉄中之島線「大江橋」駅徒歩2分）","lat":34.6951,"lon":135.502,"state":"active","id":null},{"event_id":"345936","title":"4/19(Thu) Travel Lovers Meetup in Shinjuku/ FREE Entry for Non-Japanese","url":"http://peatix.com/event/345936","shortener_url":null,"started_at":"2018-04-19T19:00:00.000+09:00","ended_at":"2018-04-21T23:59:59.000+09:00","limit_number":null,"address":"8-19-11 NishiShinjuku Shinjuku-ku Tokyo","place":"KASHIWAGI CAFE ","lat":35.6956,"lon":139.691,"state":"active","id":null},{"event_id":"345948","title":"4/27(Fri) Nihongo Night at Modern Bar in Roppongi/ FREE Entrance for Non-Japanese ","url":"http://peatix.com/event/345948","shortener_url":null,"started_at":"2018-04-27T19:00:00.000+09:00","ended_at":"2018-04-29T23:59:59.000+09:00","limit_number":null,"address":"東京都港区六本木7-13-8","place":"GLAMOUR Tokyo Bar","lat":35.6639,"lon":139.73,"state":"active","id":null},{"event_id":"345905","title":"4/1(Sun) Shinjuku Travel Lovers Ladies  Meetup  / FREE Entry for Non-Japanese","url":"http://peatix.com/event/345905","shortener_url":null,"started_at":"2018-04-01T14:00:00.000+09:00","ended_at":"2018-04-03T23:59:59.000+09:00","limit_number":null,"address":"Minato-ku Roppongi 3-16-33, Tokyo","place":"Hobgoblin Roppongi","lat":35.6623,"lon":139.737,"state":"active","id":null},{"event_id":"351053","title":"4/28(Sat) Shinjuku Drink Meetup / FREE Entry for Non-Japanese","url":"http://peatix.com/event/351053","shortener_url":null,"started_at":"2018-04-28T19:00:00.000+09:00","ended_at":"2018-04-30T23:59:59.000+09:00","limit_number":null,"address":"東京都新宿区西新宿8-19-11","place":"KASHIWAGI CAFE","lat":35.692,"lon":139.686,"state":"active","id":null},{"event_id":"353074","title":"4/6(Fri) Shinjuku Drink Meetup / FREE Entry for Non-Japanese","url":"http://peatix.com/event/353074","shortener_url":null,"started_at":"2018-04-06T19:00:00.000+09:00","ended_at":"2018-04-08T23:59:59.000+09:00","limit_number":null,"address":"東京都新宿区西新宿8-19-11","place":"KASHIWAGI CAFE","lat":35.692,"lon":139.686,"state":"active","id":null},{"event_id":"345918","title":"4/8(Sun) Nihongo Meetup in Shibuya / FREE Entry for Non-Japanese","url":"http://peatix.com/event/345918","shortener_url":null,"started_at":"2018-04-08T14:00:00.000+09:00","ended_at":"2018-04-10T23:59:59.000+09:00","limit_number":null,"address":"1-3-11 Dogenzaka Shibuya-ku Tokyo","place":"東京都渋谷区猿楽町2-12 相野谷ビル 1F","lat":35.6583,"lon":139.7,"state":"active","id":null},{"event_id":"345932","title":"4/15(Sun) Drink Meetup in Meguro / FREE Entrance for Non-Japanese","url":"http://peatix.com/event/345932","shortener_url":null,"started_at":"2018-04-15T18:00:00.000+09:00","ended_at":"2018-04-17T23:59:59.000+09:00","limit_number":null,"address":"目黒区下目黒1-3-28","place":"The Meguro Tavern","lat":35.6343,"lon":139.713,"state":"active","id":null},{"event_id":"345944","title":"4/21(Sat) Akasaka Nihongo Night / FREE Entrance for Non-Japanese","url":"http://peatix.com/event/345944","shortener_url":null,"started_at":"2018-04-21T19:00:00.000+09:00","ended_at":"2018-04-23T23:59:59.000+09:00","limit_number":null,"address":"東京都港区赤坂2-13-19","place":"AKASAKA HOBGOBLIN","lat":35.6727,"lon":139.738,"state":"active","id":null},{"event_id":"345909","title":"4/4(Wed) English Only Night  in NishiShinjuku / FREE Entry for Non-Japanese ","url":"http://peatix.com/event/345909","shortener_url":null,"started_at":"2018-04-04T19:00:00.000+09:00","ended_at":"2018-04-06T23:59:59.000+09:00","limit_number":null,"address":"東京都新宿区西新宿8-19-11","place":"KASHIWAGI CAFE ","lat":35.6956,"lon":139.691,"state":"active","id":null},{"event_id":"345954","title":"4/29(Sun) Nihongo Night in Kamiyacho / FREE Entrance for Non-Japanese ","url":"http://peatix.com/event/345954","shortener_url":null,"started_at":"2018-04-29T19:00:00.000+09:00","ended_at":"2018-05-01T23:59:59.000+09:00","limit_number":null,"address":"東京都港区虎ノ門3丁目18-21 久永ビル2F","place":"Irish Pub Mulligans ","lat":35.6636,"lon":139.746,"state":"active","id":null},{"event_id":"345928","title":"4/15(Sun) Nihongo Meetup in Roppongi / FREE Entry for Non-Japanese","url":"http://peatix.com/event/345928","shortener_url":null,"started_at":"2018-04-15T14:00:00.000+09:00","ended_at":"2018-04-17T23:59:59.000+09:00","limit_number":null,"address":"東京都港区六本木3−16−33","place":"Hobgoblin Roppongi","lat":35.6623,"lon":139.737,"state":"active","id":null},{"event_id":"345947","title":"4/26(Thu) Shinjuku Around 30s Night / FREE Entry for Non-Japanese","url":"http://peatix.com/event/345947","shortener_url":null,"started_at":"2018-04-26T19:00:00.000+09:00","ended_at":"2018-04-28T23:59:59.000+09:00","limit_number":null,"address":"東京都新宿区西新宿8-19-11","place":"KASHIWAGI CAFE","lat":35.692,"lon":139.686,"state":"active","id":null},{"event_id":"348167","title":"4/30(Mon) Drink Meetup in Jiyugaoka / FREE Entrance for Non-Japanese","url":"http://peatix.com/event/348167","shortener_url":null,"started_at":"2018-04-30T18:00:00.000+09:00","ended_at":"2018-05-02T23:59:59.000+09:00","limit_number":null,"address":"東京都目黒区自由が丘1丁目8-18","place":"Clann","lat":35.6069,"lon":139.669,"state":"active","id":null},{"event_id":"345938","title":"4/20(Fri) Shinjuku Drink Meetup / FREE Entry for Non-Japanese","url":"http://peatix.com/event/345938","shortener_url":null,"started_at":"2018-04-20T19:00:00.000+09:00","ended_at":"2018-04-22T23:59:59.000+09:00","limit_number":null,"address":"東京都新宿区西新宿8-19-11","place":"KASHIWAGI CAFE","lat":35.692,"lon":139.686,"state":"active","id":null},{"event_id":"345910","title":"4/5(Thu) Russian Night in Roppongi / Free Entrance for Russian Native Speakers ","url":"http://peatix.com/event/345910","shortener_url":null,"started_at":"2018-04-05T19:00:00.000+09:00","ended_at":"2018-04-07T23:59:59.000+09:00","limit_number":null,"address":"東京都港区六本木3−16−33","place":"Hobgoblin Roppongi","lat":35.6623,"lon":139.737,"state":"active","id":null},{"event_id":"345922","title":"4/13(Fri) Nihongo Night at Modern Bar in Roppongi/ FREE Entrance for Non-Japanese ","url":"http://peatix.com/event/345922","shortener_url":null,"started_at":"2018-04-13T19:00:00.000+09:00","ended_at":"2018-04-15T23:59:59.000+09:00","limit_number":null,"address":"東京都港区六本木7-13-8","place":"GLAMOUR Tokyo Bar","lat":35.6639,"lon":139.73,"state":"active","id":null},{"event_id":"345934","title":"4/18(Wed) German Night in Roppongi  / Free Entrance for German Native Speakers","url":"http://peatix.com/event/345934","shortener_url":null,"started_at":"2018-04-18T19:00:00.000+09:00","ended_at":"2018-04-20T23:59:59.000+09:00","limit_number":null,"address":"東京都港区六本木3−16−33","place":"Hobgoblin Roppongi","lat":35.6623,"lon":139.737,"state":"active","id":null},{"event_id":"348166","title":"4/30(Mon) Nihongo Meetup in Shibuya / FREE Entry for Non-Japanese","url":"http://peatix.com/event/348166","shortener_url":null,"started_at":"2018-04-30T14:00:00.000+09:00","ended_at":"2018-05-02T23:59:59.000+09:00","limit_number":null,"address":"1-3-11 Dogenzaka Shibuya-ku Tokyo","place":"Shibuya Hobgoblin","lat":35.6583,"lon":139.7,"state":"active","id":null},{"event_id":"345915","title":"4/7(Sat) Nihongo Night in Kamiyacho / FREE Entrance for Non-Japanese","url":"http://peatix.com/event/345915","shortener_url":null,"started_at":"2018-04-07T19:00:00.000+09:00","ended_at":"2018-04-09T23:59:59.000+09:00","limit_number":null,"address":"東京都港区虎ノ門3丁目18-21 久永ビル2F","place":"Irish Pub Mulligans ","lat":35.6636,"lon":139.746,"state":"active","id":null},{"event_id":"345908","title":"4/1(Sun) Drink Meetup in Jiyugaoka / FREE Entrance for Non-Japanese","url":"http://peatix.com/event/345908","shortener_url":null,"started_at":"2018-04-01T18:00:00.000+09:00","ended_at":"2018-04-03T23:59:59.000+09:00","limit_number":null,"address":"東京都目黒区自由が丘1丁目8-18","place":"Clann","lat":35.6069,"lon":139.669,"state":"active","id":null},{"event_id":"345941","title":"4/21(Sat) 20s Social Meetup Shinjuku/ FREE Entry for Non-Japanese","url":"http://peatix.com/event/345941","shortener_url":null,"started_at":"2018-04-21T15:00:00.000+09:00","ended_at":"2018-04-23T23:59:59.000+09:00","limit_number":null,"address":"東京都新宿区西新宿,8-19-11","place":"KASHIWAGI CAFE","lat":35.6956,"lon":139.691,"state":"active","id":null},{"event_id":"351044","title":"4/14(Sat) Roppongi Drink Meetup / FREE Entry for Non-Japanese","url":"http://peatix.com/event/351044","shortener_url":null,"started_at":"2018-04-14T19:00:00.000+09:00","ended_at":"2018-04-16T23:59:59.000+09:00","limit_number":null,"address":"東京都港区六本木5-3-1レーヌ第2ビル3F","place":"BAR QUEST","lat":35.6641,"lon":139.729,"state":"active","id":null},{"event_id":"345828","title":"4/18(水) ドイツ語ナイト@六本木 / German Night in Roppongi","url":"http://peatix.com/event/345828","shortener_url":null,"started_at":"2018-04-18T19:00:00.000+09:00","ended_at":"2018-04-20T23:59:59.000+09:00","limit_number":null,"address":"東京都港区六本木3−16−33","place":"Hob goblin at Roppongi","lat":35.6623,"lon":139.737,"state":"active","id":null},{"event_id":"345950","title":"4/28(Sat) Shibuya Spanish Meetup / Intercambio reunión español Shibuya / FREE Entrance for Spanish Native Speakers","url":"http://peatix.com/event/345950","shortener_url":null,"started_at":"2018-04-28T15:00:00.000+09:00","ended_at":"2018-04-30T23:59:59.000+09:00","limit_number":null,"address":"13-16,Udagawacho,shibuya-ku,tokyo","place":"Miraflores ","lat":35.6614,"lon":139.698,"state":"active","id":null},{"event_id":"345850","title":"4/1(日) 旅好き女子会@新宿","url":"http://peatix.com/event/345850","shortener_url":null,"started_at":"2018-04-01T14:00:00.000+09:00","ended_at":"2018-04-03T23:59:59.000+09:00","limit_number":null,"address":"東京都新宿区西新宿8-19-11","place":"KASHIWAGI CAFE","lat":35.6956,"lon":139.691,"state":"active","id":null},{"event_id":"345836","title":"4/5(木) ロシア語ナイト@六本木 / Russian Night in Roppongi","url":"http://peatix.com/event/345836","shortener_url":null,"started_at":"2018-04-05T19:00:00.000+09:00","ended_at":"2018-04-07T23:59:59.000+09:00","limit_number":null,"address":"東京都港区六本木3−16−33","place":"Hob goblin at Roppongi","lat":35.6623,"lon":139.737,"state":"active","id":null},{"event_id":"345846","title":"4/21(土) 20代の英会話@西新宿 / 20's Social Meetup in Nishi-Shinjuku","url":"http://peatix.com/event/345846","shortener_url":null,"started_at":"2018-04-21T15:00:00.000+09:00","ended_at":"2018-04-23T23:59:59.000+09:00","limit_number":null,"address":"東京都新宿区西新宿8-19-11","place":"KASHIWAGI CAFE ","lat":35.6954,"lon":139.691,"state":"active","id":null},{"event_id":"345858","title":"4/7(土)  にほんごナイト@神谷町 / Nihongo Night at Bar in Kamiyacho","url":"http://peatix.com/event/345858","shortener_url":null,"started_at":"2018-04-07T19:00:00.000+09:00","ended_at":"2018-04-09T23:59:59.000+09:00","limit_number":null,"address":"東京都港区虎ノ門3丁目18-21 久永ビル2F","place":"Irish Pub Mulligans ","lat":35.6636,"lon":139.746,"state":"active","id":null},{"event_id":"345860","title":"4/8(日)  にほんご交流会@渋谷 / Nihongo Meetup in Shibuya ","url":"http://peatix.com/event/345860","shortener_url":null,"started_at":"2018-04-08T14:00:00.000+09:00","ended_at":"2018-04-10T23:59:59.000+09:00","limit_number":null,"address":"東京都渋谷区猿楽町2-12 相野谷ビル 1F","place":"Asian Spice King","lat":35.6532,"lon":139.705,"state":"active","id":null},{"event_id":"345911","title":"4/7(Sat) Shibuya Spanish Meetup / Intercambio reunión español Shibuya / FREE Entrance for Spanish Native Speakers","url":"http://peatix.com/event/345911","shortener_url":null,"started_at":"2018-04-07T15:00:00.000+09:00","ended_at":"2018-04-09T23:59:59.000+09:00","limit_number":null,"address":"13-16,Udagawacho,shibuya-ku,tokyo","place":"Miraflores ","lat":35.6614,"lon":139.698,"state":"active","id":null},{"event_id":"345868","title":"4/21(土)  にほんごナイト@赤坂 / Nihongo Night at Bar in Akasaka","url":"http://peatix.com/event/345868","shortener_url":null,"started_at":"2018-04-21T19:00:00.000+09:00","ended_at":"2018-04-23T23:59:59.000+09:00","limit_number":null,"address":"東京都港区赤坂2-13-19","place":"AKASAKA HOBGOBLIN  ","lat":35.6727,"lon":139.738,"state":"active","id":null},{"event_id":"345863","title":"4/13(金) にほんごナイト@六本木 / Nihongo Night in Roppongi ","url":"http://peatix.com/event/345863","shortener_url":null,"started_at":"2018-04-13T19:00:00.000+09:00","ended_at":"2018-04-15T23:59:59.000+09:00","limit_number":null,"address":"東京都港区六本木7−13−8 フュージョンビル3F","place":"Glamour Tokyo ","lat":35.6639,"lon":139.73,"state":"active","id":null},{"event_id":"345871","title":"4/29(土)  にほんごナイト@神谷町 / Nihongo Night at Bar in Kamiyacho","url":"http://peatix.com/event/345871","shortener_url":null,"started_at":"2018-04-29T19:00:00.000+09:00","ended_at":"2018-05-01T23:59:59.000+09:00","limit_number":null,"address":"東京都港区虎ノ門3丁目18-21 久永ビル2F","place":"Irish Pub Mulligans ","lat":35.6636,"lon":139.746,"state":"active","id":null},{"event_id":"345869","title":"4/27(金) にほんごナイト@六本木 / Nihongo Night in Roppongi","url":"http://peatix.com/event/345869","shortener_url":null,"started_at":"2018-04-27T19:00:00.000+09:00","ended_at":"2018-04-29T23:59:59.000+09:00","limit_number":null,"address":"東京都港区六本木7−13−8 フュージョンビル3F","place":"Glamour Tokyo ","lat":35.6639,"lon":139.73,"state":"active","id":null},{"event_id":"348161","title":"4/30(月)  にほんご交流会@渋谷 / Nihongo Meetup in Shibuya","url":"http://peatix.com/event/348161","shortener_url":null,"started_at":"2018-04-30T14:00:00.000+09:00","ended_at":"2018-05-02T23:59:59.000+09:00","limit_number":null,"address":"東京都渋谷区道玄坂1-3-11","place":"Hobgoblin Shibuya","lat":35.6583,"lon":139.7,"state":"active","id":null},{"event_id":"345841","title":"4/28(土) スペイン語交流会@渋谷 / Spanish Meetup in Shibuya","url":"http://peatix.com/event/345841","shortener_url":null,"started_at":"2018-04-28T15:00:00.000+09:00","ended_at":"2018-04-30T23:59:59.000+09:00","limit_number":null,"address":"東京都渋谷区宇田川町13-16コクサイビルA館 4F","place":"Mirafloresスペイン坂店","lat":35.6614,"lon":139.698,"state":"active","id":null},{"event_id":"345840","title":"4/7(土) スペイン語交流会@渋谷 / Spanish Meetup in Shibuya ","url":"http://peatix.com/event/345840","shortener_url":null,"started_at":"2018-04-07T15:00:00.000+09:00","ended_at":"2018-04-09T23:59:59.000+09:00","limit_number":null,"address":"東京都渋谷区宇田川町13-16コクサイビルA館 4F","place":"Mirafloresスペイン坂店","lat":35.6614,"lon":139.698,"state":"active","id":null},{"event_id":"79932","title":"道東×IoTハッカソン！観光課題を解決する！","url":"https://kushirohack.connpass.com/event/79932/","shortener_url":"https://goo.gl/1KaURX","started_at":"2018-04-28T01:00:00.000+09:00","ended_at":"2018-04-29T09:00:00.000+09:00","limit_number":50,"address":"北海道釧路市幸町3丁目3-3","place":"釧路市観光国際交流センター","lat":42.9828,"lon":144.381,"state":"active","id":null},{"event_id":"352366","title":"第50回こんぼ亭月例会「家族にできることできないこと　家族に必要な支援はこれ。」","url":"http://peatix.com/event/352366","shortener_url":null,"started_at":"2018-04-21T13:00:00.000+09:00","ended_at":"2018-04-23T23:59:59.000+09:00","limit_number":null,"address":"大阪府大阪市都島区中野町5-12-30","place":"大阪リバーサイドホテル　４階会議室","lat":34.7059,"lon":135.52,"state":"active","id":null},{"event_id":"354525","title":"カードゲームで遊ぶ、学ぶ「SDGs 持続可能な開発目標」× 質問づくりQFT ハテナソン IN 京都","url":"http://peatix.com/event/354525","shortener_url":"https://goo.gl/qEFTpo","started_at":"2018-04-01T18:15:00.000+09:00","ended_at":"2018-04-03T23:59:59.000+09:00","limit_number":null,"address":"〒600-8127 京都市下京区西木屋町通上ノ口上る梅湊町83-1","place":"ひと・まち交流館 京都 第５会議室","lat":0.0,"lon":0.0,"state":"active","id":null},{"event_id":"354905","title":"カードゲームと質問づくりQFTで遊ぶ、学ぶ「持続可能な開発目標」ハテナソン IN 東京新宿","url":"http://peatix.com/event/354905","shortener_url":"https://goo.gl/MKPdmh","started_at":"2018-04-22T13:15:00.000+09:00","ended_at":"2018-04-24T23:59:59.000+09:00","limit_number":null,"address":"東京都新宿区新宿5丁目11-13 博雅ビル4階403号室","place":"東京都新宿区新宿５丁目11-13 博雅ビル","lat":35.6933,"lon":139.707,"state":"active","id":null},{"event_id":"354222","title":"4月20日(金)19:00～★ 代官山 目的別ブレスレットで出会い率アップのGaitomo国際交流パーティー","url":"http://peatix.com/event/354222","shortener_url":null,"started_at":"2018-04-20T19:00:00.000+09:00","ended_at":"2018-04-22T23:59:59.000+09:00","limit_number":null,"address":"〒150-0034, 20-20 代官山町, 渋谷区","place":"BLU JAM CAFE Daikanyama","lat":35.648,"lon":139.702,"state":"active","id":null},{"event_id":"339638","title":"WIT Indie 2018","url":"http://indietravel2018.peatix.com","shortener_url":null,"started_at":"2018-04-13T09:00:00.000+09:00","ended_at":"2018-04-15T23:59:59.000+09:00","limit_number":null,"address":"10, Jalan Brown, George Town, 10350 George Town, Pulau Pinang","place":"Penang Institute Conference Hall","lat":5.42865,"lon":100.304,"state":"active","id":null},{"event_id":"350234","title":"#05 UML 東北","url":"http://05umltohoku.peatix.com","shortener_url":null,"started_at":"2018-04-28T15:00:00.000+09:00","ended_at":"2018-04-30T23:59:59.000+09:00","limit_number":null,"address":"宮城県仙台市青葉区一番町四丁目1-3","place":"仙台市市民活動サポートセンター　市民活動シアター","lat":38.2629,"lon":140.873,"state":"active","id":null},{"event_id":"354235","title":"4月21日(土)19:00～★ 広尾 食文化で世界を繋ぐ小さな大使館レストランでGaitomo国際交流パーティー","url":"http://peatix.com/event/354235","shortener_url":null,"started_at":"2018-04-21T19:00:00.000+09:00","ended_at":"2018-04-23T23:59:59.000+09:00","limit_number":null,"address":"港区南麻布4丁目2−42","place":"天現寺大使館","lat":35.648,"lon":139.723,"state":"active","id":null},{"event_id":"354324","title":"4月28日(土)19:00～★ 六本木 土曜日は飲み放題で飲み友作りGaitomo国際交流パーティー","url":"http://peatix.com/event/354324","shortener_url":null,"started_at":"2018-04-28T19:00:00.000+09:00","ended_at":"2018-04-30T23:59:59.000+09:00","limit_number":null,"address":"港区六本木3丁目13−12 2F エルサビル","place":"MAGNET","lat":35.6629,"lon":139.734,"state":"active","id":null},{"event_id":"354173","title":"4月4日(水)19:00～★ 恵比寿 仕事帰りに駅近のお洒落カフェで平日Gaitomo国際交流パーティー","url":"http://peatix.com/event/354173","shortener_url":null,"started_at":"2018-04-04T19:00:00.000+09:00","ended_at":"2018-04-06T23:59:59.000+09:00","limit_number":null,"address":"渋谷区恵比寿南1−3−2 ESTLANZA EBISU","place":"dot. Grill and Bar","lat":35.6456,"lon":139.708,"state":"active","id":null},{"event_id":"352728","title":"4月7日(土)19:00～★ 渋谷 本格的ネパール料理屋でカレーとナンも美味しいGaitomo国際交流パーティー","url":"http://peatix.com/event/352728","shortener_url":null,"started_at":"2018-04-07T19:00:00.000+09:00","ended_at":"2018-04-09T23:59:59.000+09:00","limit_number":null,"address":"渋谷区 猿楽町2−12","place":"Asian Spice King 渋谷・代官山","lat":35.6533,"lon":139.705,"state":"active","id":null},{"event_id":"354267","title":"4月26日(木)19:00～★ 中目黒 焼き立てピッツァをお仕事帰りに平日Gaitomo国際交流パーティー","url":"http://peatix.com/event/354267","shortener_url":null,"started_at":"2018-04-26T19:00:00.000+09:00","ended_at":"2018-04-28T23:59:59.000+09:00","limit_number":null,"address":"目黒区青葉台1丁目27−12 1F サンライトビル","place":"ピッツァフォルノカフェ 中目黒店","lat":35.6478,"lon":139.694,"state":"active","id":null},{"event_id":"354546","title":"4月29日(日)18:00～★ 六本木【恋人探しOnly】不動の人気企画Gaitomo国際交流パーティー","url":"http://peatix.com/event/354546","shortener_url":null,"started_at":"2018-04-29T18:00:00.000+09:00","ended_at":"2018-05-01T23:59:59.000+09:00","limit_number":null,"address":"東京都港区六本木3-9-8 ホテル ザ・ビー六本木 1F","place":"六本木カフェ","lat":35.6636,"lon":139.734,"state":"active","id":null},{"event_id":"354277","title":"4月27日(金)19:00～★ 恵比寿 新しい出会いの場立ち飲みバーでGaitomo国際交流パーティー","url":"http://peatix.com/event/354277","shortener_url":null,"started_at":"2018-04-27T19:00:00.000+09:00","ended_at":"2018-04-29T23:59:59.000+09:00","limit_number":null,"address":"東京都渋谷区恵比寿1-7-9 ハイライフ恵比寿B棟 2F","place":"私を恵比寿に連れてってEbisu330BAR","lat":35.6481,"lon":139.711,"state":"active","id":null},{"event_id":"354549","title":"4月28日(土)15:00～★ 渋谷 未成年者も参加出来るGaitomo国際交流ノンアルコールパーティー","url":"http://peatix.com/event/354549","shortener_url":null,"started_at":"2018-04-28T15:00:00.000+09:00","ended_at":"2018-04-30T23:59:59.000+09:00","limit_number":null,"address":"東京都渋谷区円山町15-3 グランエストビル3F","place":"渋谷 エンカウント零式（旧名：グローススペース）","lat":0.0,"lon":0.0,"state":"active","id":null},{"event_id":"352767","title":"4月13日(金)19:00～★ 代官山 婚活恋活OnlyのGaitomo国際交流パーティー","url":"http://peatix.com/event/352767","shortener_url":null,"started_at":"2018-04-13T19:00:00.000+09:00","ended_at":"2018-04-15T23:59:59.000+09:00","limit_number":null,"address":"渋谷区恵比寿西1丁目34−17 B1F Za HOUSE ビル","place":"ユナイス 代官山","lat":35.6468,"lon":139.702,"state":"active","id":null},{"event_id":"352718","title":"4月6日(金)19:00～★ 表参道 駅近螺旋階段が素敵な上質な空間でGaitomo国際交流パーティー","url":"http://peatix.com/event/352718","shortener_url":null,"started_at":"2018-04-06T19:00:00.000+09:00","ended_at":"2018-04-08T23:59:59.000+09:00","limit_number":null,"address":"港区南青山5丁目10−1 H2 AOYAMA BLDG B1","place":"エラグ青山","lat":35.6627,"lon":139.711,"state":"active","id":null},{"event_id":"354187","title":"4月14日(土)19:00～★ 六本木 インターナショナルバーで楽しむGaitomo国際交流パーティー","url":"http://peatix.com/event/354187","shortener_url":null,"started_at":"2018-04-14T19:00:00.000+09:00","ended_at":"2018-04-16T23:59:59.000+09:00","limit_number":null,"address":"港区六本木 7 丁目 14−5","place":"Mogambo Tokyo","lat":35.6638,"lon":139.731,"state":"active","id":null},{"event_id":"354214","title":"4月18日(水)19:00～ ★ 恵比寿 仕事帰りにロマンチックカフェで平日Gaitomo国際交流パーティー","url":"http://peatix.com/event/354214","shortener_url":null,"started_at":"2018-04-18T19:00:00.000+09:00","ended_at":"2018-04-20T23:59:59.000+09:00","limit_number":null,"address":"渋谷区恵比寿1丁目18−14","place":"dot.Eatery and Bar","lat":35.6475,"lon":139.715,"state":"active","id":null},{"event_id":"353599","title":"たった２日でwebサイトが創れちゃう集中合宿　〜HTML・CSSコーディング編〜","url":"http://web-camp.peatix.com","shortener_url":"https://goo.gl/Uaj4Z5","started_at":"2018-04-26T12:00:00.000+09:00","ended_at":"2018-04-28T23:59:59.000+09:00","limit_number":null,"address":"東近江市平柳町22−3","place":"クレフィール湖東","lat":35.147,"lon":136.276,"state":"active","id":null},{"event_id":"354988","title":"4月30日(月祝)19:00～★ 渋谷 英会話企画【English Only】のGaitomo国際交流パーティー","url":"http://peatix.com/event/354988","shortener_url":null,"started_at":"2018-04-30T19:00:00.000+09:00","ended_at":"2018-05-02T23:59:59.000+09:00","limit_number":null,"address":"東京都渋谷区円山町15-3 グランエストビル3F","place":"渋谷 エンカウント零式（旧名：グローススペース） ","lat":0.0,"lon":0.0,"state":"active","id":null},{"event_id":"354980","title":"4月30日(月祝)15:00～★ 渋谷【35歳以上限定】素敵な大人のGaitomo国際交流パーティー","url":"http://peatix.com/event/354980","shortener_url":null,"started_at":"2018-04-30T15:00:00.000+09:00","ended_at":"2018-05-02T23:59:59.000+09:00","limit_number":null,"address":"東京都渋谷区円山町15-3 グランエストビル3F","place":"渋谷 エンカウント零式（旧名：グローススペース） ","lat":0.0,"lon":0.0,"state":"active","id":null},{"event_id":"80719","title":"アジャイル開発チュートリアル付き！ 『アジャイルチームキャンプ』説明会＠岩手県立大学","url":"https://aiit-enpit.connpass.com/event/80719/","shortener_url":"https://goo.gl/ZVfn9i","started_at":"2018-04-14T03:30:00.000+09:00","ended_at":"2018-04-14T08:00:00.000+09:00","limit_number":null,"address":"岩手県滝沢市巣子152-52","place":"岩手県立大学共通棟B マルチメディアラボ","lat":39.8018,"lon":141.138,"state":"active","id":null},{"event_id":"95020","title":"青空シャッカソン #6 〜青空文庫のハック発表と入力校正ハッカソン〜","url":"https://atnd.org/events/95020","shortener_url":"https://goo.gl/W3iYyG","started_at":"2018-04-07T04:00:00.000+09:00","ended_at":"2018-04-07T08:00:00.000+09:00","limit_number":10,"address":"東京都","place":"調整中","lat":35.709,"lon":139.732,"state":"closed","id":null},{"event_id":"352497","title":"お金のシフトトークライブ in NAGOYA","url":"http://peatix.com/event/352497","shortener_url":null,"started_at":"2018-04-07T14:30:00.000+09:00","ended_at":"2018-04-09T23:59:59.000+09:00","limit_number":null,"address":"名古屋市中区栄2-2-17 名古屋情報センタービル","place":"プレストーク会議室８階B","lat":0.0,"lon":0.0,"state":"active","id":null},{"event_id":"477f75986f17314acad642f80b233a5a","title":"SPAJAM2018 仙台予選","url":"https://spajam.jp/entry/sendai/","shortener_url":"https://goo.gl/NxUzzp","started_at":"2018-04-28T09:30:00.000+09:00","ended_at":"2018-04-29T17:00:00.000+09:00","limit_number":60,"address":"〒980-8515 宮城県仙台市青葉区上杉1-1-2","place":"ドコモ東北ビル","lat":38.2696,"lon":140.872,"state":"active","id":null},{"event_id":"71694","title":"4/14(土)~15(日) festivo ウェブデザイン Camp@東京 【学生15,000円、一般20,000円】～2講師体制で戦うスキルを身につける15時間！HTML/CSS/WEBサイトコーディング/Photoshop集中合宿！～","url":"https://festivo.doorkeeper.jp/events/71694","shortener_url":"https://goo.gl/zku1yg","started_at":"2018-04-14T10:30:00.000+09:00","ended_at":"2018-04-15T18:30:00.000+09:00","limit_number":7,"address":"東京都練馬区豊玉北3-15-17","place":"起業家シェアハウス x-garden セミナールーム","lat":35.7329,"lon":139.661,"state":"active","id":null},{"event_id":"357806","title":"【満員御礼！】地域の魅力をみんなで磨くアイデアソンイベント「さぶみっと！ヨクスル in 札幌」【2018年4月13日(金)開催】","url":"http://peatix.com/event/357806","shortener_url":"https://goo.gl/A7fLX1","started_at":"2018-04-13T18:30:00.000+09:00","ended_at":"2018-04-15T23:59:59.000+09:00","limit_number":null,"address":"北海道札幌市西区琴似1条4丁目","place":"ターミナルプラザことにパトス（地下鉄東西線琴似駅B2F）","lat":43.0763,"lon":141.304,"state":"active","id":null},{"event_id":"359794","title":"4/14(土)~15(日) festivo ウェブデザイン Camp@東京 【学生15,000円、一般20,000円】～2講師体制で戦うスキルを身につける15時間！HTML/CSS/WEBサイトコーディング/Photoshop集中合宿！～","url":"http://peatix.com/event/359794","shortener_url":"https://goo.gl/v3sH1N","started_at":"2018-04-14T10:30:00.000+09:00","ended_at":"2018-04-16T23:59:59.000+09:00","limit_number":null,"address":"東京都練馬区豊玉北3-15-17","place":"起業家シェアハウス x-garden セミナールーム","lat":35.7329,"lon":139.661,"state":"active","id":null},{"event_id":"358151","title":"4/21(土)~22(日)festivo はじめてのフレームワーク（Laravel）Camp@東京【学生15,000円、一般20,000円】～早く効率的なWEB開発スキルを手に入れる！フレームワークを学ぶ15時間の集中合宿！～","url":"http://peatix.com/event/358151","shortener_url":"https://goo.gl/KqtL96","started_at":"2018-04-21T10:00:00.000+09:00","ended_at":"2018-04-23T23:59:59.000+09:00","limit_number":null,"address":"東京都練馬区豊玉北3-15-17","place":"起業家シェアハウス x-garden セミナールーム","lat":35.7329,"lon":139.661,"state":"active","id":null},{"event_id":"352100","title":"【アークヒルズさくらまつり2018】水引で作る桜の花の飾り／ブックマーク","url":"http://denmira-sakura3.peatix.com","shortener_url":null,"started_at":"2018-04-01T11:00:00.000+09:00","ended_at":"2018-04-03T23:59:59.000+09:00","limit_number":null,"address":"東京都港区赤坂1-12-32","place":"アーク・カラヤン広場","lat":35.6671,"lon":139.74,"state":"active","id":null},{"event_id":"357686","title":"Meet the Enterprise vol. 09 - Meet 株式会社ビックカメラ -","url":"http://peatix.com/event/357686","shortener_url":null,"started_at":"2018-04-05T18:00:00.000+09:00","ended_at":"2018-04-07T23:59:59.000+09:00","limit_number":null,"address":"東京都港区虎ノ門4-3-1城山トラストタワー4F","place":"東京都港区虎ノ門4-3-1城山トラストタワー4F dock-Toranomon","lat":0.0,"lon":0.0,"state":"active","id":null},{"event_id":"358767","title":"Kranji Heritage and Countryside Cycling Exploration APRIL","url":"http://peatix.com/event/358767","shortener_url":null,"started_at":"2018-04-29T10:00:00.000+09:00","ended_at":"2018-05-01T23:59:59.000+09:00","limit_number":null,"address":"100 Neo Tiew Road","place":"Bollywood Veggies","lat":1.41832,"lon":103.717,"state":"active","id":null},{"event_id":"357851","title":"Atomy Success Academy APRIL 7 - Early Bird Registration","url":"http://sa2018-04.peatix.com","shortener_url":null,"started_at":"2018-04-07T10:00:00.000+09:00","ended_at":"2018-04-09T23:59:59.000+09:00","limit_number":null,"address":"1 Raffles Boulevard, Suntec City","place":"Suntec Singapore Convention \u0026 Exhibition Centre","lat":1.29369,"lon":103.857,"state":"active","id":null},{"event_id":"358306","title":"cowork@5 LIGHT APRIL 2018","url":"http://cowork0418.peatix.com","shortener_url":null,"started_at":"2018-04-01T09:00:00.000+09:00","ended_at":"2018-04-03T23:59:59.000+09:00","limit_number":null,"address":"25 International Business Park, 609916","place":"German Centre, cowork@5","lat":1.32484,"lon":103.747,"state":"active","id":null},{"event_id":"356184","title":"親子で参加！ファミリーミュージックセッション/ Atlya参宮橋","url":"http://atlya-co01.peatix.com","shortener_url":null,"started_at":"2018-04-16T15:30:00.000+09:00","ended_at":"2018-04-18T23:59:59.000+09:00","limit_number":null,"address":"東京都渋谷区代々木4-50-13-1F","place":"Atlya参宮橋","lat":0.0,"lon":0.0,"state":"active","id":null},{"event_id":"359010","title":"TEATER MODULAR [set 3]","url":"http://teatermodular-set3.peatix.com","shortener_url":null,"started_at":"2018-04-04T22:00:00.000+09:00","ended_at":"2018-04-06T23:59:59.000+09:00","limit_number":null,"address":"Taman Goodwood, Kuala Lumpur","place":"Kongsi KL","lat":3.08865,"lon":101.675,"state":"active","id":null},{"event_id":"81787","title":"kintone Café 釧路 Vol.5","url":"https://kintonecafekushiro.connpass.com/event/81787/","shortener_url":null,"started_at":"2018-04-27T16:00:00.000+09:00","ended_at":"2018-04-27T20:00:00.000+09:00","limit_number":30,"address":"釧路市北海道釧路市錦町５丁目１","place":"H A T O B A Nishikimachi","lat":42.9839,"lon":144.384,"state":"active","id":null},{"event_id":"71784","title":"4/21(土)~22(日)festivo はじめてのフレームワーク（Laravel）Camp@東京【学生15,000円、一般20,000円】～早く効率的なWEB開発スキルを手に入れる！フレームワークを学ぶ15時間の集中合宿！～","url":"https://festivo.doorkeeper.jp/events/71784","shortener_url":"https://goo.gl/eEdvoP","started_at":"2018-04-21T10:00:00.000+09:00","ended_at":"2018-04-22T19:00:00.000+09:00","limit_number":7,"address":"東京都練馬区豊玉北3-15-17","place":"起業家シェアハウス x-garden セミナールーム","lat":35.7329,"lon":139.661,"state":"active","id":null},{"event_id":"71802","title":"Startup Weekend Tokyo :: Micro Edition #8","url":"https://swtokyo.doorkeeper.jp/events/71802","shortener_url":null,"started_at":"2018-04-20T18:30:00.000+09:00","ended_at":"2018-04-22T21:30:00.000+09:00","limit_number":15,"address":"東京都新宿区高田馬場1-28-10 三慶ビル4F","place":"Green Room in CASE-Shinjuku","lat":35.7122,"lon":139.705,"state":"active","id":null},{"event_id":"71867","title":"未来技術シンポジウム × Kanatta ～未来技術分野における女性の活躍～","url":"https://future-tech-association.doorkeeper.jp/events/71867","shortener_url":null,"started_at":"2018-04-29T14:00:00.000+09:00","ended_at":"2018-04-29T17:30:00.000+09:00","limit_number":140,"address":"〒108-0073 東京都港区三田3丁目12−12","place":"笹川記念会館 国際ホール","lat":35.6426,"lon":139.743,"state":"active","id":null},{"event_id":"360364","title":"Ugly in the Morning : \"3 or More If You Can Afford It\"    Album Launch","url":"http://uglyinthemorning-3ormore.peatix.com","shortener_url":null,"started_at":"2018-04-14T21:00:00.000+09:00","ended_at":"2018-04-16T23:59:59.000+09:00","limit_number":null,"address":"1 Esplanade Drive","place":"Esplanade Annexe Studio","lat":1.28949,"lon":103.857,"state":"active","id":null},{"event_id":"356643","title":"瀬戸内構築王2018","url":"http://peatix.com/event/356643","shortener_url":null,"started_at":"2018-04-30T10:00:00.000+09:00","ended_at":"2018-05-02T23:59:59.000+09:00","limit_number":null,"address":"丸亀市大手町2丁目1−20","place":"丸亀市 生涯学習センター","lat":0.0,"lon":0.0,"state":"active","id":null},{"event_id":"360983","title":"【参加無料】「熱中小学校本」出版記念スクール【好評につき増席！】","url":"http://necchu-kinen.peatix.com","shortener_url":null,"started_at":"2018-04-14T13:00:00.000+09:00","ended_at":"2018-04-16T23:59:59.000+09:00","limit_number":null,"address":"〒104-0033, 2丁目-4-7 新川, 中央区","place":"株式会社内田洋行 新川本社","lat":35.6762,"lon":139.78,"state":"active","id":null},{"event_id":"359900","title":"4/22 タロット×読書会（テーマ：「The High Priestess（女教皇）」）","url":"http://peatix.com/event/359900","shortener_url":null,"started_at":"2018-04-22T14:00:00.000+09:00","ended_at":"2018-04-24T23:59:59.000+09:00","limit_number":null,"address":"日本、〒155-0031 東京都世田谷区北沢3丁目30 北沢3-30-3 北沢T.Tビル301","place":"Tbooks下北沢","lat":0.0,"lon":0.0,"state":"active","id":null},{"event_id":"358646","title":"プラムヴィレッジのマインドフルネスを味わう くまもと、春の日","url":"http://kumamotosangapvdom180422.peatix.com","shortener_url":null,"started_at":"2018-04-22T10:30:00.000+09:00","ended_at":"2018-04-24T23:59:59.000+09:00","limit_number":null,"address":"熊本県菊池市泗水町吉富3183","place":"菊池養生園　伝承館","lat":32.937,"lon":130.783,"state":"active","id":null},{"event_id":"360895","title":"【edoARTworkshop】和のこころを結ぶ 水引アート体験 ～菜の花結びのアクセサリー（ピアス or イヤリング + ネックレスセット）づくり","url":"http://edoart0407.peatix.com","shortener_url":null,"started_at":"2018-04-07T10:30:00.000+09:00","ended_at":"2018-04-09T23:59:59.000+09:00","limit_number":null,"address":"東京都台東区西浅草2-6-2","place":"かっぱ橋道具街 はし藤 ２F","lat":35.7127,"lon":139.789,"state":"active","id":null},{"event_id":"360748","title":"【開催場所変更】お笑い算数教室 BETTARA日本橋教室開講！！","url":"http://peatix.com/event/360748","shortener_url":null,"started_at":"2018-04-15T13:30:00.000+09:00","ended_at":"2018-04-17T23:59:59.000+09:00","limit_number":null,"address":"東京都中央区日本橋堀留町1-5-7","place":"IDOBA TOKYO","lat":35.6878,"lon":139.78,"state":"active","id":null},{"event_id":"358770","title":"Cherry Blossom Party (SAT) お花見パーティー（土）","url":"http://peatix.com/event/358770","shortener_url":null,"started_at":"2018-04-07T19:00:00.000+09:00","ended_at":"2018-04-09T23:59:59.000+09:00","limit_number":null,"address":"東京都港区六本木3-14-9 ユア六本木2F","place":"Bar Propaganda (2F)","lat":35.6623,"lon":139.735,"state":"active","id":null},{"event_id":"358769","title":"Cherry Blossom Party (FRI) お花見パーティー（金）","url":"http://peatix.com/event/358769","shortener_url":null,"started_at":"2018-04-06T19:00:00.000+09:00","ended_at":"2018-04-08T23:59:59.000+09:00","limit_number":null,"address":"東京都港区六本木3-14-9 ユア六本木2F","place":"Bar Propaganda (2F)","lat":35.6623,"lon":139.735,"state":"active","id":null},{"event_id":"361881","title":"25歳から35歳限定「アラサーコンin山形」2018年4月7日(土) 19:00-21:30","url":"http://peatix.com/event/361881","shortener_url":null,"started_at":"2018-04-07T19:00:00.000+09:00","ended_at":"2018-04-09T23:59:59.000+09:00","limit_number":null,"address":"山形市 香澄町1-15-28 ホテルニュー最上屋 地下1階","place":"魚民 山形駅前店","lat":0.0,"lon":0.0,"state":"active","id":null},{"event_id":"361754","title":"男女20代限定「社会人男子コンin弘前」2018年4月7日(土) 19:00-21:30","url":"http://peatix.com/event/361754","shortener_url":null,"started_at":"2018-04-07T19:00:00.000+09:00","ended_at":"2018-04-09T23:59:59.000+09:00","limit_number":null,"address":"弘前市駅前町7−5","place":"笑笑 弘前駅前店","lat":40.5982,"lon":140.482,"state":"active","id":null},{"event_id":"361165","title":"「公務員or国家資格男子コンin酒田」2018年4月1日(日) 14:00-16:30","url":"http://peatix.com/event/361165","shortener_url":null,"started_at":"2018-04-01T14:00:00.000+09:00","ended_at":"2018-04-03T23:59:59.000+09:00","limit_number":null,"address":"酒田市幸町 2−1−12 ホテル・アルファーワン酒田 1階","place":"魚民 酒田駅前店","lat":0.0,"lon":0.0,"state":"active","id":null},{"event_id":"361900","title":"25歳から35歳限定「アラサーコンin盛岡」2018年4月7日(土) 19:00-21:30","url":"http://peatix.com/event/361900","shortener_url":null,"started_at":"2018-04-07T19:00:00.000+09:00","ended_at":"2018-04-09T23:59:59.000+09:00","limit_number":null,"address":"盛岡市菜園2-4-23 バーセル菜園 5F","place":"琥haku （コハク）","lat":39.7019,"lon":141.147,"state":"active","id":null},{"event_id":"361157","title":"男女20代限定「社会人男子コンin山形」2018年4月1日(日) 14:00-16:30","url":"http://peatix.com/event/361157","shortener_url":null,"started_at":"2018-04-01T14:00:00.000+09:00","ended_at":"2018-04-03T23:59:59.000+09:00","limit_number":null,"address":"山形県山形市香澄町1-15-28 ホテルニュー最上屋","place":"魚民　山形駅前店 ","lat":38.2497,"lon":140.329,"state":"active","id":null},{"event_id":"357247","title":"4月21日(土)19:00～★ 六本木 人気企画【シングル限定】土曜日のGaitomo国際交流パーティー","url":"http://peatix.com/event/357247","shortener_url":null,"started_at":"2018-04-21T19:00:00.000+09:00","ended_at":"2018-04-23T23:59:59.000+09:00","limit_number":null,"address":"港区六本木3丁目14−7 アロービルB1","place":"SEVEN SENSE","lat":35.6626,"lon":139.735,"state":"active","id":null},{"event_id":"361135","title":"「年上彼氏×年下彼女in弘前」2018年4月1日(日) 14:00-16:30","url":"http://peatix.com/event/361135","shortener_url":null,"started_at":"2018-04-01T14:00:00.000+09:00","ended_at":"2018-04-03T23:59:59.000+09:00","limit_number":null,"address":"弘前市駅前町7−5","place":"笑笑 弘前駅前店","lat":0.0,"lon":0.0,"state":"active","id":null},{"event_id":"361750","title":"25歳から35歳限定「アラサーコンin青森」2018年4月7日(土) 19:00-21:30","url":"http://peatix.com/event/361750","shortener_url":null,"started_at":"2018-04-07T19:00:00.000+09:00","ended_at":"2018-04-09T23:59:59.000+09:00","limit_number":null,"address":"青森県青森市新町1-1-18 青森マルサビル 1F","place":"魚民　青森駅前店","lat":40.8281,"lon":140.736,"state":"active","id":null},{"event_id":"359186","title":"「社会人男子コンinいわき」2018年4月1日(日) 14:30-17:00","url":"http://peatix.com/event/359186","shortener_url":null,"started_at":"2018-04-01T14:30:00.000+09:00","ended_at":"2018-04-03T23:59:59.000+09:00","limit_number":null,"address":"福島県いわき市平字田町1-1 レストランビル3F","place":"居酒屋 「三代目」鳥メロ いわき駅前店","lat":37.057,"lon":140.893,"state":"active","id":null},{"event_id":"359167","title":"「社会人男子コンin郡山」2018年4月1(日) 14:00-16:30","url":"http://peatix.com/event/359167","shortener_url":null,"started_at":"2018-04-01T14:00:00.000+09:00","ended_at":"2018-04-03T23:59:59.000+09:00","limit_number":null,"address":"郡山市中町10−10","place":"魚民 郡山中町店","lat":0.0,"lon":0.0,"state":"active","id":null},{"event_id":"359206","title":"「社会人男子コンin小山」2018年4月1日(日) 16:00-18:30","url":"http://peatix.com/event/359206","shortener_url":null,"started_at":"2018-04-01T16:00:00.000+09:00","ended_at":"2018-04-03T23:59:59.000+09:00","limit_number":null,"address":"小山市駅東通り1-4-7 柿木ビル2F","place":"笑笑　小山東口駅前店","lat":36.3108,"lon":139.807,"state":"active","id":null},{"event_id":"359460","title":"男女20代限定「社会人男子コンin金沢」2018年4月1日(日) 15:00-17:30","url":"http://peatix.com/event/359460","shortener_url":null,"started_at":"2018-04-01T15:00:00.000+09:00","ended_at":"2018-04-03T23:59:59.000+09:00","limit_number":null,"address":"石川県金沢市香林坊1‐1‐1 香林坊大和8F","place":"ブッフェレストラン「ザ・ダイニング　」","lat":36.563,"lon":136.654,"state":"active","id":null},{"event_id":"361167","title":"「安定男子コンin盛岡」2018年4月1日(日) 14:00-16:30","url":"http://peatix.com/event/361167","shortener_url":null,"started_at":"2018-04-01T14:00:00.000+09:00","ended_at":"2018-04-03T23:59:59.000+09:00","limit_number":null,"address":"盛岡市菜園2-4-23 バーセル菜園 5F","place":"琥haku （コハク）","lat":39.7019,"lon":141.147,"state":"active","id":null},{"event_id":"359233","title":"ひとり参加限定「社会人男子コンin水戸」2018年4月1日(日) 15:00-17:00","url":"http://peatix.com/event/359233","shortener_url":null,"started_at":"2018-04-01T15:00:00.000+09:00","ended_at":"2018-04-03T23:59:59.000+09:00","limit_number":null,"address":"茨城県水戸市宮町1-7-31 エクセルみなみ6F","place":"パパゲーノ水戸","lat":36.3701,"lon":140.477,"state":"active","id":null},{"event_id":"359214","title":"男女20代限定「社会人男子コンin高崎」2018年4月1日(日) 14:30-17:00","url":"http://peatix.com/event/359214","shortener_url":null,"started_at":"2018-04-01T14:30:00.000+09:00","ended_at":"2018-04-03T23:59:59.000+09:00","limit_number":null,"address":"","place":"千年の宴高崎西口店","lat":0.0,"lon":0.0,"state":"active","id":null},{"event_id":"361896","title":"25歳から35歳限定「アラサーコンin鶴岡」2018年4月7日(土) 19:30-22:00","url":"http://peatix.com/event/361896","shortener_url":null,"started_at":"2018-04-07T19:30:00.000+09:00","ended_at":"2018-04-09T23:59:59.000+09:00","limit_number":null,"address":"山形県鶴岡市末広町2-41 YS鶴岡駅前ビル 1F","place":"千年の宴　鶴岡駅前店","lat":38.7397,"lon":139.838,"state":"active","id":null},{"event_id":"361175","title":"「社会人男子コンin福島」2018年4月1日(土) 14:00-16:30","url":"http://peatix.com/event/361175","shortener_url":null,"started_at":"2018-04-01T14:00:00.000+09:00","ended_at":"2018-04-03T23:59:59.000+09:00","limit_number":null,"address":"福島市 栄町11-30 ゼビオビル 地下1","place":"笑笑 福島東口駅前店","lat":37.754,"lon":140.463,"state":"active","id":null},{"event_id":"81472","title":"ハッカソンからの事業化講習会","url":"https://onejapanhackathon.connpass.com/event/81472/","shortener_url":"https://goo.gl/hrajqh","started_at":"2018-04-01T05:00:00.000+09:00","ended_at":"2018-04-01T07:00:00.000+09:00","limit_number":null,"address":"神奈川県川崎市中原区上小田中４丁目１(富士通研究所)","place":"富士通研究所","lat":35.5828,"lon":139.64,"state":"active","id":null},{"event_id":"71835","title":"「SWって何？ 何が面白いの？」〜Startup Weekend Yokohama 8 プレイベントvol.1〜","url":"https://swyokohama.doorkeeper.jp/events/71835","shortener_url":null,"started_at":"2018-04-01T14:00:00.000+09:00","ended_at":"2018-04-01T16:00:00.000+09:00","limit_number":30,"address":"〒231-0003 横浜市中区北仲通3-33 中小企業共済会館ビル 1F/2F 関内フューチャーセンター","place":"mass × mass 関内フューチャーセンター","lat":35.4494,"lon":139.639,"state":"active","id":null},{"event_id":"359178","title":"真空管ヘッドフォンアンプをつくろう！【04/08(日)開催】","url":"http://dmmmake1804sink.peatix.com","shortener_url":null,"started_at":"2018-04-08T11:00:00.000+09:00","ended_at":"2018-04-10T23:59:59.000+09:00","limit_number":null,"address":"東京都千代田区神田練塀町3 富士ソフト秋葉原ビル 10F DMM.make AKIBA Studio","place":"DMM.make AKIBA 10F Studio","lat":35.7008,"lon":139.774,"state":"active","id":null},{"event_id":"81979","title":"【初心者向け】Ruby勉強会 〜「Rubyってなに？」から始める基礎編〜","url":"https://osakarubydev.connpass.com/event/81979/","shortener_url":"https://goo.gl/Ev38e8","started_at":"2018-04-14T12:00:00.000+09:00","ended_at":"2018-04-14T15:00:00.000+09:00","limit_number":10,"address":"大阪市北区鶴野町1-5","place":"関西大学梅田キャンパス2F スタートアップカフェ大阪","lat":34.7065,"lon":135.501,"state":"active","id":null},{"event_id":"81911","title":"ハードウェア勉強会【ハッカソンプレイベント】","url":"https://osakarubydev.connpass.com/event/81911/","shortener_url":"https://goo.gl/azpk5n","started_at":"2018-04-15T13:00:00.000+09:00","ended_at":"2018-04-15T18:00:00.000+09:00","limit_number":10,"address":"大阪市浪速区日本橋5-8-26","place":"シリコンハウス 3F　ものづくり工作室","lat":34.6581,"lon":135.506,"state":"active","id":null},{"event_id":"81935","title":"AI×IoT×ビッグデータ　全てがつながる新しい社会像『Society 5.0』とは！？","url":"https://future-tech-association.connpass.com/event/81935/","shortener_url":null,"started_at":"2018-04-05T10:00:00.000+09:00","ended_at":"2018-04-05T11:30:00.000+09:00","limit_number":90,"address":" 東京都中央区日本橋茅場町1-8-1 （茅場町一丁目平和ビル1階）","place":"FinGATE KAYABA","lat":35.6802,"lon":139.779,"state":"active","id":null},{"event_id":"81559","title":"第14回　CoderDojo横浜","url":"https://coderdojo-yokohama.connpass.com/event/81559/","shortener_url":null,"started_at":"2018-04-07T05:00:00.000+09:00","ended_at":"2018-04-07T07:00:00.000+09:00","limit_number":null,"address":"神奈川県横浜市神奈川区鶴屋町2-24-2","place":"かながわ県民センター","lat":35.4684,"lon":139.621,"state":"active","id":null},{"event_id":"71952","title":"4/19（木）スタート！【関西発】『AIアクセラレーターkansAI0.6』【3/28（水）申込締切】","url":"https://soleildatadojo.doorkeeper.jp/events/71952","shortener_url":null,"started_at":"2018-04-19T18:30:00.000+09:00","ended_at":"2018-04-19T21:40:00.000+09:00","limit_number":0,"address":"大阪市北区西天満2丁目5-3(堂島深川ビル3階)","place":"SCRIBBLE OSAKA LAB（SOL）","lat":34.6951,"lon":135.502,"state":"active","id":null},{"event_id":"361723","title":"LeapForGood 2018 Hackathon","url":"http://lfg-hackathon.peatix.com","shortener_url":"https://goo.gl/Pd7hfo","started_at":"2018-04-07T10:00:00.000+09:00","ended_at":"2018-04-09T23:59:59.000+09:00","limit_number":null,"address":"Mapletree Business City, 20 Pasir Panjang Road, #03-22/24","place":"LEVEL3","lat":1.27498,"lon":103.799,"state":"active","id":null},{"event_id":"351345","title":"Comedy Masala ft. COLLIN CHRISTOPHER (SIN) | Headline Debut","url":"http://collinchristopher.peatix.com","shortener_url":null,"started_at":"2018-04-03T21:00:00.000+09:00","ended_at":"2018-04-05T23:59:59.000+09:00","limit_number":null,"address":"69 Circular Road, Boat Quay, Singapore 049423","place":"HERO'S, 69 Circular Road, Singapore 049423","lat":1.28641,"lon":103.849,"state":"active","id":null},{"event_id":"357019","title":"Comedy Masala ft. RO CAMPBELL (AUS) | as featured on SBS TV \u0026 BBC Radio","url":"http://rocampbelll.peatix.com","shortener_url":null,"started_at":"2018-04-17T21:00:00.000+09:00","ended_at":"2018-04-19T23:59:59.000+09:00","limit_number":null,"address":"69 Circular Road, Boat Quay, Singapore 049423","place":"HERO'S, 69 Circular Road, Singapore 049423","lat":1.28641,"lon":103.849,"state":"active","id":null},{"event_id":"351347","title":"Comedy Masala ft. BEN QUINLAN | as seen on 'Comedy Central presents Stand-Up Asia!' \u0026 Special Guest: TING LIM (AUS)","url":"http://benquinlann.peatix.com","shortener_url":null,"started_at":"2018-04-10T21:00:00.000+09:00","ended_at":"2018-04-12T23:59:59.000+09:00","limit_number":null,"address":"69 Circular Road, Boat Quay, Singapore 049423","place":"HERO'S, 69 Circular Road, Singapore 049423","lat":1.28641,"lon":103.849,"state":"active","id":null},{"event_id":"362321","title":"【edoARTworkshop】青森伝統の技と心を知る 津軽こぎん刺し体験～連続模様で作るくるみボタン","url":"http://edoart0414.peatix.com","shortener_url":null,"started_at":"2018-04-14T10:00:00.000+09:00","ended_at":"2018-04-16T23:59:59.000+09:00","limit_number":null,"address":"〒111-0035 東京都台東区西浅草2丁目6−2","place":"かっぱ橋道具街 はし藤 ２F","lat":35.7127,"lon":139.789,"state":"active","id":null},{"event_id":"362631","title":"4/14　バーベキューをしながら桜を愛でる　お花見バーベキュー","url":"http://peatix.com/event/362631","shortener_url":null,"started_at":"2018-04-14T11:00:00.000+09:00","ended_at":"2018-04-16T23:59:59.000+09:00","limit_number":null,"address":"江戸川区小松川1から3丁目地先","place":"小松川千本桜バーベキュー場","lat":35.6922,"lon":139.853,"state":"active","id":null},{"event_id":"362374","title":"在来種大豆(小糸在来)と玄米麹を使う こだわりの手前味噌づくり","url":"http://edoart-miso.peatix.com","shortener_url":null,"started_at":"2018-04-14T13:00:00.000+09:00","ended_at":"2018-04-16T23:59:59.000+09:00","limit_number":null,"address":"東京都台東区西浅草2丁目6−2","place":"はし藤 本店","lat":35.7127,"lon":139.789,"state":"active","id":null},{"event_id":"331440","title":"【edoARTworkshop】鳥居 満智栄の恋する和菓子づくり～４月編","url":"http://edoart0405.peatix.com","shortener_url":null,"started_at":"2018-04-05T14:00:00.000+09:00","ended_at":"2018-04-07T23:59:59.000+09:00","limit_number":null,"address":"東京都台東区西浅草2-6-2","place":"かっぱ橋道具街 はし藤本店 ２Ｆ","lat":35.7127,"lon":139.789,"state":"active","id":null},{"event_id":"362339","title":"NHKディレクソン in 山梨 ～参加者全員がTVディレクター！？　NHKを使って、みんなのアイデアで山梨の週末の人口を“２倍”にしよう！！","url":"http://nhkdirecthon05.peatix.com","shortener_url":"https://goo.gl/Po4qp4","started_at":"2018-04-01T10:00:00.000+09:00","ended_at":"2018-04-03T23:59:59.000+09:00","limit_number":null,"address":"山梨県甲府市丸の内1-1-20","place":"NHK甲府放送局 ハートプラザ","lat":35.668,"lon":138.569,"state":"active","id":null},{"event_id":"349189","title":"～現状の自分自身を知る～　10の能力別/世界トップレベルの分析テスト","url":"http://peatix.com/event/349189","shortener_url":null,"started_at":"2018-04-01T10:30:00.000+09:00","ended_at":"2018-04-03T23:59:59.000+09:00","limit_number":null,"address":"東京都港区西麻布2-26-4HOWA西麻布204","place":"ダイアネティックスセンター赤坂","lat":35.66,"lon":139.72,"state":"active","id":null},{"event_id":"362518","title":"道を拓く心の整理法／自分の過去を整理するカウンセリング","url":"http://peatix.com/event/362518","shortener_url":null,"started_at":"2018-04-01T11:00:00.000+09:00","ended_at":"2018-04-03T23:59:59.000+09:00","limit_number":null,"address":"港区西麻布2丁目26−4 HOWA 西麻布 204","place":"ダイアネティックスセンター赤坂","lat":35.6602,"lon":139.719,"state":"active","id":null},{"event_id":"359559","title":"Comedy Masala ft. STEVE BUGEJA (UK) | as seen on BBC3, ABC Australia \u0026 COMEDY CENTRAL 'Russell Howard's Stand-up Central'","url":"http://stevebugeja.peatix.com","shortener_url":null,"started_at":"2018-04-24T21:00:00.000+09:00","ended_at":"2018-04-26T23:59:59.000+09:00","limit_number":null,"address":"69 Circular Road, Boat Quay, Singapore 049423","place":"HERO'S, 69 Circular Road, Singapore 049423","lat":1.28641,"lon":103.849,"state":"active","id":null},{"event_id":"362010","title":"AXELCAFE","url":"http://axelcafe1.peatix.com","shortener_url":null,"started_at":"2018-04-05T18:00:00.000+09:00","ended_at":"2018-04-07T23:59:59.000+09:00","limit_number":null,"address":"Clip Nihonbashi Building 2F, 3-3-3, Nihonbashi-honcho, Chuo-ku","place":"Axelspace Corporation","lat":35.6886,"lon":139.774,"state":"active","id":null},{"event_id":"361107","title":"YOUAREHERE 3rd Anniversary feat. Hot Since 82","url":"http://youarehere180414ticket.peatix.com","shortener_url":null,"started_at":"2018-04-14T22:00:00.000+09:00","ended_at":"2018-04-16T23:59:59.000+09:00","limit_number":null,"address":"大阪市中央区西心斎橋2−11−7 南炭屋町ビル","place":"joule ジュール","lat":34.6713,"lon":135.498,"state":"active","id":null},{"event_id":"363261","title":"4/8 清少納言『枕草子』読書会＠上野桜木（もぐらmeets！コラボ）","url":"http://peatix.com/event/363261","shortener_url":null,"started_at":"2018-04-08T14:00:00.000+09:00","ended_at":"2018-04-10T23:59:59.000+09:00","limit_number":null,"address":"台東区上野桜木1丁目12−8","place":"桜縁荘 OENSO","lat":35.7213,"lon":139.772,"state":"active","id":null},{"event_id":"361110","title":"4/11開催【東京・女性限定】クラウドファンディングを活用した資金調達\u0026プロモーションセミナー","url":"http://peatix.com/event/361110","shortener_url":null,"started_at":"2018-04-11T19:20:00.000+09:00","ended_at":"2018-04-13T23:59:59.000+09:00","limit_number":null,"address":"","place":"Ｊマッチ・第２研修ルーム","lat":0.0,"lon":0.0,"state":"active","id":null},{"event_id":"362049","title":"「公務員or国家資格男子コンin八戸」2018年4月8日(日) 14:00-16:30","url":"http://peatix.com/event/362049","shortener_url":null,"started_at":"2018-04-08T14:00:00.000+09:00","ended_at":"2018-04-10T23:59:59.000+09:00","limit_number":null,"address":"八戸市 十三日町25","place":"魚民 八戸十三日町店","lat":40.5086,"lon":141.489,"state":"active","id":null},{"event_id":"95465","title":"第299回 よちよちAndroid オフライン開発ミーティング in 大崎","url":"https://atnd.org/events/95465","shortener_url":null,"started_at":"2018-04-01T01:00:00.000+09:00","ended_at":"2018-04-01T03:00:00.000+09:00","limit_number":null,"address":"東京都品川区大崎1-11-1","place":"ゲートシティ大崎B1アトリウムフリー座席","lat":35.6194,"lon":139.731,"state":"closed","id":null},{"event_id":"361656","title":"NEO x QRC Global Hackathon #1 TOKYO","url":"http://peatix.com/event/361656","shortener_url":"https://goo.gl/QZDphH","started_at":"2018-04-13T18:30:00.000+09:00","ended_at":"2018-04-15T23:59:59.000+09:00","limit_number":null,"address":"東京都中央区銀座2丁目7-15","place":"銀座ハンドシェイクラウンジ(Ginza Handshake Lounge)","lat":35.673,"lon":139.767,"state":"active","id":null},{"event_id":"361747","title":"アニメ好きの街コン「アニコンin浜松」2018年4月8日(日) 14:30-17:00","url":"http://peatix.com/event/361747","shortener_url":null,"started_at":"2018-04-08T14:30:00.000+09:00","ended_at":"2018-04-10T23:59:59.000+09:00","limit_number":null,"address":"静岡県浜松市中区肴町318‐27","place":" 地中海料理　セルフィッシュ","lat":34.7062,"lon":137.729,"state":"active","id":null},{"event_id":"361739","title":"アニメ好きの街コン「ちょっと大人のアニコンin宇都宮」2018年4月8日(日) 14:00-16:30","url":"http://peatix.com/event/361739","shortener_url":null,"started_at":"2018-04-08T14:00:00.000+09:00","ended_at":"2018-04-10T23:59:59.000+09:00","limit_number":null,"address":"","place":"魚民 宇都宮東口駅前店","lat":0.0,"lon":0.0,"state":"active","id":null},{"event_id":"361748","title":"アニメ好きの街コン「アニコンin船橋」2018年4月8日(日) 14:30-17:00","url":"http://peatix.com/event/361748","shortener_url":null,"started_at":"2018-04-08T14:30:00.000+09:00","ended_at":"2018-04-10T23:59:59.000+09:00","limit_number":null,"address":"","place":"鶏のジョージ 船橋南口駅前店","lat":0.0,"lon":0.0,"state":"active","id":null},{"event_id":"362040","title":"【4/24東京開催】★無料セミナー★「しくじりアプリ」になるな！アプリ運用を成功させるための「しくじらない」20箇条","url":"http://appcapsule180424.peatix.com","shortener_url":null,"started_at":"2018-04-24T10:30:00.000+09:00","ended_at":"2018-04-26T23:59:59.000+09:00","limit_number":null,"address":"東京都渋谷区桜丘町26-1 セルリアンタワー","place":"GMOインターネットグループ セミナールーム","lat":0.0,"lon":0.0,"state":"active","id":null},{"event_id":"362935","title":"Atomy Success Academy APRIL 7 - Normal Registration","url":"http://sa2018-04n.peatix.com","shortener_url":null,"started_at":"2018-04-07T10:00:00.000+09:00","ended_at":"2018-04-09T23:59:59.000+09:00","limit_number":null,"address":"1 Raffles Boulevard, Suntec City","place":"Suntec Singapore Convention \u0026 Exhibition Centre","lat":1.29369,"lon":103.857,"state":"active","id":null},{"event_id":"361627","title":"25歳から35歳限定「アラサーコンin太田」2018年4月7日(土) 19:00-21:30","url":"http://peatix.com/event/361627","shortener_url":null,"started_at":"2018-04-07T19:00:00.000+09:00","ended_at":"2018-04-09T23:59:59.000+09:00","limit_number":null,"address":"群馬県太田市飯田町1389-2 武藤ビル2F","place":"白木屋　太田南口駅前店","lat":36.2932,"lon":139.379,"state":"active","id":null},{"event_id":"361553","title":"「30代限定コンin水戸」2018年4月7日(土) 19:00-21:30","url":"http://peatix.com/event/361553","shortener_url":null,"started_at":"2018-04-07T19:00:00.000+09:00","ended_at":"2018-04-09T23:59:59.000+09:00","limit_number":null,"address":"茨城県水戸市宮町1-7-31 エクセルみなみ6F","place":"イタリアンバイキング「パパゲーノ水戸」","lat":36.3701,"lon":140.477,"state":"active","id":null},{"event_id":"361616","title":"男女20代限定「社会人男子コンinつくば」2018年4月7日(土) 19:30-22:00","url":"http://peatix.com/event/361616","shortener_url":null,"started_at":"2018-04-07T19:30:00.000+09:00","ended_at":"2018-04-09T23:59:59.000+09:00","limit_number":null,"address":"茨城県つくば市吾妻1-5-3","place":"月の宴　つくばクレオスクエアＭＯＧ店","lat":36.0815,"lon":140.111,"state":"active","id":null},{"event_id":"361488","title":"男女20代限定「社会人男子コンin郡山」2018年4月7(土) 19:30-22:00","url":"http://peatix.com/event/361488","shortener_url":null,"started_at":"2018-04-07T19:30:00.000+09:00","ended_at":"2018-04-09T23:59:59.000+09:00","limit_number":null,"address":"","place":"白木屋郡山駅前店","lat":0.0,"lon":0.0,"state":"active","id":null},{"event_id":"361649","title":"「公務員or国家資格男子コンin郡山」2018年4月8日 (日) 14:00-16:30","url":"http://peatix.com/event/361649","shortener_url":null,"started_at":"2018-04-08T14:00:00.000+09:00","ended_at":"2018-04-10T23:59:59.000+09:00","limit_number":null,"address":"","place":"わらわら 郡山駅前店 ","lat":0.0,"lon":0.0,"state":"active","id":null},{"event_id":"361721","title":"「安定男子コンinいわき」2018年4月8日(日) 14:30-17:00","url":"http://peatix.com/event/361721","shortener_url":null,"started_at":"2018-04-08T14:30:00.000+09:00","ended_at":"2018-04-10T23:59:59.000+09:00","limit_number":null,"address":"福島県いわき市平字白銀町6-1","place":"居酒屋 「三代目」鳥メロ いわき駅前店","lat":37.0574,"lon":140.894,"state":"active","id":null},{"event_id":"363011","title":"Blockchain \u0026 Cryptocurrency Primer Course (7th Run)","url":"http://blockchaincryptocurrency7thrun.peatix.com","shortener_url":null,"started_at":"2018-04-14T10:00:00.000+09:00","ended_at":"2018-04-16T23:59:59.000+09:00","limit_number":null,"address":"463 Clementi Rd, Singapore","place":"Singpore University of Social Sciences Blk C Room 4.09","lat":1.32816,"lon":103.777,"state":"active","id":null},{"event_id":"364060","title":"堀潤×朽木誠一郎「『伝わらない時代』の伝え方 – なぜ、こんなにも伝わらないのか」『堀潤の伝える人になろう講座』『健康を食い物にするメディアたち ネット時代の医療情報との付き合い方』刊行記念","url":"http://peatix.com/event/364060","shortener_url":null,"started_at":"2018-04-03T20:00:00.000+09:00","ended_at":"2018-04-05T23:59:59.000+09:00","limit_number":null,"address":"東京都世田谷区北沢2-5-2 ビッグベンB1F","place":"B\u0026B","lat":35.6608,"lon":139.668,"state":"active","id":null},{"event_id":"364002","title":"【4/5夜 幸せに働く技術】新しい時代のリーダーが最も大切にするもの　ゲスト：藤野貴教さん","url":"http://happinessatwork001.peatix.com","shortener_url":null,"started_at":"2018-04-05T19:30:00.000+09:00","ended_at":"2018-04-07T23:59:59.000+09:00","limit_number":null,"address":"東京都港区港南1-8-35","place":"KOKUYO東京ショールーム５F「スタジオ」","lat":0.0,"lon":0.0,"state":"active","id":null},{"event_id":"364406","title":"【延期・次回は4/26(木)】初心者向け大喜利体験スポット『ひなどり』 4/12(木)19:30～","url":"http://peatix.com/event/364406","shortener_url":null,"started_at":"2018-04-12T19:30:00.000+09:00","ended_at":"2018-04-14T23:59:59.000+09:00","limit_number":null,"address":"東京都新宿区西新宿7-1-7 新宿ダイカンビルA館1109号室","place":"『ひなどり』新宿ダイカン教室","lat":0.0,"lon":0.0,"state":"active","id":null},{"event_id":"364409","title":"初心者向け大喜利体験スポット『ひなどり』 4/26(木)19:30～","url":"http://peatix.com/event/364409","shortener_url":null,"started_at":"2018-04-26T19:30:00.000+09:00","ended_at":"2018-04-28T23:59:59.000+09:00","limit_number":null,"address":"東京都新宿区西新宿7-1-7 新宿ダイカンビルA館1109号室","place":"『ひなどり』新宿ダイカン教室","lat":0.0,"lon":0.0,"state":"active","id":null},{"event_id":"363899","title":"アニメ好きの街コン「アニコンin水戸」2018年4月15日(日) 15:00-17:30","url":"http://peatix.com/event/363899","shortener_url":null,"started_at":"2018-04-15T15:00:00.000+09:00","ended_at":"2018-04-17T23:59:59.000+09:00","limit_number":null,"address":"茨城県水戸市宮町1-7-31 エクセルみなみ6F","place":"イタリアンバイキング「パパゲーノ水戸」","lat":36.3701,"lon":140.477,"state":"active","id":null},{"event_id":"364031","title":"アニメ好きの街コン「アニコンin高崎」2018年4月15日(日) 14:00-16:30","url":"http://peatix.com/event/364031","shortener_url":null,"started_at":"2018-04-15T14:00:00.000+09:00","ended_at":"2018-04-17T23:59:59.000+09:00","limit_number":null,"address":"","place":"魚民 高崎東口駅前店","lat":0.0,"lon":0.0,"state":"active","id":null},{"event_id":"363883","title":"アニメ好きの街コン「アニコンin郡山」2018年4月15日(日) 14:00-16:30","url":"http://peatix.com/event/363883","shortener_url":null,"started_at":"2018-04-15T14:00:00.000+09:00","ended_at":"2018-04-17T23:59:59.000+09:00","limit_number":null,"address":"","place":"白木屋郡山駅前店","lat":0.0,"lon":0.0,"state":"active","id":null},{"event_id":"359177","title":"【Cerevo x DMM.make AKIBA】スマホで自在操作できるIoTミニ四駆を作ろう！【04/07(土)開催】","url":"http://dmmmake1804mkz4.peatix.com","shortener_url":null,"started_at":"2018-04-07T11:00:00.000+09:00","ended_at":"2018-04-09T23:59:59.000+09:00","limit_number":null,"address":"東京都千代田区神田練塀町3富士ソフト秋葉原ビル10F","place":"DMM.make AKIBA Studio (10F)","lat":35.7008,"lon":139.774,"state":"active","id":null},{"event_id":"362744","title":"CHERRY BLOSSOM PARTY!(SAT) 花見パーティー（土）","url":"http://peatix.com/event/362744","shortener_url":null,"started_at":"2018-04-07T19:00:00.000+09:00","ended_at":"2018-04-09T23:59:59.000+09:00","limit_number":null,"address":"大阪市中央区東心斎橋2-5-27","place":"The Blarney Stone (B1F)","lat":34.6718,"lon":135.504,"state":"active","id":null},{"event_id":"361949","title":"ノンスモーカー限定「アラサーコンin小山」2018年4月8日(日) 16:00-18:30","url":"http://peatix.com/event/361949","shortener_url":null,"started_at":"2018-04-08T16:00:00.000+09:00","ended_at":"2018-04-10T23:59:59.000+09:00","limit_number":null,"address":"小山市駅東通り1-4-7 柿木ビル2F","place":"笑笑 小山東口駅前店","lat":36.3108,"lon":139.807,"state":"active","id":null},{"event_id":"362043","title":"25歳から35歳限定「アラサーコンin酒田」2018年4月8日(日) 14:00-16:30","url":"http://peatix.com/event/362043","shortener_url":null,"started_at":"2018-04-08T14:00:00.000+09:00","ended_at":"2018-04-10T23:59:59.000+09:00","limit_number":null,"address":"山形県酒田市幸町 2−1−12 ホテル・アルファーワン酒田 1階","place":"魚民 酒田駅前店","lat":38.9227,"lon":139.845,"state":"active","id":null},{"event_id":"362024","title":"「安定男子コンin山形」2018年4月8日(日) 14:00-16:30","url":"http://peatix.com/event/362024","shortener_url":null,"started_at":"2018-04-08T14:00:00.000+09:00","ended_at":"2018-04-10T23:59:59.000+09:00","limit_number":null,"address":"山形市 香澄町1-15-28 ホテルニュー最上屋 地下1階","place":"魚民 山形駅前店","lat":38.2497,"lon":140.329,"state":"active","id":null},{"event_id":"363862","title":"男女20代限定「社会人男子コンin太田」2018年4月14日(土) 19:00-21:30","url":"http://peatix.com/event/363862","shortener_url":null,"started_at":"2018-04-14T19:00:00.000+09:00","ended_at":"2018-04-16T23:59:59.000+09:00","limit_number":null,"address":"群馬県太田市飯田町1389-2 武藤ビル2F","place":"白木屋 太田南口店","lat":36.2932,"lon":139.379,"state":"active","id":null},{"event_id":"361943","title":"ノンスモーカー限定「アラサーパーティーinつくば」2018年4月8日(日) 14:00-16:30","url":"http://peatix.com/event/361943","shortener_url":null,"started_at":"2018-04-07T14:00:00.000+09:00","ended_at":"2018-04-09T23:59:59.000+09:00","limit_number":null,"address":"茨城県つくば市吾妻1-5-3","place":"月の宴　つくばクレオスクエアＭＯＧ店","lat":36.0815,"lon":140.111,"state":"active","id":null},{"event_id":"362009","title":"アニメ好きの街コン「アニコンin弘前」2018年4月8日(日) 14:00-16:30","url":"http://peatix.com/event/362009","shortener_url":null,"started_at":"2018-04-08T14:00:00.000+09:00","ended_at":"2018-04-10T23:59:59.000+09:00","limit_number":null,"address":"弘前市大字駅前町7-5おおまち共同パーク1F","place":"笑笑 弘前駅前店","lat":40.5981,"lon":140.482,"state":"active","id":null},{"event_id":"363869","title":"25歳から35歳「第93回 アラサーコンin金沢」2018年4月14日(土) 19:00-21:00","url":"http://peatix.com/event/363869","shortener_url":null,"started_at":"2018-04-14T19:00:00.000+09:00","ended_at":"2018-04-16T23:59:59.000+09:00","limit_number":null,"address":"石川県金沢市香林坊1‐1‐1 香林坊大和8F","place":"ブッフェレストラン「ザ・ダイニング　」","lat":36.563,"lon":136.654,"state":"active","id":null},{"event_id":"363864","title":"25歳から35歳限定「アラサーコンin千葉」2018年4月14日(土) 19:30-22:00","url":"http://peatix.com/event/363864","shortener_url":null,"started_at":"2018-04-14T19:30:00.000+09:00","ended_at":"2018-04-16T23:59:59.000+09:00","limit_number":null,"address":"","place":"千年の宴 ＪＲ千葉駅前店","lat":0.0,"lon":0.0,"state":"active","id":null},{"event_id":"361902","title":"「30代限定コンin福島」2018年4月7日(土) 19:00-21:30","url":"http://peatix.com/event/361902","shortener_url":null,"started_at":"2018-04-07T19:00:00.000+09:00","ended_at":"2018-04-09T23:59:59.000+09:00","limit_number":null,"address":"福島市 栄町11-30 ゼビオビル 地下1","place":"笑笑 福島東口駅前店","lat":0.0,"lon":0.0,"state":"active","id":null},{"event_id":"362037","title":"アニメ好きの街コン「アニコンin福島」2018年4月8日(日) 14:00-16:30","url":"http://peatix.com/event/362037","shortener_url":null,"started_at":"2018-04-08T14:00:00.000+09:00","ended_at":"2018-04-10T23:59:59.000+09:00","limit_number":null,"address":"福島市 栄町11-30 ゼビオビル 地下1","place":"笑笑 福島東口駅前店","lat":37.754,"lon":140.463,"state":"active","id":null},{"event_id":"364022","title":"「25歳～35歳限定アラサーパーティーinつくば」2018年4月15日(日) 14:00-16:30","url":"http://peatix.com/event/364022","shortener_url":null,"started_at":"2018-04-15T14:00:00.000+09:00","ended_at":"2018-04-17T23:59:59.000+09:00","limit_number":null,"address":"","place":"魚民 つくばデイズタウン店","lat":0.0,"lon":0.0,"state":"active","id":null},{"event_id":"363822","title":"25歳から35歳限定「アラサーパーティーin水戸」2018年4月14日(土) 19:00-21:30","url":"http://peatix.com/event/363822","shortener_url":null,"started_at":"2018-04-14T19:00:00.000+09:00","ended_at":"2018-04-16T23:59:59.000+09:00","limit_number":null,"address":"茨城県水戸市宮町1-7-31 エクセルみなみ6F","place":"パパゲーノ水戸","lat":36.3701,"lon":140.477,"state":"active","id":null},{"event_id":"363834","title":"男女20代限定「社会人男子コンin宇都宮」2018年4月14日(土) 19:00-21:30","url":"http://peatix.com/event/363834","shortener_url":null,"started_at":"2018-04-14T19:00:00.000+09:00","ended_at":"2018-04-16T23:59:59.000+09:00","limit_number":null,"address":"宇都宮市駅前通り1丁目5−2","place":"白木屋 ＪＲ宇都宮西口駅前店","lat":36.5595,"lon":139.897,"state":"active","id":null},{"event_id":"363815","title":"25歳から35歳限定「アラサーコンin郡山」2018年4月14日(土) 19:30-22:00","url":"http://peatix.com/event/363815","shortener_url":null,"started_at":"2018-04-14T19:30:00.000+09:00","ended_at":"2018-04-16T23:59:59.000+09:00","limit_number":null,"address":"","place":"白木屋郡山駅前店","lat":0.0,"lon":0.0,"state":"active","id":null},{"event_id":"363889","title":"25歳から35歳限定「アラサーコンinいわき」2018年4月15日(日) 14:30-17:00","url":"http://peatix.com/event/363889","shortener_url":null,"started_at":"2018-04-15T14:30:00.000+09:00","ended_at":"2018-04-17T23:59:59.000+09:00","limit_number":null,"address":"いわき市 平字白銀町6-1 駅前セントラルビル 1F","place":"三代目 鳥メロ いわき駅前店","lat":0.0,"lon":0.0,"state":"active","id":null},{"event_id":"362033","title":"「社会人男子コンin盛岡」2018年4月8日(日) 14:00-16:30","url":"http://peatix.com/event/362033","shortener_url":null,"started_at":"2018-04-08T14:00:00.000+09:00","ended_at":"2018-04-10T23:59:59.000+09:00","limit_number":null,"address":"盛岡市菜園2-4-23","place":"琥haku （コハク）","lat":39.7019,"lon":141.147,"state":"active","id":null},{"event_id":"361930","title":"ノンスモーカー限定「社会人男子コンin水戸」2018年4月8日(日) 15:00-17:30","url":"http://peatix.com/event/361930","shortener_url":null,"started_at":"2018-04-08T15:00:00.000+09:00","ended_at":"2018-04-10T23:59:59.000+09:00","limit_number":null,"address":"茨城県水戸市宮町1-7-31 エクセルみなみ6F","place":"パパゲーノ水戸","lat":36.3701,"lon":140.477,"state":"active","id":null},{"event_id":"361959","title":"「社会人男子コンin金沢」2018年4月7日(土) 19:00-21:00","url":"http://peatix.com/event/361959","shortener_url":null,"started_at":"2018-04-07T19:00:00.000+09:00","ended_at":"2018-04-09T23:59:59.000+09:00","limit_number":null,"address":"石川県金沢市香林坊1‐1‐1 香林坊大和8F","place":"ブッフェレストラン「ザ・ダイニング　」","lat":36.563,"lon":136.654,"state":"active","id":null},{"event_id":"361992","title":"ノンスモーカー限定「社会人男子コンin金沢」2018年4月8日(日) 15:00-17:30","url":"http://peatix.com/event/361992","shortener_url":null,"started_at":"2018-04-08T15:00:00.000+09:00","ended_at":"2018-04-10T23:59:59.000+09:00","limit_number":null,"address":"石川県金沢市香林坊1‐1‐1 香林坊大和8F","place":"ブッフェレストラン「ザ・ダイニング　」","lat":36.563,"lon":136.654,"state":"active","id":null},{"event_id":"362302","title":"4月14日（土）アイデアからビジネスを創るワークショップ「Startup Discussion」","url":"http://discussion180414.peatix.com","shortener_url":null,"started_at":"2018-04-14T10:30:00.000+09:00","ended_at":"2018-04-16T23:59:59.000+09:00","limit_number":null,"address":"横浜市中区海岸通1-1","place":"波止場会館　４Ｆ小会議室Ａ","lat":35.4487,"lon":139.645,"state":"active","id":null},{"event_id":"82541","title":"★パソナテック×楽天社コラボイベント★","url":"https://nagosuta.connpass.com/event/82541/","shortener_url":null,"started_at":"2018-04-21T10:00:00.000+09:00","ended_at":"2018-04-21T12:00:00.000+09:00","limit_number":20,"address":"愛知県名古屋市中区錦２丁目１５−２０　三永伏見ビル7階","place":"パソナテック名古屋Lab","lat":35.1697,"lon":136.899,"state":"active","id":null},{"event_id":"82109","title":"【初心者向け】Ruby勉強会 〜「Ruby on Rails」入門編その2〜","url":"https://osakarubydev.connpass.com/event/82109/","shortener_url":"https://goo.gl/LMG7yW","started_at":"2018-04-28T12:00:00.000+09:00","ended_at":"2018-04-28T15:00:00.000+09:00","limit_number":10,"address":"大阪市中央区本町4丁目7-7-303","place":"kiiiya hommachi","lat":34.6849,"lon":135.498,"state":"active","id":null},{"event_id":"82075","title":"【初心者向け】Ruby勉強会 〜「Ruby on Rails」入門編〜","url":"https://osakarubydev.connpass.com/event/82075/","shortener_url":"https://goo.gl/4kuDEm","started_at":"2018-04-21T12:00:00.000+09:00","ended_at":"2018-04-21T15:00:00.000+09:00","limit_number":11,"address":"大阪市中央区本町4丁目7-7-303","place":"kiiiya hommachi","lat":34.6849,"lon":135.498,"state":"active","id":null},{"event_id":"82127","title":"汎用人工知能(AGI)を創ろう!研究会 by Team AI 4/5(木)","url":"https://teamai.connpass.com/event/82127/","shortener_url":null,"started_at":"2018-04-05T19:00:00.000+09:00","ended_at":"2018-04-05T21:00:00.000+09:00","limit_number":10,"address":"東京都渋谷区渋谷1丁目8 (TOC第１ビル3階)","place":"みんなの会議室2-1　渋谷宮益坂","lat":35.6618,"lon":139.696,"state":"active","id":null},{"event_id":"363543","title":"女性のライフシフトを考える「キャリア寺子屋」","url":"http://career-terakoya.peatix.com","shortener_url":null,"started_at":"2018-04-21T09:00:00.000+09:00","ended_at":"2018-04-23T23:59:59.000+09:00","limit_number":null,"address":"東京都港区南青山3-4-6 AOYAMA346","place":"株式会社JAM","lat":35.6673,"lon":139.717,"state":"active","id":null},{"event_id":"349188","title":"心の仕組みを学び、あなたを変える！","url":"http://peatix.com/event/349188","shortener_url":null,"started_at":"2018-04-01T10:30:00.000+09:00","ended_at":"2018-04-03T23:59:59.000+09:00","limit_number":null,"address":"東京都港区西麻布2-26-4HOWA西麻布204","place":"ダイアネティックスセンター赤坂","lat":35.66,"lon":139.72,"state":"active","id":null},{"event_id":"364582","title":"「30代限定コンin小山」2018年4月15日(日) 16:00-18:30","url":"http://peatix.com/event/364582","shortener_url":null,"started_at":"2018-04-15T16:00:00.000+09:00","ended_at":"2018-04-17T23:59:59.000+09:00","limit_number":null,"address":"小山市駅東通り1-4-7 柿木ビル2F","place":"笑笑　小山東口駅前店","lat":36.3108,"lon":139.807,"state":"active","id":null},{"event_id":"364052","title":"25歳から35歳限定「アラサーコンin小田原」2018年4月15日(日) 14:30-17:00","url":"http://peatix.com/event/364052","shortener_url":null,"started_at":"2018-04-15T14:30:00.000+09:00","ended_at":"2018-04-17T23:59:59.000+09:00","limit_number":null,"address":"小田原市 小田原市栄町1-2-1 小田原駅前ビル 3階","place":"魚民 小田原東口駅前店","lat":35.2553,"lon":139.157,"state":"active","id":null},{"event_id":"364585","title":"「20代限定コンin金沢」2018年4月15日(日) 15:00-17:30","url":"http://peatix.com/event/364585","shortener_url":null,"started_at":"2018-04-15T15:00:00.000+09:00","ended_at":"2018-04-17T23:59:59.000+09:00","limit_number":null,"address":"石川県金沢市香林坊1‐1‐1 香林坊大和8F","place":"ブッフェレストラン「ザ・ダイニング　」","lat":36.563,"lon":136.654,"state":"active","id":null},{"event_id":"362303","title":"4月14日（土）ソロビズ「起業の適性検査」カフェVer.","url":"http://180414cafe.peatix.com","shortener_url":null,"started_at":"2018-04-14T09:10:00.000+09:00","ended_at":"2018-04-16T23:59:59.000+09:00","limit_number":null,"address":"横浜市中区海岸通1-1","place":"波止場会館　４F小会議室Ａ","lat":35.4487,"lon":139.645,"state":"active","id":null},{"event_id":"364004","title":"4月6日（金）販路づくりの専門家に学ぶ「展示会攻略術」　～ファッション ワールド東京編～","url":"http://180406tenji.peatix.com","shortener_url":null,"started_at":"2018-04-06T13:30:00.000+09:00","ended_at":"2018-04-08T23:59:59.000+09:00","limit_number":null,"address":"東京都江東区有明3-11-1 東京ビッグサイト 北コンコース集合","place":"東京ビッグサイト","lat":0.0,"lon":0.0,"state":"active","id":null},{"event_id":"82602","title":"【4/8(日)14:00】Tech×社会課題アイディアソン","url":"https://connpass.com/event/82602/","shortener_url":"https://goo.gl/5gGqLL","started_at":"2018-04-08T05:00:00.000+09:00","ended_at":"2018-04-08T10:00:00.000+09:00","limit_number":20,"address":"京都市上京区岡松町烏丸通今出川上る272(クローバービル2F)","place":"タリキチ","lat":35.0294,"lon":135.759,"state":"active","id":null},{"event_id":"364760","title":"DRAW ON ME (FRI) ドローオンミー・パーティー（金）","url":"http://peatix.com/event/364760","shortener_url":null,"started_at":"2018-04-13T19:00:00.000+09:00","ended_at":"2018-04-15T23:59:59.000+09:00","limit_number":null,"address":"東京都港区六本木3-14-9 ユア六本木2F","place":"Bar Propaganda (2F)","lat":35.6623,"lon":139.735,"state":"active","id":null},{"event_id":"364761","title":"DRAW ON ME (SAT) ドローオンミー・パーティー（土）","url":"http://peatix.com/event/364761","shortener_url":null,"started_at":"2018-04-14T19:00:00.000+09:00","ended_at":"2018-04-16T23:59:59.000+09:00","limit_number":null,"address":"東京都港区六本木3-14-9 ユア六本木2F","place":"Bar Propaganda (2F)","lat":35.6623,"lon":139.735,"state":"active","id":null},{"event_id":"71994","title":"【参加無料！4/22（日）】株価APIでミニアイデアソン！ + TensorFlow基礎講座","url":"https://soleildatadojo.doorkeeper.jp/events/71994","shortener_url":"https://goo.gl/CnAmTm","started_at":"2018-04-22T14:00:00.000+09:00","ended_at":"2018-04-22T18:30:00.000+09:00","limit_number":22,"address":"大阪市北区西天満2丁目5-3 堂島深川ビル3F(2018年4月オープン予定)","place":"SCRIBBLE OSAKA LAB (SOL)","lat":34.6952,"lon":135.502,"state":"active","id":null},{"event_id":"95570","title":"第53回よちよちAndroid名古屋支部オフライン開発ミーティング","url":"https://atnd.org/events/95570","shortener_url":null,"started_at":"2018-04-08T00:00:00.000+09:00","ended_at":"2018-04-08T03:00:00.000+09:00","limit_number":null,"address":"名古屋市中区栄三丁目18番1号 ナディアパーク デザインセンタービル6階","place":"名古屋市市民活動推進センター","lat":35.1654,"lon":136.905,"state":"closed","id":null},{"event_id":"364927","title":"行って分かった！欧米のVR/AR最新事情〜GDC・SXSWなどの現地から〜","url":"http://moguravr-201804.peatix.com","shortener_url":null,"started_at":"2018-04-11T19:30:00.000+09:00","ended_at":"2018-04-13T23:59:59.000+09:00","limit_number":null,"address":"東京都渋谷区渋谷2丁目21-1","place":"渋谷ヒカリエ34階","lat":35.659,"lon":139.703,"state":"active","id":null},{"event_id":"364548","title":"3h-workshop for start-ups: Introduction to Product Development","url":"http://peatix.com/event/364548","shortener_url":null,"started_at":"2018-04-21T10:00:00.000+09:00","ended_at":"2018-04-23T23:59:59.000+09:00","limit_number":null,"address":"Singapore","place":"Singapore","lat":1.35538,"lon":103.868,"state":"active","id":null},{"event_id":"363521","title":"#フォントの日","url":"http://fontday2018.peatix.com","shortener_url":null,"started_at":"2018-04-10T19:00:00.000+09:00","ended_at":"2018-04-12T23:59:59.000+09:00","limit_number":null,"address":"東京都千代田区紀尾井町1-3東京ガーデンテラス紀尾井町18F ヤフー株式会社内","place":"Yahoo! LODGE","lat":0.0,"lon":0.0,"state":"active","id":null},{"event_id":"365352","title":"THE NORTH FACE presents 小島聖「野生のベリージャム」刊行記念イベント 『山と旅と食の集い』","url":"http://berryjam.peatix.com","shortener_url":null,"started_at":"2018-04-06T18:00:00.000+09:00","ended_at":"2018-04-08T23:59:59.000+09:00","limit_number":null,"address":"東京都渋谷区3-20-13","place":"VACANT","lat":35.6701,"lon":139.708,"state":"active","id":null},{"event_id":"365546","title":"IchigoJamプログラミングスクール＜Hana道場＞4月7日","url":"http://peatix.com/event/365546","shortener_url":null,"started_at":"2018-04-07T14:00:00.000+09:00","ended_at":"2018-04-09T23:59:59.000+09:00","limit_number":null,"address":"福井県鯖江市旭町1-6-6","place":"Hana道場","lat":35.9447,"lon":136.187,"state":"active","id":null},{"event_id":"365549","title":"IchigoJamプログラミングスクール＜Hana道場＞4月21日","url":"http://peatix.com/event/365549","shortener_url":null,"started_at":"2018-04-21T14:00:00.000+09:00","ended_at":"2018-04-23T23:59:59.000+09:00","limit_number":null,"address":"福井県鯖江市旭町1-6-6","place":"Hana道場","lat":35.9447,"lon":136.187,"state":"active","id":null},{"event_id":"365116","title":"大好評限定イベント！嗜みダンスと社交界マナー＆ペニンシュラランチ！Special Event! Dance lessons and gorgeous lunch!","url":"http://lesson-lunch.peatix.com","shortener_url":null,"started_at":"2018-04-15T10:00:00.000+09:00","ended_at":"2018-04-17T23:59:59.000+09:00","limit_number":null,"address":"東京都新宿区四谷1-15 アーバンサカス8","place":"スタジオ　グラッドリ","lat":0.0,"lon":0.0,"state":"active","id":null},{"event_id":"365501","title":"テクノロジーで変わるファッションの未来「イノベーション・エクスプレス 」シリーズ第2回","url":"http://0426fashionnomirai.peatix.com","shortener_url":null,"started_at":"2018-04-26T19:00:00.000+09:00","ended_at":"2018-04-28T23:59:59.000+09:00","limit_number":null,"address":"港区六本木6−10−1 六本木ヒルズ森タワー49階","place":"アカデミーヒルズ 六本木フォーラム","lat":35.6605,"lon":139.729,"state":"active","id":null},{"event_id":"365186","title":"DRAW ON ME PARTY! (SAT) ドローオンミー・パーティー（土）","url":"http://peatix.com/event/365186","shortener_url":null,"started_at":"2018-04-14T19:00:00.000+09:00","ended_at":"2018-04-16T23:59:59.000+09:00","limit_number":null,"address":"大阪市中央区東心斎橋2-5-27","place":"The Blarney Stone (B1F)","lat":34.6718,"lon":135.504,"state":"active","id":null},{"event_id":"365293","title":"Converting clients to Xero (hands-on)","url":"http://peatix.com/event/365293","shortener_url":null,"started_at":"2018-04-24T14:00:00.000+09:00","ended_at":"2018-04-26T23:59:59.000+09:00","limit_number":null,"address":"115 Amoy Street, #03-00, Singapore 069935","place":"Xero Singapore","lat":1.28225,"lon":103.848,"state":"active","id":null},{"event_id":"83068","title":"BPLL #20","url":"https://bpstudy.connpass.com/event/83068/","shortener_url":null,"started_at":"2018-04-17T12:10:00.000+09:00","ended_at":"2018-04-17T13:00:00.000+09:00","limit_number":3,"address":"東京都渋谷区千駄ヶ谷5-32-7-4F","place":"株式会社ビープラウド","lat":35.6864,"lon":139.704,"state":"active","id":null},{"event_id":"361484","title":"【女性限定！お土産付き】IoT女子会 ～Special for Amazon Alexa♡～","url":"http://iotgirl4.peatix.com","shortener_url":"https://goo.gl/Db3kMc","started_at":"2018-04-14T13:00:00.000+09:00","ended_at":"2018-04-16T23:59:59.000+09:00","limit_number":null,"address":"東京都目黒区下目黒1-8-1アルコタワー19F","place":"アマゾンジャパン合同会社","lat":35.6317,"lon":139.713,"state":"active","id":null},{"event_id":"364933","title":"AI×IoT×ビッグデータ　全てがつながる新しい社会像『Society 5.0』とは！？","url":"http://peatix.com/event/364933","shortener_url":null,"started_at":"2018-04-05T19:00:00.000+09:00","ended_at":"2018-04-07T23:59:59.000+09:00","limit_number":null,"address":"東京都中央区日本橋茅場町1-8-1","place":"FinGATE KAYABA","lat":35.6802,"lon":139.779,"state":"active","id":null},{"event_id":"365565","title":"Developer Circle Osaka from facebook at OIH","url":"http://0414developercircleosaka.peatix.com","shortener_url":null,"started_at":"2018-04-14T14:00:00.000+09:00","ended_at":"2018-04-16T23:59:59.000+09:00","limit_number":null,"address":"大阪市北区大深町3番1号グランフロント大阪ナレッジキャピタルタワーC 7階","place":"大阪イノベーションハブ","lat":0.0,"lon":0.0,"state":"active","id":null},{"event_id":"344003","title":"未来技術シンポジウム × Kanatta ～未来技術分野における女性の活躍～","url":"http://peatix.com/event/344003","shortener_url":null,"started_at":"2018-04-29T14:00:00.000+09:00","ended_at":"2018-05-01T23:59:59.000+09:00","limit_number":null,"address":"〒108-0073 東京都港区三田3丁目12−12","place":"笹川記念会館 国際ホール","lat":0.0,"lon":0.0,"state":"active","id":null},{"event_id":"365520","title":"第49回堀江貴文とカウンターで高級寿司を食べる 【限定9人】TERIYAKIプレミアム鮨会","url":"http://teriyakipremium49.peatix.com","shortener_url":null,"started_at":"2018-04-20T18:30:00.000+09:00","ended_at":"2018-04-22T23:59:59.000+09:00","limit_number":null,"address":"中央区銀座6丁目3−5","place":"鮨 かねみつ","lat":35.6716,"lon":139.761,"state":"active","id":null},{"event_id":"364619","title":"25歳から35歳限定「アラサーコンin弘前」2018年4月14日(土) 19:00-21:30","url":"http://peatix.com/event/364619","shortener_url":null,"started_at":"2018-04-14T19:00:00.000+09:00","ended_at":"2018-04-16T23:59:59.000+09:00","limit_number":null,"address":"弘前市大字駅前町7-5 おおまち共同パーク1F","place":"笑笑 弘前駅前店 ","lat":40.5981,"lon":140.482,"state":"active","id":null},{"event_id":"364645","title":"25歳から35歳限定「アラサーコンin盛岡」2018年4月14日(土) 19:00-21:30","url":"http://peatix.com/event/364645","shortener_url":null,"started_at":"2018-04-14T19:00:00.000+09:00","ended_at":"2018-04-16T23:59:59.000+09:00","limit_number":null,"address":"盛岡市菜園2-4-23 バーセル菜園 5F","place":"琥haku （コハク）","lat":39.7019,"lon":141.147,"state":"active","id":null},{"event_id":"364722","title":"ノンスモーカー限定「社会人男子コンin盛岡」2018年4月15日(日) 14:00-16:30","url":"http://peatix.com/event/364722","shortener_url":null,"started_at":"2018-04-15T14:00:00.000+09:00","ended_at":"2018-04-17T23:59:59.000+09:00","limit_number":null,"address":"盛岡市菜園2-4-23","place":"琥haku （コハク）","lat":39.7019,"lon":141.147,"state":"active","id":null},{"event_id":"366691","title":"「20代限定コンin山形」2018年4月21日(土) 19:00-21:30","url":"http://peatix.com/event/366691","shortener_url":null,"started_at":"2018-04-21T19:00:00.000+09:00","ended_at":"2018-04-23T23:59:59.000+09:00","limit_number":null,"address":"山形県山形市香澄町1-15-28 ホテルニュー最上屋","place":"魚民　山形駅前店","lat":38.2497,"lon":140.329,"state":"active","id":null},{"event_id":"366715","title":"ノンスモーカー限定「社会人男子コンin山形」2018年4月22日(日) 14:00-16:30","url":"http://peatix.com/event/366715","shortener_url":null,"started_at":"2018-04-21T14:00:00.000+09:00","ended_at":"2018-04-23T23:59:59.000+09:00","limit_number":null,"address":"山形県山形市香澄町1-15-28 ホテルニュー最上屋","place":"魚民　山形駅前店 ","lat":38.2497,"lon":140.329,"state":"active","id":null},{"event_id":"366729","title":"「公務員or国家資格男子コンin福島」2018年4月22日(日) 14:00-16:30","url":"http://peatix.com/event/366729","shortener_url":null,"started_at":"2018-04-22T14:00:00.000+09:00","ended_at":"2018-04-24T23:59:59.000+09:00","limit_number":null,"address":"福島市 栄町11-30 ゼビオビル 地下1","place":"笑笑 福島東口駅前店","lat":37.754,"lon":140.463,"state":"active","id":null},{"event_id":"364630","title":"「30代限定コンin山形」2018年4月14日(土) 19:00-21:30","url":"http://peatix.com/event/364630","shortener_url":null,"started_at":"2018-04-14T19:00:00.000+09:00","ended_at":"2018-04-16T23:59:59.000+09:00","limit_number":null,"address":"山形県山形市香澄町1-15-28 ホテルニュー最上屋","place":"魚民　山形駅前店","lat":38.2497,"lon":140.329,"state":"active","id":null},{"event_id":"364678","title":"アニメ好き大集合「元祖アニコンin山形 Vol.38」2018年4月15日(日) 14:00-16:30","url":"http://peatix.com/event/364678","shortener_url":null,"started_at":"2018-04-15T14:00:00.000+09:00","ended_at":"2018-04-17T23:59:59.000+09:00","limit_number":null,"address":"山形県山形市香澄町1-15-28 ホテルニュー最上屋","place":"魚民　山形駅前店","lat":38.2497,"lon":140.329,"state":"active","id":null},{"event_id":"364729","title":"ノンスモーカー限定「社会人男子コンin福島」2018年4月15日(日) 14:00-16:30","url":"http://peatix.com/event/364729","shortener_url":null,"started_at":"2018-04-15T14:00:00.000+09:00","ended_at":"2018-04-17T23:59:59.000+09:00","limit_number":null,"address":"福島市 栄町11-30 ゼビオビル 地下1","place":"笑笑 福島東口駅前店","lat":37.754,"lon":140.463,"state":"active","id":null},{"event_id":"364666","title":"「20代限定コンin弘前」2018年4月15日(日) 14:00-16:30","url":"http://peatix.com/event/364666","shortener_url":null,"started_at":"2018-04-15T14:00:00.000+09:00","ended_at":"2018-04-17T23:59:59.000+09:00","limit_number":null,"address":"弘前市大字駅前町7-5 おおまち共同パーク1F","place":"笑笑 弘前駅前店","lat":40.5981,"lon":140.482,"state":"active","id":null},{"event_id":"364705","title":"「20代限定コンin酒田」2018年4月15日(日) 14:00-16:30","url":"http://peatix.com/event/364705","shortener_url":null,"started_at":"2018-04-15T14:00:00.000+09:00","ended_at":"2018-04-17T23:59:59.000+09:00","limit_number":null,"address":"山形県酒田市幸町 2−1−12 ホテル・アルファーワン酒田 1階","place":"魚民 酒田駅前店","lat":38.9227,"lon":139.845,"state":"active","id":null},{"event_id":"364662","title":"25歳から35歳限定「アラサーコンin福島」2018年4月14日(土) 19:00-21:30","url":"http://peatix.com/event/364662","shortener_url":null,"started_at":"2018-04-14T19:00:00.000+09:00","ended_at":"2018-04-16T23:59:59.000+09:00","limit_number":null,"address":"福島市栄町11-30 ゼビオビルB1","place":"笑笑 福島東口駅前店","lat":37.754,"lon":140.463,"state":"active","id":null},{"event_id":"364600","title":"「社会人男子コンin青森」2018年4月14日(土) 19:00-21:30","url":"http://peatix.com/event/364600","shortener_url":null,"started_at":"2018-04-14T19:00:00.000+09:00","ended_at":"2018-04-16T23:59:59.000+09:00","limit_number":null,"address":"","place":"山内農場 青森駅前店","lat":0.0,"lon":0.0,"state":"active","id":null},{"event_id":"366011","title":"MIX UP","url":"http://mixup0413.peatix.com","shortener_url":null,"started_at":"2018-04-13T23:00:00.000+09:00","ended_at":"2018-04-15T23:59:59.000+09:00","limit_number":null,"address":"大阪市中央区東心斎橋1丁目12−17 3F ロンスカール高吉ビル","place":"CLUB CAMON","lat":34.6746,"lon":135.503,"state":"active","id":null},{"event_id":"350070","title":"【1080円】子供は「小さな大人」：自己決定力をはぐくみ、意欲的な子供にする","url":"http://peatix.com/event/350070","shortener_url":null,"started_at":"2018-04-01T10:30:00.000+09:00","ended_at":"2018-04-03T23:59:59.000+09:00","limit_number":null,"address":"東京都港区西麻布2-26-4HOWA西麻布204","place":"ダイアネティックスセンター赤坂","lat":35.66,"lon":139.72,"state":"active","id":null},{"event_id":"349187","title":"【1080円】あなたはまだまだプロモーションできる！","url":"http://peatix.com/event/349187","shortener_url":null,"started_at":"2018-04-01T10:30:00.000+09:00","ended_at":"2018-04-03T23:59:59.000+09:00","limit_number":null,"address":"東京都港区西麻布2-26-4HOWA西麻布204","place":"ダイアネティックスセンター赤坂","lat":35.66,"lon":139.72,"state":"active","id":null},{"event_id":"366393","title":"男女30歳以上45歳限定「恋STORYパーティーin水戸」2018年4月21日(土) 19:00-21:30","url":"http://peatix.com/event/366393","shortener_url":null,"started_at":"2018-04-21T19:00:00.000+09:00","ended_at":"2018-04-23T23:59:59.000+09:00","limit_number":null,"address":"茨城県水戸市宮町1-7-31 エクセルみなみ6F","place":"イタリアンバイキング「パパゲーノ水戸」","lat":36.3701,"lon":140.477,"state":"active","id":null},{"event_id":"366456","title":"「公務員or国家資格男子コンinいわき」2018年4月22日 (日) 14:30-17:00","url":"http://peatix.com/event/366456","shortener_url":null,"started_at":"2018-04-22T14:30:00.000+09:00","ended_at":"2018-04-24T23:59:59.000+09:00","limit_number":null,"address":"福島県いわき市平字白銀町6-1","place":"「三代目」鳥メロ ","lat":37.0571,"lon":140.893,"state":"active","id":null},{"event_id":"366462","title":"「安定男子コンinつくば」2018年4月22日 (日) 14:00-16:30","url":"http://peatix.com/event/366462","shortener_url":null,"started_at":"2018-04-22T14:00:00.000+09:00","ended_at":"2018-04-24T23:59:59.000+09:00","limit_number":null,"address":"茨城県つくば市吾妻1-5-3 MOG3階","place":"月の宴　つくばクレオスクエアＭＯＧ店","lat":0.0,"lon":0.0,"state":"active","id":null},{"event_id":"366772","title":"「30代限定コンin太田」2018年4月22日(日) 14:30-17:00","url":"http://peatix.com/event/366772","shortener_url":null,"started_at":"2018-04-22T14:30:00.000+09:00","ended_at":"2018-04-24T23:59:59.000+09:00","limit_number":null,"address":"群馬県太田市飯田町1389-2 武藤ビル2F","place":"白木屋　太田南口駅前店","lat":36.2932,"lon":139.379,"state":"active","id":null},{"event_id":"366431","title":"25歳から35歳「第94回 アラサーコンin金沢」2018年4月21日(土) 19:00-21:00","url":"http://peatix.com/event/366431","shortener_url":null,"started_at":"2018-04-21T19:00:00.000+09:00","ended_at":"2018-04-23T23:59:59.000+09:00","limit_number":null,"address":"石川県金沢市香林坊1‐1‐1 香林坊大和8F","place":"ブッフェレストラン「ザ・ダイニング　」","lat":36.563,"lon":136.654,"state":"active","id":null},{"event_id":"366399","title":"男女20代限定「社会人男子コンinつくば」2018年4月21日(土) 19:30-22:00","url":"http://peatix.com/event/366399","shortener_url":null,"started_at":"2018-04-21T19:30:00.000+09:00","ended_at":"2018-04-23T23:59:59.000+09:00","limit_number":null,"address":"茨城県つくば市吾妻1-5-3","place":"月の宴　つくばクレオスクエアＭＯＧ店","lat":36.0815,"lon":140.111,"state":"active","id":null},{"event_id":"366414","title":"ノンスモーカー限定「社会人男子コンin宇都宮」2018年4月21日(土) 19:00-21:30","url":"http://peatix.com/event/366414","shortener_url":null,"started_at":"2018-04-21T19:00:00.000+09:00","ended_at":"2018-04-23T23:59:59.000+09:00","limit_number":null,"address":"宇都宮市駅前通り1丁目5−2","place":"白木屋 ＪＲ宇都宮西口駅前店","lat":36.5595,"lon":139.897,"state":"active","id":null},{"event_id":"366438","title":"「社会人男子コンin郡山」2018年4月22(日) 14:00-16:30","url":"http://peatix.com/event/366438","shortener_url":null,"started_at":"2018-04-22T14:00:00.000+09:00","ended_at":"2018-04-24T23:59:59.000+09:00","limit_number":null,"address":"郡山市 さとうやビル B1","place":"白木屋 郡山駅前大通り店","lat":37.3979,"lon":140.386,"state":"active","id":null},{"event_id":"366750","title":"25歳から35歳限定「アラサーコンin小山」2018年4月22日(日) 16:00-18:30","url":"http://peatix.com/event/366750","shortener_url":null,"started_at":"2018-04-22T16:00:00.000+09:00","ended_at":"2018-04-24T23:59:59.000+09:00","limit_number":null,"address":"小山市駅東通り1-4-7 柿木ビル2F","place":"笑笑 小山東口駅前店","lat":36.3108,"lon":139.807,"state":"active","id":null},{"event_id":"366774","title":"男女20代限定「社会人男子コンin浜松」2018年4月22日(日) 14:30-17:00","url":"http://peatix.com/event/366774","shortener_url":null,"started_at":"2018-04-22T14:30:00.000+09:00","ended_at":"2018-04-24T23:59:59.000+09:00","limit_number":null,"address":"浜松市中区 肴町318−27 黒潮会館ビル 1F","place":"セルフィッシュ","lat":34.7062,"lon":137.729,"state":"active","id":null},{"event_id":"366307","title":"「30代限定コンin郡山」2018年4月21日(土) 19:30-22:00","url":"http://peatix.com/event/366307","shortener_url":null,"started_at":"2018-04-21T19:30:00.000+09:00","ended_at":"2018-04-23T23:59:59.000+09:00","limit_number":null,"address":"郡山市中町10−10","place":"魚民 郡山中町店","lat":37.398,"lon":140.384,"state":"active","id":null},{"event_id":"366422","title":"男女20代限定「社会人男子コンin高崎」2018年4月21日(土) 19:30-22:00","url":"http://peatix.com/event/366422","shortener_url":null,"started_at":"2018-04-21T19:00:00.000+09:00","ended_at":"2018-04-23T23:59:59.000+09:00","limit_number":null,"address":"高崎市 西口サウスパークビル 1階","place":"魚民 高崎西口駅前店","lat":36.3208,"lon":139.012,"state":"active","id":null},{"event_id":"366459","title":"「社会人男子限定パーティーin水戸」2018年4月22日(日) 15:00-17:30","url":"http://peatix.com/event/366459","shortener_url":null,"started_at":"2018-04-22T15:00:00.000+09:00","ended_at":"2018-04-24T23:59:59.000+09:00","limit_number":null,"address":"茨城県水戸市宮町1-7-31 エクセルみなみ6F","place":"パパゲーノ水戸","lat":36.3701,"lon":140.477,"state":"active","id":null},{"event_id":"72534","title":"六甲道【小３～小６ 初心者歓迎】はじめての電子工作（保護者同伴要）","url":"https://8x9trial.doorkeeper.jp/events/72534","shortener_url":null,"started_at":"2018-04-08T10:30:00.000+09:00","ended_at":"2018-04-08T12:00:00.000+09:00","limit_number":3,"address":"〒657-0036 兵庫県神戸市灘区桜口町4丁目1−1 ウエルブ六甲道4番街4階 401-2","place":"キッズプログラミングスクール8x9　六甲道校（JR六甲道駅より徒歩約４分）","lat":34.7131,"lon":135.24,"state":"active","id":null},{"event_id":"365097","title":"[Free of charge event] Quantum Technology Seminar in Tokyo by Danish Embassy - デンマーク大使館　量子技術セミナー in 東京 -","url":"http://quantumtechnology.peatix.com","shortener_url":null,"started_at":"2018-04-12T10:00:00.000+09:00","ended_at":"2018-04-14T23:59:59.000+09:00","limit_number":null,"address":"3-5-20 Gotanda, Shinagawa-ku Tokyo 141-8001","place":"DNP Gotanda Building Hall","lat":35.6262,"lon":139.726,"state":"active","id":null},{"event_id":"366902","title":"Will Writing \u0026 LPA Workshop (English)","url":"http://willwritingandlpaworkshop.peatix.com","shortener_url":null,"started_at":"2018-04-09T20:30:00.000+09:00","ended_at":"2018-04-11T23:59:59.000+09:00","limit_number":null,"address":"10 Anson Rd, Singapore 079903","place":"#28-15","lat":1.276,"lon":103.846,"state":"active","id":null},{"event_id":"367440","title":"2018/04/22(日) プログラミングスタートアップwithキッズ","url":"http://peatix.com/event/367440","shortener_url":null,"started_at":"2018-04-22T13:30:00.000+09:00","ended_at":"2018-04-24T23:59:59.000+09:00","limit_number":null,"address":"神奈川県鎌倉市御成町5-16","place":"かまくらツクルンダ!!村","lat":35.3164,"lon":139.55,"state":"active","id":null},{"event_id":"364713","title":"【参加無料】\"BUSINESS LEADERS SQUARE wisdom\" presents 最新動向から注目ビジネスまで 次世代中国　一歩先の大市場を読む","url":"http://wisdom20180419.peatix.com","shortener_url":null,"started_at":"2018-04-19T14:00:00.000+09:00","ended_at":"2018-04-21T23:59:59.000+09:00","limit_number":null,"address":"東京都港区六本木1丁目5−2","place":"ベルサール泉ガーデンギャラリー","lat":35.6646,"lon":139.741,"state":"active","id":null},{"event_id":"349179","title":"【1080円】本気のコミュニケーションをしたい方必見！","url":"http://peatix.com/event/349179","shortener_url":null,"started_at":"2018-04-01T10:30:00.000+09:00","ended_at":"2018-04-03T23:59:59.000+09:00","limit_number":null,"address":"東京都港区西麻布2-26-4HOWA西麻布204","place":"ダイアネティックスセンター赤坂","lat":35.66,"lon":139.72,"state":"active","id":null},{"event_id":"366735","title":"【自由が丘店開催】中川たまさんの季節の手仕事・いちごのジャム作り　ワークショップ","url":"http://j-jam-20180411.peatix.com","shortener_url":null,"started_at":"2018-04-11T11:30:00.000+09:00","ended_at":"2018-04-13T23:59:59.000+09:00","limit_number":null,"address":"東京都目黒区自由が丘2-17-8","place":"TODAY'S SPECIAL","lat":35.6098,"lon":139.667,"state":"active","id":null},{"event_id":"367278","title":"「シナリオランド」オフラインイベント　わらしべ長者なクリエイティブ（筧昌也）","url":"http://peatix.com/event/367278","shortener_url":null,"started_at":"2018-04-21T14:00:00.000+09:00","ended_at":"2018-04-23T23:59:59.000+09:00","limit_number":null,"address":"東京都豊島区東池袋4-5-2 ライズアリーナビル2F・3F","place":"あうるすぽっと（3F：会議室B2）","lat":0.0,"lon":0.0,"state":"active","id":null},{"event_id":"367834","title":"【YeLL/幸せに働く技術】部下のやる気と業績が両立する1on1　ゲスト：平本あきおさん","url":"http://happinessatwork002.peatix.com","shortener_url":null,"started_at":"2018-04-17T19:30:00.000+09:00","ended_at":"2018-04-19T23:59:59.000+09:00","limit_number":null,"address":"東京都港区港南1-8-35","place":"KOKUYO東京ショールーム５F「スタジオ」","lat":35.6303,"lon":139.743,"state":"active","id":null},{"event_id":"367653","title":"クローズアップ　ロジスティクス　by souco　＃2　「グローカルなロジスティクスと人生」","url":"http://peatix.com/event/367653","shortener_url":null,"started_at":"2018-04-18T19:30:00.000+09:00","ended_at":"2018-04-20T23:59:59.000+09:00","limit_number":null,"address":"千代田区麹町1-4-4 LIFULL HUB2階","place":"LIFULL HUB","lat":35.6844,"lon":139.743,"state":"active","id":null},{"event_id":"347168","title":"Urinetown","url":"http://urinetown.peatix.com","shortener_url":null,"started_at":"2018-04-18T21:00:00.000+09:00","ended_at":"2018-04-20T23:59:59.000+09:00","limit_number":null,"address":"1 McNally St, Singapore 187940","place":"The Singapore Airlines Theatre","lat":0.0,"lon":0.0,"state":"active","id":null},{"event_id":"83513","title":"AITCシニア技術者勉強会 「一からはじめるIoT ３周目」第4回 Raspberry Pi 応用編","url":"https://aitc-senior.connpass.com/event/83513/","shortener_url":null,"started_at":"2018-04-21T05:00:00.000+09:00","ended_at":"2018-04-21T09:00:00.000+09:00","limit_number":25,"address":"東京都中央区晴海1-8-10（晴海アイランド トリトンスクエア オフィスタワーＸ 14階）","place":"ウルシステムズ株式会社　会議室","lat":35.6564,"lon":139.782,"state":"active","id":null},{"event_id":"83266","title":"Alexa対応電子レンジを作る会【ハッカソン】","url":"https://iotlab.connpass.com/event/83266/","shortener_url":"https://goo.gl/UoVuWo","started_at":"2018-04-01T09:00:00.000+09:00","ended_at":"2018-04-01T18:00:00.000+09:00","limit_number":8,"address":"東京都大田区大森北4-16-4","place":"エセナおおた","lat":35.5834,"lon":139.727,"state":"active","id":null},{"event_id":"83477","title":"スクラム道関西 第102回定例会(オープン・ジャム)","url":"https://scrumdo-kansai.connpass.com/event/83477/","shortener_url":null,"started_at":"2018-04-04T10:00:00.000+09:00","ended_at":"2018-04-04T12:00:00.000+09:00","limit_number":20,"address":"大阪府大阪市北区末広町3-7","place":"TAM COWORKING OSAKA","lat":34.7019,"lon":135.51,"state":"active","id":null},{"event_id":"83322","title":"［リモート］Good Action受賞 #NulabGeneralMeeting 中継\u0026人事施策共有","url":"https://nulab.connpass.com/event/83322/","shortener_url":null,"started_at":"2018-04-17T02:30:00.000+09:00","ended_at":"2018-04-17T03:30:00.000+09:00","limit_number":8,"address":"","place":"オンライン実施","lat":null,"lon":null,"state":"active","id":null},{"event_id":"83025","title":"農業AIアイディアソン#2","url":"https://tfug-tokyo.connpass.com/event/83025/","shortener_url":"https://goo.gl/BjxTtK","started_at":"2018-04-18T10:00:00.000+09:00","ended_at":"2018-04-18T13:30:00.000+09:00","limit_number":60,"address":"〒106-6126 東京都港区六本木 6-10-1(六本木ヒルズ森タワー)","place":"Google東京オフィス","lat":35.6604,"lon":139.729,"state":"active","id":null},{"event_id":"83369","title":"第5回 PCNひろしま こども向けプログラミング教室","url":"https://pcn-hiroshima.connpass.com/event/83369/","shortener_url":null,"started_at":"2018-04-15T01:00:00.000+09:00","ended_at":"2018-04-15T03:30:00.000+09:00","limit_number":16,"address":"広島県広島市南区京橋町1−7(広島京橋ビルディング)","place":"fabbit広島駅前","lat":34.3946,"lon":132.473,"state":"active","id":null},{"event_id":"83326","title":"Silicon Valley Talk Show \u0026 Networking Party 4/2(月)","url":"https://teamai.connpass.com/event/83326/","shortener_url":null,"started_at":"2018-04-02T19:00:00.000+09:00","ended_at":"2018-04-02T21:30:00.000+09:00","limit_number":5,"address":"東京都渋谷区渋谷1丁目8 (TOC第１ビル3階)","place":"みんなの会議室2-1　渋谷宮益坂","lat":35.6618,"lon":139.696,"state":"active","id":null},{"event_id":"83264","title":"子ども向けプログラミングクラブ コーダー道場甲府#10","url":"https://coderdojokofu.connpass.com/event/83264/","shortener_url":null,"started_at":"2018-04-22T03:20:00.000+09:00","ended_at":"2018-04-22T05:40:00.000+09:00","limit_number":15,"address":"山梨県甲府市北口２丁目８番１号","place":"山梨県立図書館","lat":35.6685,"lon":138.57,"state":"active","id":null},{"event_id":"83217","title":"(管理者枠)ハードウェア勉強会【ハッカソンプレイベント】","url":"https://osakarubydev.connpass.com/event/83217/","shortener_url":"https://goo.gl/Ce3yeH","started_at":"2018-04-15T13:00:00.000+09:00","ended_at":"2018-04-15T18:00:00.000+09:00","limit_number":5,"address":"大阪市浪速区日本橋5-8-26","place":"シリコンハウス 3F　ものづくり工作室","lat":34.6581,"lon":135.506,"state":"active","id":null},{"event_id":"83196","title":"未来の自動車技術から考える未来都市アイデアソン~Social × CarTech IDEATHON","url":"https://future-tech-association.connpass.com/event/83196/","shortener_url":"https://goo.gl/wbckX7","started_at":"2018-04-19T10:00:00.000+09:00","ended_at":"2018-04-19T13:00:00.000+09:00","limit_number":16,"address":"東京都中央区日本橋室町1−5−3 福島ビル3F","place":"株式会社オフィスバスターズ","lat":35.6858,"lon":139.774,"state":"active","id":null},{"event_id":"367390","title":"未来の自動車技術から考える未来都市アイデアソン~Social × CarTech IDEATHON","url":"http://peatix.com/event/367390","shortener_url":"https://goo.gl/ZTdwFH","started_at":"2018-04-19T19:00:00.000+09:00","ended_at":"2018-04-21T23:59:59.000+09:00","limit_number":null,"address":"渋谷区 渋谷2-22-6 10F","place":"POINT EDGE ShibuyaBASE","lat":35.6585,"lon":139.704,"state":"active","id":null},{"event_id":"367798","title":"＜スイーツ好き集まれ！＞苺ジャムを作って❌贅沢スコーンを焼いて、頬張ります！","url":"http://peatix.com/event/367798","shortener_url":null,"started_at":"2018-04-08T14:00:00.000+09:00","ended_at":"2018-04-10T23:59:59.000+09:00","limit_number":null,"address":"明治神宮前駅 ※ 正確な住所は予約が承認されるとマイページに表示されます","place":"博士さんの食卓","lat":0.0,"lon":0.0,"state":"active","id":null},{"event_id":"362342","title":"TRUNK(HOTEL) presents NIGHT OFF JAZZ akiko×小沼ようすけ","url":"http://peatix.com/event/362342","shortener_url":null,"started_at":"2018-04-19T18:30:00.000+09:00","ended_at":"2018-04-21T23:59:59.000+09:00","limit_number":null,"address":"渋谷区神宮前5丁目31","place":"TRUNK (HOTEL)","lat":35.6642,"lon":139.704,"state":"active","id":null},{"event_id":"364469","title":"New Jack vol.11〜4 floor circuit〜","url":"http://newjack429.peatix.com","shortener_url":null,"started_at":"2018-04-29T21:00:00.000+09:00","ended_at":"2018-05-01T23:59:59.000+09:00","limit_number":null,"address":"名古屋市 中区栄4丁目7−17 ユタカビル B1F","place":"Transit Studio -トランジットスタジオ-","lat":35.167,"lon":136.914,"state":"active","id":null},{"event_id":"367880","title":"はじめての炊飯！ぽんかす丼クッキング講座( YAMAP山ごはんフェス in 金時山)","url":"http://cook-rice.peatix.com","shortener_url":null,"started_at":"2018-04-14T15:00:00.000+09:00","ended_at":"2018-04-16T23:59:59.000+09:00","limit_number":null,"address":"静岡県御殿場市深沢2696-2","place":"乙女森林公園第2キャンプ場","lat":35.2872,"lon":138.972,"state":"active","id":null},{"event_id":"349181","title":"【1080円】流れを変え、結果を手にしたい方への秘訣","url":"http://peatix.com/event/349181","shortener_url":null,"started_at":"2018-04-01T10:30:00.000+09:00","ended_at":"2018-04-03T23:59:59.000+09:00","limit_number":null,"address":"東京都港区西麻布2-26-4HOWA西麻布204","place":"ダイアネティックスセンター赤坂","lat":35.66,"lon":139.72,"state":"active","id":null},{"event_id":"366434","title":"【無料】YouTuber ゆうこすさんのトークイベント「共感力を高めるセルフプロデュース」","url":"http://peatix.com/event/366434","shortener_url":null,"started_at":"2018-04-05T18:30:00.000+09:00","ended_at":"2018-04-07T23:59:59.000+09:00","limit_number":null,"address":"港区南青山3丁目18−19 フェスタ表参道ビルB1","place":"表参道WALL\u0026WALL","lat":35.6652,"lon":139.713,"state":"active","id":null},{"event_id":"349178","title":"【1080円】忙しすぎの管理職＆リーダーへ！　効果的なチーム作り、ビジネス＆組織力UPのために","url":"http://peatix.com/event/349178","shortener_url":null,"started_at":"2018-04-01T10:30:00.000+09:00","ended_at":"2018-04-03T23:59:59.000+09:00","limit_number":null,"address":"東京都港区西麻布2-26-4HOWA西麻布204","place":"ダイアネティックスセンター赤坂","lat":35.66,"lon":139.72,"state":"active","id":null},{"event_id":"367131","title":"アニメ好きの街コン「アニコンin静岡」2018年4月21日(土) 15:00-17:30","url":"http://peatix.com/event/367131","shortener_url":null,"started_at":"2018-04-21T15:00:00.000+09:00","ended_at":"2018-04-23T23:59:59.000+09:00","limit_number":null,"address":"静岡市葵区 御幸町8-3 パレスV 1階","place":"目利きの銀次 静岡北口駅前店","lat":34.9732,"lon":138.387,"state":"active","id":null},{"event_id":"367760","title":"【4/8(日)関西】大お花見パーティー！　in鴨川！　京都も春も天狼院も、味わいつくそう！《初参加大歓迎》","url":"http://peatix.com/event/367760","shortener_url":null,"started_at":"2018-04-08T10:00:00.000+09:00","ended_at":"2018-04-10T23:59:59.000+09:00","limit_number":null,"address":"京都府京都市東山区博多町112-5","place":"京都天狼院書店","lat":35.0017,"lon":135.773,"state":"active","id":null},{"event_id":"366780","title":"「30代限定コンin船橋」2018年4月22日(日) 14:30-17:00","url":"http://peatix.com/event/366780","shortener_url":null,"started_at":"2018-04-22T14:30:00.000+09:00","ended_at":"2018-04-24T23:59:59.000+09:00","limit_number":null,"address":"船橋市本町4丁目41−25","place":"鶏のジョージ 船橋南口駅前店","lat":35.699,"lon":139.986,"state":"active","id":null},{"event_id":"367036","title":"「アラサーコンinつくば」2018年4月28日(土) 19:30-22:00","url":"http://peatix.com/event/367036","shortener_url":null,"started_at":"2018-04-28T19:30:00.000+09:00","ended_at":"2018-04-30T23:59:59.000+09:00","limit_number":null,"address":"つくば市吾妻1丁目6−1","place":"月の宴 つくばクレオスクエアＭＯＧ店","lat":36.0814,"lon":140.111,"state":"active","id":null},{"event_id":"367170","title":"「安定男子コンin酒田」2018年4月22日(日) 14:00-16:30","url":"http://peatix.com/event/367170","shortener_url":null,"started_at":"2018-04-22T14:00:00.000+09:00","ended_at":"2018-04-24T23:59:59.000+09:00","limit_number":null,"address":"酒田市幸町 2−1−12 ホテル・アルファーワン酒田 1階","place":"魚民 酒田駅前店","lat":38.9227,"lon":139.845,"state":"active","id":null},{"event_id":"366824","title":"25歳から35歳限定「アラサーコンin青森」2018年4月21日(土) 19:00-21:30","url":"http://peatix.com/event/366824","shortener_url":null,"started_at":"2018-04-21T19:00:00.000+09:00","ended_at":"2018-04-23T23:59:59.000+09:00","limit_number":null,"address":"青森県青森市新町1-1-18 青森マルサビル 1F","place":"魚民　青森駅前店","lat":40.8281,"lon":140.736,"state":"active","id":null},{"event_id":"366956","title":"「30代限定コンin弘前」2018年4月21日(土) 19:00-21:30","url":"http://peatix.com/event/366956","shortener_url":null,"started_at":"2018-04-21T19:00:00.000+09:00","ended_at":"2018-04-23T23:59:59.000+09:00","limit_number":null,"address":"弘前市駅前町7−5","place":"笑笑 弘前駅前店","lat":40.5982,"lon":140.482,"state":"active","id":null},{"event_id":"367144","title":"「社会人男子コンin弘前」2018年4月22日(日) 14:00-16:30","url":"http://peatix.com/event/367144","shortener_url":null,"started_at":"2018-04-22T14:00:00.000+09:00","ended_at":"2018-04-24T23:59:59.000+09:00","limit_number":null,"address":"弘前市駅前町7−5","place":"笑笑 弘前駅前店","lat":0.0,"lon":0.0,"state":"active","id":null},{"event_id":"367035","title":"ノンスモーカー限定「社会人男子コンin水戸」2018年4月30日(月・祝) 15:00-17:30","url":"http://peatix.com/event/367035","shortener_url":null,"started_at":"2018-04-30T15:00:00.000+09:00","ended_at":"2018-05-02T23:59:59.000+09:00","limit_number":null,"address":"茨城県水戸市宮町1-7-31 エクセルみなみ6F","place":"パパゲーノ水戸","lat":36.3701,"lon":140.477,"state":"active","id":null},{"event_id":"366962","title":"ノンスモーカー限定「社会人男子コンin鶴岡」2018年4月21日(土) 19:30-22:00","url":"http://peatix.com/event/366962","shortener_url":null,"started_at":"2018-04-21T19:30:00.000+09:00","ended_at":"2018-04-23T23:59:59.000+09:00","limit_number":null,"address":"山形県鶴岡市末広町2-41 YS鶴岡駅前ビル 1F","place":"千年の宴　鶴岡駅前店","lat":38.7397,"lon":139.838,"state":"active","id":null},{"event_id":"366813","title":"アニメ好きの街コン「アニコンin金沢」2018年4月22日(日) 15:00-17:30","url":"http://peatix.com/event/366813","shortener_url":null,"started_at":"2018-04-22T15:00:00.000+09:00","ended_at":"2018-04-24T23:59:59.000+09:00","limit_number":null,"address":"石川県金沢市香林坊1‐1‐1 香林坊大和8F","place":"ブッフェレストラン「ザ・ダイニング　」","lat":36.563,"lon":136.654,"state":"active","id":null},{"event_id":"367032","title":"男女20代限定「社会人男子コンin水戸」2018年4月28日(土) 19:00-21:30","url":"http://peatix.com/event/367032","shortener_url":null,"started_at":"2018-04-28T19:00:00.000+09:00","ended_at":"2018-04-30T23:59:59.000+09:00","limit_number":null,"address":"茨城県水戸市宮町1-7-31 エクセルみなみ6F","place":"パパゲーノ水戸","lat":36.3701,"lon":140.477,"state":"active","id":null},{"event_id":"367037","title":"男女20代限定「社会人男子コンinつくば」2018年4月29日(日) 19:30-22:00","url":"http://peatix.com/event/367037","shortener_url":null,"started_at":"2018-04-29T19:30:00.000+09:00","ended_at":"2018-05-01T23:59:59.000+09:00","limit_number":null,"address":"茨城県つくば市吾妻1-5-3","place":"月の宴　つくばクレオスクエアＭＯＧ店","lat":36.0815,"lon":140.111,"state":"active","id":null},{"event_id":"366786","title":"「公務員or国家資格男子コンin鶴岡」2018年4月14日(土) 19:30-22:00","url":"http://peatix.com/event/366786","shortener_url":null,"started_at":"2018-04-14T19:30:00.000+09:00","ended_at":"2018-04-16T23:59:59.000+09:00","limit_number":null,"address":"鶴岡市末広町2-41 YS鶴岡駅前ビル 1階","place":"千年の宴 鶴岡駅前店","lat":38.7397,"lon":139.838,"state":"active","id":null},{"event_id":"366971","title":"25歳から35歳限定「アラサーコンin盛岡」2018年4月21日(土) 19:00-21:30","url":"http://peatix.com/event/366971","shortener_url":null,"started_at":"2018-04-21T19:00:00.000+09:00","ended_at":"2018-04-23T23:59:59.000+09:00","limit_number":null,"address":"盛岡市菜園2-4-23 バーセル菜園 5F","place":"琥haku （コハク）","lat":39.7019,"lon":141.147,"state":"active","id":null},{"event_id":"367038","title":"「30代限定コンinつくば」2018年4月30日(月・祝) 14:00-16:30","url":"http://peatix.com/event/367038","shortener_url":null,"started_at":"2018-04-30T14:00:00.000+09:00","ended_at":"2018-05-02T23:59:59.000+09:00","limit_number":null,"address":"つくば市吾妻1丁目6−1","place":"月の宴 つくばクレオスクエアＭＯＧ店","lat":36.0814,"lon":140.111,"state":"active","id":null},{"event_id":"367184","title":"「公務員or国家資格男子コンin盛岡」2018年4月22日(日) 14:00-16:30","url":"http://peatix.com/event/367184","shortener_url":null,"started_at":"2018-04-22T14:00:00.000+09:00","ended_at":"2018-04-24T23:59:59.000+09:00","limit_number":null,"address":"盛岡市菜園2-4-23 バーセル菜園 5F","place":"琥haku （コハク）","lat":39.7019,"lon":141.147,"state":"active","id":null},{"event_id":"367034","title":"「30代限定コンin水戸」2018年4月29日(日) 19:00-21:30","url":"http://peatix.com/event/367034","shortener_url":null,"started_at":"2018-04-29T19:00:00.000+09:00","ended_at":"2018-05-01T23:59:59.000+09:00","limit_number":null,"address":"茨城県水戸市宮町1-7-31 エクセルみなみ6F","place":"イタリアンバイキング「パパゲーノ水戸」","lat":36.3701,"lon":140.477,"state":"active","id":null},{"event_id":"356520","title":"Cherry Blossom Boat Cruise Party!!","url":"http://peatix.com/event/356520","shortener_url":null,"started_at":"2018-04-07T17:30:00.000+09:00","ended_at":"2018-04-09T23:59:59.000+09:00","limit_number":null,"address":"MINATOMACHI DOCKS, NAMBA","place":"MINATOMACHI DOCKS, NAMBA","lat":0.0,"lon":0.0,"state":"active","id":null},{"event_id":"366344","title":"CRACKHOUSE CARNIVAL PRESENTS: AiiA Improv Jam! An Improv Comedy Workshop!","url":"http://crackhousecarnival4improvjam.peatix.com","shortener_url":null,"started_at":"2018-04-24T22:00:00.000+09:00","ended_at":"2018-04-26T23:59:59.000+09:00","limit_number":null,"address":"24, Lorong Rahim Kajai 14, Taman Tun Dr Ismail, 60000 Kuala Lumpur, Wilayah Persekutuan Kuala Lumpur, Malaysia","place":"The Crackhouse Comedy Club KL","lat":3.15481,"lon":101.623,"state":"active","id":null},{"event_id":"366355","title":"CRACKHOUSE CARNIVAL PRESENTS: \"Halal-Lujah\" with Rizal van Geyzel feat. Papi Zak","url":"http://crackhousecarnival4joannekam.peatix.com","shortener_url":null,"started_at":"2018-04-28T23:00:00.000+09:00","ended_at":"2018-04-30T23:59:59.000+09:00","limit_number":null,"address":"24, Lorong Rahim Kajai 14, Taman Tun Dr Ismail, 60000 Kuala Lumpur, Wilayah Persekutuan Kuala Lumpur, Malaysia","place":"The Crackhouse Comedy Club KL","lat":3.15481,"lon":101.623,"state":"active","id":null},{"event_id":"366348","title":"CRACKHOUSE CARNIVAL PRESENTS: Douglas Lim feat. Gajen Nad","url":"http://crackhousecarnival4douglaslim.peatix.com","shortener_url":null,"started_at":"2018-04-26T22:00:00.000+09:00","ended_at":"2018-04-28T23:59:59.000+09:00","limit_number":null,"address":"24, Lorong Rahim Kajai 14, Taman Tun Dr Ismail, 60000 Kuala Lumpur, Wilayah Persekutuan Kuala Lumpur, Malaysia","place":"The Crackhouse Comedy Club KL","lat":3.15481,"lon":101.623,"state":"active","id":null},{"event_id":"366444","title":"CRACKHOUSE CARNIVAL PRESENTS: Best of Malaysia","url":"http://peatix.com/event/366444","shortener_url":null,"started_at":"2018-04-30T22:00:00.000+09:00","ended_at":"2018-05-02T23:59:59.000+09:00","limit_number":null,"address":"24, Lorong Rahim Kajai 14, Taman Tun Dr Ismail, 60000 Kuala Lumpur, Wilayah Persekutuan Kuala Lumpur, Malaysia","place":"The Crackhouse Comedy Club KL","lat":3.15481,"lon":101.623,"state":"active","id":null},{"event_id":"366443","title":"CRACKHOUSE CARNIVAL PRESENTS: All Star Hack The Crack!","url":"http://crackhousecarnival4allstarhacks.peatix.com","shortener_url":null,"started_at":"2018-04-29T20:00:00.000+09:00","ended_at":"2018-05-01T23:59:59.000+09:00","limit_number":null,"address":"24, Lorong Rahim Kajai 14, Taman Tun Dr Ismail, 60000 Kuala Lumpur, Wilayah Persekutuan Kuala Lumpur, Malaysia","place":"The Crackhouse Comedy Club KL","lat":3.15481,"lon":101.623,"state":"active","id":null},{"event_id":"366354","title":"CRACKHOUSE CARNIVAL PRESENTS: Malaysia VS Singapore Improv Battle! (w/ AiiA \u0026 The Latecomers)","url":"http://crackhousecarnival4improvbattle.peatix.com","shortener_url":null,"started_at":"2018-04-27T22:00:00.000+09:00","ended_at":"2018-04-29T23:59:59.000+09:00","limit_number":null,"address":"24, Lorong Rahim Kajai 14, Taman Tun Dr Ismail, 60000 Kuala Lumpur, Wilayah Persekutuan Kuala Lumpur, Malaysia","place":"The Crackhouse Comedy Club KL","lat":3.15481,"lon":101.623,"state":"active","id":null},{"event_id":"366440","title":"CRACKHOUSE CARNIVAL PRESENTS: Manila Mayhem! Best of Manila Comedy!","url":"http://crackhousecarnival4manilamayhem.peatix.com","shortener_url":null,"started_at":"2018-04-28T20:00:00.000+09:00","ended_at":"2018-04-30T23:59:59.000+09:00","limit_number":null,"address":"24, Lorong Rahim Kajai 14, Taman Tun Dr Ismail, 60000 Kuala Lumpur, Wilayah Persekutuan Kuala Lumpur, Malaysia","place":"The Crackhouse Comedy Club KL","lat":3.15481,"lon":101.623,"state":"active","id":null},{"event_id":"366346","title":"CRACKHOUSE CARNIVAL PRESENTS: The Real Kings of Komedi! Make Bahahasa Funny Again!","url":"http://crackhousecarnival4rojak.peatix.com","shortener_url":null,"started_at":"2018-04-25T22:00:00.000+09:00","ended_at":"2018-04-27T23:59:59.000+09:00","limit_number":null,"address":"24, Lorong Rahim Kajai 14, Taman Tun Dr Ismail, 60000 Kuala Lumpur, Wilayah Persekutuan Kuala Lumpur, Malaysia","place":"The Crackhouse Comedy Club KL","lat":3.15481,"lon":101.623,"state":"active","id":null},{"event_id":"366341","title":"CRACKHOUSE CARNIVAL PRESENTS: Comedy Death Race! 30 Comedians!","url":"http://crackhousedeathrace.peatix.com","shortener_url":null,"started_at":"2018-04-23T22:00:00.000+09:00","ended_at":"2018-04-25T23:59:59.000+09:00","limit_number":null,"address":"24, Lorong Rahim Kajai 14, Taman Tun Dr Ismail, 60000 Kuala Lumpur, Wilayah Persekutuan Kuala Lumpur, Malaysia","place":"The Crackhouse Comedy Club KL","lat":3.15481,"lon":101.623,"state":"active","id":null},{"event_id":"366358","title":"CRACKHOUSE CARNIVAL PRESENTS: Peter Berner (AUS) feat. Brian Tan","url":"http://crackhousecarnival4peteberner.peatix.com","shortener_url":null,"started_at":"2018-04-29T23:00:00.000+09:00","ended_at":"2018-05-01T23:59:59.000+09:00","limit_number":null,"address":"24, Lorong Rahim Kajai 14, Taman Tun Dr Ismail, 60000 Kuala Lumpur, Wilayah Persekutuan Kuala Lumpur, Malaysia","place":"The Crackhouse Comedy Club KL","lat":3.15481,"lon":101.623,"state":"active","id":null},{"event_id":"366442","title":"CRACKHOUSE CARNIVAL PRESENTS: 5 Comedians @ 5 O'Clock (SUN 29/4)","url":"http://crackhousecarnival4comediansat5oclocksunday.peatix.com","shortener_url":null,"started_at":"2018-04-29T18:00:00.000+09:00","ended_at":"2018-05-01T23:59:59.000+09:00","limit_number":null,"address":"24, Lorong Rahim Kajai 14, Taman Tun Dr Ismail, 60000 Kuala Lumpur, Wilayah Persekutuan Kuala Lumpur, Malaysia","place":"The Crackhouse Comedy Club KL","lat":3.15481,"lon":101.623,"state":"active","id":null},{"event_id":"366435","title":"CRACKHOUSE CARNIVAL PRESENTS: 5 Comedians @ 5 O'Clock (SAT 28/4)","url":"http://crackhousecarnival4comediansat5oclocksaturday.peatix.com","shortener_url":null,"started_at":"2018-04-28T18:00:00.000+09:00","ended_at":"2018-04-30T23:59:59.000+09:00","limit_number":null,"address":"24, Lorong Rahim Kajai 14, Taman Tun Dr Ismail, 60000 Kuala Lumpur, Wilayah Persekutuan Kuala Lumpur, Malaysia","place":"The Crackhouse Comedy Club KL","lat":3.15481,"lon":101.623,"state":"active","id":null},{"event_id":"368885","title":"素材を味わうお線香作り 〜五味で表現する和の香り〜","url":"http://peatix.com/event/368885","shortener_url":null,"started_at":"2018-04-18T19:00:00.000+09:00","ended_at":"2018-04-20T23:59:59.000+09:00","limit_number":null,"address":"東京都豊島区長崎1-9-2","place":"金剛院 蓮華堂B1","lat":35.7272,"lon":139.696,"state":"active","id":null},{"event_id":"368848","title":"結ぶ、繋がる、水引づくり","url":"http://peatix.com/event/368848","shortener_url":null,"started_at":"2018-04-09T19:00:00.000+09:00","ended_at":"2018-04-11T23:59:59.000+09:00","limit_number":null,"address":"東京都豊島区長崎1-9-2","place":"金剛院 蓮華堂B1","lat":35.7272,"lon":139.696,"state":"active","id":null},{"event_id":"368360","title":"【限定16席】in東京 【沖縄子ども食堂チャリティイベント4/28】","url":"http://okimani098events4.peatix.com","shortener_url":null,"started_at":"2018-04-28T20:00:00.000+09:00","ended_at":"2018-04-30T23:59:59.000+09:00","limit_number":null,"address":"東京都江東区扇橋2-12-5","place":"沖縄居酒屋「ちゃ〜がんじゅ〜」","lat":35.6838,"lon":139.816,"state":"active","id":null},{"event_id":"368484","title":"Emerald Hill Walking Tour","url":"http://emhill140418.peatix.com","shortener_url":null,"started_at":"2018-04-14T10:30:00.000+09:00","ended_at":"2018-04-16T23:59:59.000+09:00","limit_number":null,"address":"Emerald Hill Road","place":"Emerald Hill Singapore","lat":1.30373,"lon":103.84,"state":"active","id":null},{"event_id":"368503","title":"【秘めフォト部関西 4/20(金)】自分史上最高にSEXYな1枚を撮る「秘めフォト部」！新しく「SEXY」な自分を見つけて明日に自信を持つための女性限定フォトサービス！《女性限定／10名様限定／初めての方大歓迎》","url":"http://peatix.com/event/368503","shortener_url":null,"started_at":"2018-04-20T19:30:00.000+09:00","ended_at":"2018-04-22T23:59:59.000+09:00","limit_number":null,"address":"京都府京都市東山区博多町112−5","place":"京都天狼院","lat":35.0017,"lon":135.773,"state":"active","id":null},{"event_id":"367919","title":"実務で必要とされる知識、スキルを厳選！　Word/Excel/PowerPoint　5時間集中実務講座（入門/初級/中級）4月講座一覧","url":"http://peatix.com/event/367919","shortener_url":null,"started_at":"2018-04-06T11:00:00.000+09:00","ended_at":"2018-04-08T23:59:59.000+09:00","limit_number":null,"address":"東京都千代田区大手町2-6-2","place":"東京・大手町　JOB HUB SQUARE（パソナグループ本部ビル）","lat":35.685,"lon":139.769,"state":"active","id":null},{"event_id":"360716","title":"We Love Jazz SG celebrates International Jazz Day 2018!","url":"http://wljsgijd2018.peatix.com","shortener_url":null,"started_at":"2018-04-29T17:00:00.000+09:00","ended_at":"2018-05-01T23:59:59.000+09:00","limit_number":null,"address":"11 Upper Wilkie Road","place":"kult kafé","lat":1.30308,"lon":103.848,"state":"active","id":null},{"event_id":"83758","title":"[秋葉原] 第18回 ゆるふわIoT電子工作入門","url":"https://weeyble-iot.connpass.com/event/83758/","shortener_url":null,"started_at":"2018-04-08T13:00:00.000+09:00","ended_at":"2018-04-08T18:00:00.000+09:00","limit_number":10,"address":"東京都千代田区神田須田町２丁目１９−２３ (野村第３ビル ４階)","place":"コワーキングスペース秋葉原Weeyble","lat":35.6966,"lon":139.772,"state":"active","id":null},{"event_id":"81644","title":"ヽ(*ﾟдﾟ)ノ20代エンジニア限定 日ガジェ研IoTハンズオンrev.2","url":"https://dgl.connpass.com/event/81644/","shortener_url":null,"started_at":"2018-04-14T12:00:00.000+09:00","ended_at":"2018-04-14T18:00:00.000+09:00","limit_number":5,"address":"東京都千代田区紀尾井町1-3 (東京ガーデンテラス紀尾井町18F)","place":"ヤフー株式会社 LODGE","lat":35.68,"lon":139.737,"state":"active","id":null},{"event_id":"83792","title":"RCC花見!!! [4/2]","url":"https://connpass.com/event/83792/","shortener_url":null,"started_at":"2018-04-02T12:00:00.000+09:00","ended_at":"2018-04-02T20:00:00.000+09:00","limit_number":null,"address":"滋賀県草津市野路東1丁目1-1","place":"立命館大学びわこくさつキャンパス","lat":34.9822,"lon":135.965,"state":"active","id":null},{"event_id":"83303","title":"GeoDev Meetup #14 - 地図データ（位置情報、地理情報）可視化・アプリ作成もくもく会","url":"https://geodev.connpass.com/event/83303/","shortener_url":null,"started_at":"2018-04-12T19:00:00.000+09:00","ended_at":"2018-04-12T21:00:00.000+09:00","limit_number":18,"address":"東京都千代田区平河町2-7-1（塩崎ビル）","place":"ESRIジャパン（株）5Fセミナールーム","lat":35.6792,"lon":139.741,"state":"active","id":null},{"event_id":"83204","title":"熊DAY#002","url":"https://kumamcn.connpass.com/event/83204/","shortener_url":null,"started_at":"2018-04-28T01:00:00.000+09:00","ended_at":"2018-04-28T08:00:00.000+09:00","limit_number":20,"address":"","place":"白川河川敷","lat":null,"lon":null,"state":"active","id":null},{"event_id":"83249","title":"Women Techmakers in Kansai - IWD18","url":"https://wtmkyoto.connpass.com/event/83249/","shortener_url":null,"started_at":"2018-04-15T13:00:00.000+09:00","ended_at":"2018-04-15T18:00:00.000+09:00","limit_number":25,"address":"","place":"エムオーテックス株式会社","lat":34.6912,"lon":135.509,"state":"active","id":null},{"event_id":"82513","title":"【SmartHR × プレイド】プロダクトカイゼンNight","url":"https://plaidtech.connpass.com/event/82513/","shortener_url":null,"started_at":"2018-04-19T19:30:00.000+09:00","ended_at":"2018-04-19T22:00:00.000+09:00","limit_number":63,"address":"東京都 千代田区 麹町2-1 ( PMO半蔵門 9F )","place":"株式会社SmartHR","lat":35.6842,"lon":139.737,"state":"active","id":null},{"event_id":"83604","title":"Sota講習会 【Vstone Magicを始めよう】 Part 3（有料）","url":"https://sota.connpass.com/event/83604/","shortener_url":null,"started_at":"2018-04-25T13:00:00.000+09:00","ended_at":"2018-04-25T13:50:00.000+09:00","limit_number":4,"address":"東京都千代田区外神田1-9-9 内田ビル4F","place":"ヴイストン ロボットセンター秋葉原店","lat":35.6987,"lon":139.77,"state":"active","id":null},{"event_id":"83586","title":"Sota講習会 【Vstone Magicを始めよう】 Part 3（有料）","url":"https://sota.connpass.com/event/83586/","shortener_url":null,"started_at":"2018-04-22T14:00:00.000+09:00","ended_at":"2018-04-22T14:50:00.000+09:00","limit_number":4,"address":"東京都千代田区外神田1-9-9 内田ビル4F","place":"ヴイストン ロボットセンター秋葉原店","lat":35.6987,"lon":139.77,"state":"active","id":null},{"event_id":"72655","title":"Startup Weekend Osaka＠立命館","url":"https://swosaka.doorkeeper.jp/events/72655","shortener_url":null,"started_at":"2018-04-27T18:30:00.000+09:00","ended_at":"2018-04-29T22:00:00.000+09:00","limit_number":50,"address":"大阪府茨木市 岩倉町2-150","place":"立命館いばらきフューチャープラザ　1階イベントホール","lat":34.8097,"lon":135.563,"state":"active","id":null},{"event_id":"368188","title":"H³ 第十二回：ライフサイエンス業界のリアル","url":"http://hhh12.peatix.com","shortener_url":"https://goo.gl/mPh2Hd","started_at":"2018-04-22T13:00:00.000+09:00","ended_at":"2018-04-24T23:59:59.000+09:00","limit_number":null,"address":"東京都中央区日本橋本町2-3-11","place":" 日本橋ライフサイエンスビル","lat":35.6877,"lon":139.776,"state":"active","id":null},{"event_id":"349180","title":"【1080円】結婚してる人も、これからの人も…知っておこう","url":"http://peatix.com/event/349180","shortener_url":null,"started_at":"2018-04-01T10:30:00.000+09:00","ended_at":"2018-04-03T23:59:59.000+09:00","limit_number":null,"address":"東京都港区西麻布2-26-4HOWA西麻布204","place":"ダイアネティックスセンター赤坂","lat":35.66,"lon":139.72,"state":"active","id":null},{"event_id":"349177","title":"【1080円】あなたの潜在能力を、どこへ向かって拡げるべきか？","url":"http://peatix.com/event/349177","shortener_url":null,"started_at":"2018-04-01T10:30:00.000+09:00","ended_at":"2018-04-03T23:59:59.000+09:00","limit_number":null,"address":"東京都港区西麻布2-26-4HOWA西麻布204","place":"ダイアネティックスセンター赤坂","lat":35.66,"lon":139.72,"state":"active","id":null},{"event_id":"349175","title":"【1080円】グループの中で自分らしく快活で過ごすために必ず知っておくべき法則","url":"http://peatix.com/event/349175","shortener_url":null,"started_at":"2018-04-01T10:30:00.000+09:00","ended_at":"2018-04-03T23:59:59.000+09:00","limit_number":null,"address":"東京都港区西麻布2-26-4HOWA西麻布204","place":"ダイアネティックスセンター赤坂","lat":35.66,"lon":139.72,"state":"active","id":null},{"event_id":"349176","title":"【1080円】社員教育・試験・プレゼンにも…うまく学ぶスキル\u0026相手にも学ばせるスキル","url":"http://peatix.com/event/349176","shortener_url":null,"started_at":"2018-04-01T10:30:00.000+09:00","ended_at":"2018-04-03T23:59:59.000+09:00","limit_number":null,"address":"東京都港区西麻布2-26-4HOWA西麻布204","place":"ダイアネティックスセンター赤坂","lat":35.66,"lon":139.72,"state":"active","id":null},{"event_id":"369107","title":"イデコに加入したら知っておきたいこと 〈寄り道ミニセミナー〉（飲み物付・参加費無料）","url":"http://tsumitate-plaza-yaesu0418l.peatix.com","shortener_url":null,"started_at":"2018-04-18T12:15:00.000+09:00","ended_at":"2018-04-20T23:59:59.000+09:00","limit_number":null,"address":"東京都中央区八重洲2-1","place":"つみたてプラザやえす(八重洲地下街北１号)","lat":35.6799,"lon":139.77,"state":"active","id":null},{"event_id":"369098","title":"イデコに加入したら知っておきたいこと 〈寄り道ミニセミナー〉（飲み物付・参加費無料）","url":"http://tsumitate-plaza-yaesu0418m.peatix.com","shortener_url":null,"started_at":"2018-04-18T07:30:00.000+09:00","ended_at":"2018-04-20T23:59:59.000+09:00","limit_number":null,"address":"東京都中央区八重洲2-1","place":"つみたてプラザやえす(八重洲地下街北１号)","lat":35.6799,"lon":139.77,"state":"active","id":null},{"event_id":"369110","title":"イデコに加入したら知っておきたいこと 〈寄り道ミニセミナー〉（飲み物付・参加費無料）","url":"http://tsumitate-plaza-yaesu0418d.peatix.com","shortener_url":null,"started_at":"2018-04-18T20:00:00.000+09:00","ended_at":"2018-04-20T23:59:59.000+09:00","limit_number":null,"address":"東京都中央区八重洲2-1","place":"つみたてプラザやえす(八重洲地下街北１号)","lat":35.6799,"lon":139.77,"state":"active","id":null},{"event_id":"369085","title":"イデコに加入したら知っておきたいこと 〈寄り道ミニセミナー〉（飲み物付・参加費無料）","url":"http://tsumitate-plaza-yaesu0412m.peatix.com","shortener_url":null,"started_at":"2018-04-12T07:30:00.000+09:00","ended_at":"2018-04-14T23:59:59.000+09:00","limit_number":null,"address":"東京都中央区八重洲2-1","place":"つみたてプラザやえす(八重洲地下街北１号)","lat":35.6799,"lon":139.77,"state":"active","id":null},{"event_id":"369100","title":"イデコに加入したら知っておきたいこと 〈寄り道ミニセミナー〉（飲み物付・参加費無料）","url":"http://tsumitate-plaza-yaesu0412l.peatix.com","shortener_url":null,"started_at":"2018-04-12T12:15:00.000+09:00","ended_at":"2018-04-14T23:59:59.000+09:00","limit_number":null,"address":"東京都中央区八重洲2-1","place":"つみたてプラザやえす(八重洲地下街北１号)","lat":35.6799,"lon":139.77,"state":"active","id":null},{"event_id":"368596","title":"「高収益住宅の立役者！」 タイニーハウスのパイオニア村井正さんと「エアロハウス」 〜多様なライフスタイル・民泊へ","url":"http://peatix.com/event/368596","shortener_url":null,"started_at":"2018-04-20T19:30:00.000+09:00","ended_at":"2018-04-22T23:59:59.000+09:00","limit_number":null,"address":"杉並区今川4丁目8−21","place":"konocafeコノカフェ","lat":35.7154,"lon":139.599,"state":"active","id":null},{"event_id":"368750","title":"「社会人男子コンin富山」2018年4月21日(土) 19:00-21:00","url":"http://peatix.com/event/368750","shortener_url":null,"started_at":"2018-04-21T19:00:00.000+09:00","ended_at":"2018-04-23T23:59:59.000+09:00","limit_number":null,"address":"富山市総曲輪3丁目8−番 6号大和富山店 6F","place":"ザ・ブッフェ 大和富山","lat":36.6894,"lon":137.213,"state":"active","id":null},{"event_id":"368723","title":"「社会人男子コンinいわき」2018年4月14日(土) 19:30-22:00","url":"http://peatix.com/event/368723","shortener_url":null,"started_at":"2018-04-14T19:30:00.000+09:00","ended_at":"2018-04-16T23:59:59.000+09:00","limit_number":null,"address":"いわき市平白銀町1−1","place":"魚民 いわき南口駅前店","lat":37.0571,"lon":140.893,"state":"active","id":null},{"event_id":"368735","title":"25歳から35歳限定「アラサーコンinいわき」2018年4月21日(土) 19:30-22:00","url":"http://peatix.com/event/368735","shortener_url":null,"started_at":"2018-04-21T19:30:00.000+09:00","ended_at":"2018-04-23T23:59:59.000+09:00","limit_number":null,"address":"いわき市平白銀町1−1","place":"魚民 いわき南口駅前店","lat":37.0571,"lon":140.893,"state":"active","id":null},{"event_id":"368951","title":"男女20代限定「社会人男子コンin郡山」2018年4月30(月・祝) 14:00-16:30","url":"http://peatix.com/event/368951","shortener_url":null,"started_at":"2018-04-30T14:00:00.000+09:00","ended_at":"2018-05-02T23:59:59.000+09:00","limit_number":null,"address":"郡山市駅前 7 3 2","place":"わらわら 郡山駅前店","lat":37.3984,"lon":140.387,"state":"active","id":null},{"event_id":"368937","title":"25歳から35歳限定「アラサーコンin郡山」2018年4月28日(土) 19:30-22:00","url":"http://peatix.com/event/368937","shortener_url":null,"started_at":"2018-04-28T19:30:00.000+09:00","ended_at":"2018-04-30T23:59:59.000+09:00","limit_number":null,"address":"福島県郡山市中町10−10","place":"魚民 郡山中町店","lat":37.398,"lon":140.384,"state":"active","id":null},{"event_id":"368535","title":"ノンスモーカー限定「アラサーパーティーinつくば」2018年4月8日(日) 14:00-16:30","url":"http://peatix.com/event/368535","shortener_url":null,"started_at":"2018-04-08T14:00:00.000+09:00","ended_at":"2018-04-10T23:59:59.000+09:00","limit_number":null,"address":"茨城県つくば市吾妻1-5-3","place":"月の宴　つくばクレオスクエアＭＯＧ店","lat":36.0815,"lon":140.111,"state":"active","id":null},{"event_id":"368965","title":"25歳から35歳限定「アラサーコンinいわき」2018年4月29日(日) 14:30-17:00","url":"http://peatix.com/event/368965","shortener_url":null,"started_at":"2018-04-29T14:30:00.000+09:00","ended_at":"2018-05-01T23:59:59.000+09:00","limit_number":null,"address":"いわき市 平字白銀町6-1 駅前セントラルビル 1F","place":"三代目 鳥メロ いわき駅前店","lat":37.0574,"lon":140.894,"state":"active","id":null},{"event_id":"368981","title":"「社会人男子コンinいわき」2018年4月30日(月・祝) 14:30-17:00","url":"http://peatix.com/event/368981","shortener_url":null,"started_at":"2018-04-30T14:30:00.000+09:00","ended_at":"2018-05-02T23:59:59.000+09:00","limit_number":null,"address":"福島県いわき市平字田町1-1 レストランビル3F","place":"居酒屋 「三代目」鳥メロ いわき駅前店","lat":37.057,"lon":140.893,"state":"active","id":null},{"event_id":"368943","title":"「社会人男子コンin郡山」2018年4月29(日) 19:30-22:00","url":"http://peatix.com/event/368943","shortener_url":null,"started_at":"2018-04-29T19:30:00.000+09:00","ended_at":"2018-05-01T23:59:59.000+09:00","limit_number":null,"address":"郡山市中町10−10","place":"魚民 郡山中町店","lat":37.398,"lon":140.384,"state":"active","id":null},{"event_id":"368287","title":"TOEIC(R) TEST対策｜キャリアアップに繋がる！TOEIC850点突破(3ヶ月コース)","url":"http://peatix.com/event/368287","shortener_url":null,"started_at":"2018-04-14T13:00:00.000+09:00","ended_at":"2018-04-16T23:59:59.000+09:00","limit_number":null,"address":"東京都千代田区大手町2-6-2","place":"JOB HUB SQUARE パソナグループ本部ビル（東京・大手町）　10階又は12階","lat":35.685,"lon":139.769,"state":"active","id":null},{"event_id":"83560","title":"Arduinoで始める電子工作＋MAもくもく会","url":"https://mashupawards.connpass.com/event/83560/","shortener_url":"https://goo.gl/NY8kVx","started_at":"2018-04-17T19:30:00.000+09:00","ended_at":"2018-04-17T21:30:00.000+09:00","limit_number":27,"address":"東京都千代田区神田小川町3−28−9","place":"TAMコワーキング","lat":35.6955,"lon":139.763,"state":"active","id":null},{"event_id":"366946","title":"TOKYO CANAL LINKS #6 - Tennoz on Stage-","url":"http://tcl6tour.peatix.com","shortener_url":null,"started_at":"2018-04-07T11:00:00.000+09:00","ended_at":"2018-04-09T23:59:59.000+09:00","limit_number":null,"address":"品川区東品川2丁目1","place":"TMMT","lat":35.622,"lon":139.748,"state":"active","id":null},{"event_id":"72772","title":"スタートアップの始め方（※SW名古屋プレイベント）","url":"https://swnagoya.doorkeeper.jp/events/72772","shortener_url":null,"started_at":"2018-04-21T13:00:00.000+09:00","ended_at":"2018-04-21T17:00:00.000+09:00","limit_number":50,"address":"愛知県名古屋市中村区名駅3丁目28−12","place":"KPMGあずさ監査法人 名古屋事務所（大名古屋ビルヂング）","lat":35.1721,"lon":136.885,"state":"active","id":null},{"event_id":"369410","title":"第21朝　オオサカ読書会　4/8朝開催！","url":"http://peatix.com/event/369410","shortener_url":null,"started_at":"2018-04-08T09:30:00.000+09:00","ended_at":"2018-04-10T23:59:59.000+09:00","limit_number":null,"address":"大阪市北区梅田","place":"大阪・梅田の喫茶店","lat":34.7034,"lon":135.498,"state":"active","id":null},{"event_id":"369012","title":"ワイヤレスでスマホに繋がるアンプ【04月28日(土)開催】","url":"http://dmmmake1804blue.peatix.com","shortener_url":null,"started_at":"2018-04-28T11:00:00.000+09:00","ended_at":"2018-04-30T23:59:59.000+09:00","limit_number":null,"address":"東京都千代田区神田練塀町3 富士ソフト秋葉原ビル 10F DMM.make AKIBA Studio","place":"DMM.make AKIBA 10F Studio","lat":35.7008,"lon":139.774,"state":"active","id":null},{"event_id":"369010","title":"FRISK風ヘッドフォンアンプをつくろう【04/22(日)開催】","url":"http://dmmmake1804frsk.peatix.com","shortener_url":null,"started_at":"2018-04-22T14:00:00.000+09:00","ended_at":"2018-04-24T23:59:59.000+09:00","limit_number":null,"address":"東京都千代田区神田練塀町3 富士ソフト秋葉原ビル 10F DMM.make AKIBA Studio","place":"DMM.make AKIBA 10F Studio","lat":35.7008,"lon":139.774,"state":"active","id":null},{"event_id":"368953","title":"半田付け体験とテスター・オシロスコープ入門【04/26(木)開催】","url":"http://dmmmake180426hand.peatix.com","shortener_url":null,"started_at":"2018-04-26T11:00:00.000+09:00","ended_at":"2018-04-28T23:59:59.000+09:00","limit_number":null,"address":"東京都千代田区神田練塀町3 富士ソフト秋葉原ビル 10F DMM.make AKIBA Studio","place":"DMM.make AKIBA 10F Studio","lat":35.7008,"lon":139.774,"state":"active","id":null},{"event_id":"368948","title":"半田付け体験とテスター・オシロスコープ入門【04/12(木)開催】","url":"http://dmmmake180412hand.peatix.com","shortener_url":null,"started_at":"2018-04-12T11:00:00.000+09:00","ended_at":"2018-04-14T23:59:59.000+09:00","limit_number":null,"address":"東京都千代田区神田練塀町3 富士ソフト秋葉原ビル 10F DMM.make AKIBA Studio","place":"DMM.make AKIBA 10F Studio","lat":35.7008,"lon":139.774,"state":"active","id":null},{"event_id":"368987","title":"シナ合板でつくる多面体スピーカー【04/21(土)開催】","url":"http://dmmmake1804poly.peatix.com","shortener_url":null,"started_at":"2018-04-21T11:00:00.000+09:00","ended_at":"2018-04-23T23:59:59.000+09:00","limit_number":null,"address":"東京都千代田区神田練塀町3 富士ソフト秋葉原ビル 10F DMM.make AKIBA Studio","place":"DMM.make AKIBA 10F Studio","lat":35.7008,"lon":139.774,"state":"active","id":null},{"event_id":"369608","title":"★おやつ付★もっとも身近な教養を学ぼう『13歳から知っておきたいLGBT＋』de【大人の教養大学】","url":"http://peatix.com/event/369608","shortener_url":null,"started_at":"2018-04-21T13:00:00.000+09:00","ended_at":"2018-04-23T23:59:59.000+09:00","limit_number":null,"address":"東京都港区南青山一丁目2番6号 ラティス青山スクエア2F","place":"SENQ青山 ワークプレイス","lat":35.6722,"lon":139.726,"state":"active","id":null},{"event_id":"369471","title":"BigBlue 2018 パールボウルチケット予選ブロックチケット","url":"http://bbpearl2018.peatix.com","shortener_url":null,"started_at":"2018-04-21T15:00:00.000+09:00","ended_at":"2018-04-23T23:59:59.000+09:00","limit_number":null,"address":"神奈川県川崎市川崎区富士見2丁目1−9","place":"富士通スタジアム川崎","lat":0.0,"lon":0.0,"state":"active","id":null},{"event_id":"369546","title":"京都結婚物語 #3料理婚活「蔵婚 酒蔵の宴〜春〜」","url":"http://konkatsu.peatix.com","shortener_url":null,"started_at":"2018-04-21T17:30:00.000+09:00","ended_at":"2018-04-23T23:59:59.000+09:00","limit_number":null,"address":"京都市 中京区堺町通二条上ル亀屋町172","place":"キンシ正宗 堀野記念館","lat":35.0141,"lon":135.763,"state":"active","id":null},{"event_id":"82865","title":"JANOG41.5 Interim Meeting","url":"https://janog.connpass.com/event/82865/","shortener_url":"https://goo.gl/KbYRzf","started_at":"2018-04-20T15:00:00.000+09:00","ended_at":"2018-04-20T20:30:00.000+09:00","limit_number":281,"address":"東京都千代田区紀尾井町1-3 東京ガーデンテラス紀尾井町 紀尾井タワー","place":"ヤフー株式会社","lat":35.6795,"lon":139.737,"state":"active","id":null},{"event_id":"84120","title":"「サウンドミニハッカソン」","url":"https://effectorhack.connpass.com/event/84120/","shortener_url":"https://goo.gl/LYCcLF","started_at":"2018-04-14T04:00:00.000+09:00","ended_at":"2018-04-14T09:00:00.000+09:00","limit_number":20,"address":"東京都渋谷区渋谷1-7-7(住友不動産青山通ビル13階)","place":"CRI・ミドルウェアC会議室","lat":35.6605,"lon":139.706,"state":"active","id":null},{"event_id":"84048","title":"Qt 勉強会 @ Nagoya #15","url":"https://qt-users.connpass.com/event/84048/","shortener_url":null,"started_at":"2018-04-14T13:00:00.000+09:00","ended_at":"2018-04-14T18:00:00.000+09:00","limit_number":10,"address":"愛知県名古屋市西区則武新町2-11-42","place":"トーメー本社フォーラム 1F 会議室","lat":35.1815,"lon":136.879,"state":"active","id":null},{"event_id":"83872","title":"おふろcaféコラボ ★ ゆるっとソン Vol.31  - by はじめてのハッカソン運営 -","url":"https://hackathon.connpass.com/event/83872/","shortener_url":"https://goo.gl/zGcNEY","started_at":"2018-04-22T01:00:00.000+09:00","ended_at":"2018-04-22T11:00:00.000+09:00","limit_number":8,"address":"埼玉県熊谷市久保島939","place":"おふろcafé bivouac（ビバーク）","lat":36.171,"lon":139.345,"state":"active","id":null},{"event_id":"364267","title":"【AQUA Laundromat Hack!】ハッカソン申込フォーム","url":"http://aqua-hackathon1.peatix.com","shortener_url":"https://goo.gl/EUMEmh","started_at":"2018-04-21T10:00:00.000+09:00","ended_at":"2018-04-23T23:59:59.000+09:00","limit_number":null,"address":"東京都 港区 北青山3-5-6","place":"G's ACADEMY TOKYO BASE","lat":35.6672,"lon":139.714,"state":"active","id":null},{"event_id":"369386","title":"Jazz \u0026 Pop Live @ Kichijoji","url":"http://peatix.com/event/369386","shortener_url":null,"started_at":"2018-04-17T19:30:00.000+09:00","ended_at":"2018-04-19T23:59:59.000+09:00","limit_number":null,"address":"武蔵野市吉祥寺南町1-5-2","place":"Manda-la","lat":35.7027,"lon":139.578,"state":"active","id":null},{"event_id":"367934","title":"Legal Hackers KL (Meetup #1) - Lawyers Who Tech And How They Did It","url":"http://legalhackerskl-meetup1.peatix.com","shortener_url":null,"started_at":"2018-04-19T20:00:00.000+09:00","ended_at":"2018-04-21T23:59:59.000+09:00","limit_number":null,"address":"Jalan Damanlela, Pusat Bandar Damansara, 50490 Kuala Lumpur, Wilayah Persekutuan Kuala Lumpur, Malaysia","place":"The Bistro, ZICO","lat":3.14637,"lon":101.663,"state":"active","id":null},{"event_id":"349185","title":"【1080円】自分と違うタイプ・価値観の人を理解しどうやって、一緒にやっていくか？の秘訣","url":"http://peatix.com/event/349185","shortener_url":null,"started_at":"2018-04-01T10:30:00.000+09:00","ended_at":"2018-04-03T23:59:59.000+09:00","limit_number":null,"address":"東京都港区西麻布2-26-4HOWA西麻布204","place":"ダイアネティックスセンター赤坂","lat":35.66,"lon":139.72,"state":"active","id":null},{"event_id":"349186","title":"【1080円】ツイてない・上がっては下がる・疲労\u0026心労ぎみ。その原因を見つける!","url":"http://peatix.com/event/349186","shortener_url":null,"started_at":"2018-04-01T10:30:00.000+09:00","ended_at":"2018-04-03T23:59:59.000+09:00","limit_number":null,"address":"東京都港区西麻布2-26-4HOWA西麻布204","place":"ダイアネティックスセンター赤坂","lat":35.66,"lon":139.72,"state":"active","id":null},{"event_id":"365647","title":"日経クロストレンド開発で見えてきたマーケティング新潮流","url":"http://peatix.com/event/365647","shortener_url":null,"started_at":"2018-04-25T16:00:00.000+09:00","ended_at":"2018-04-27T23:59:59.000+09:00","limit_number":null,"address":"東京都千代田区紀尾井町1-3","place":"Yahoo! LODGE","lat":35.68,"lon":139.737,"state":"active","id":null},{"event_id":"369375","title":"Crackhouse Comedy Presents : Comedians Assemble","url":"http://comediansassemble.peatix.com","shortener_url":null,"started_at":"2018-04-13T22:00:00.000+09:00","ended_at":"2018-04-15T23:59:59.000+09:00","limit_number":null,"address":"24A (1st Floor) Lorong Rahim Kajai 14, Taman Tun Dr. Ismail, 60000 Kuala Lumpur","place":"The Crackhouse Comedy Club KL","lat":3.15478,"lon":101.623,"state":"active","id":null},{"event_id":"369343","title":"Crackhouse Comedy Presents : Deepak Chandran (IN/SG) feat. Aaron Aw (MY)","url":"http://deepakdoescrack.peatix.com","shortener_url":null,"started_at":"2018-04-06T22:00:00.000+09:00","ended_at":"2018-04-08T23:59:59.000+09:00","limit_number":null,"address":"24A (1st Floor) Lorong Rahim Kajai 14, Taman Tun Dr. Ismail, 60000 Kuala Lumpur","place":"The Crackhouse Comedy Club KL","lat":3.15478,"lon":101.623,"state":"active","id":null},{"event_id":"369409","title":"Rojak Comedy in English \u0026 BM","url":"http://peatix.com/event/369409","shortener_url":null,"started_at":"2018-04-05T22:00:00.000+09:00","ended_at":"2018-04-07T23:59:59.000+09:00","limit_number":null,"address":"24A Lorong Rahim Kajai 14, Taman Tun Dr. Ismail, 60000 Kuala Lumpur","place":"Crackhouse Comedy Club Kuala Lumpur","lat":3.15474,"lon":101.623,"state":"active","id":null},{"event_id":"369865","title":"GOLDEN WEEK PUB CRAWL! (SAT) ゴールデンウイーク・パーティー（土）","url":"http://peatix.com/event/369865","shortener_url":null,"started_at":"2018-04-16T19:00:00.000+09:00","ended_at":"2018-04-18T23:59:59.000+09:00","limit_number":null,"address":"大阪市中央区東心斎橋2-5-27","place":"The Blarney Stone (B1F)","lat":34.6718,"lon":135.504,"state":"active","id":null},{"event_id":"369860","title":"PEP RALLY PUB CRAWL! (SAT) ペップ・ラリーパーティー（土）","url":"http://peatix.com/event/369860","shortener_url":null,"started_at":"2018-04-16T19:00:00.000+09:00","ended_at":"2018-04-18T23:59:59.000+09:00","limit_number":null,"address":"大阪市中央区東心斎橋2-5-27","place":"The Blarney Stone (B1F)","lat":34.6718,"lon":135.504,"state":"active","id":null},{"event_id":"368853","title":"＊〜♢ White Decadance 2018 ♢〜＊","url":"http://white-decadance-201804.peatix.com","shortener_url":null,"started_at":"2018-04-28T23:30:00.000+09:00","ended_at":"2018-04-30T23:59:59.000+09:00","limit_number":null,"address":"東京都 新宿区新宿5-17-13 オリエンタルウェーブビル 8F","place":"Christon Cafe 新宿","lat":35.6929,"lon":139.705,"state":"active","id":null},{"event_id":"369869","title":"GOLDEN WEEK FINALE! (SAT) ゴールデンウイーク・フィナーレ！（土）","url":"http://peatix.com/event/369869","shortener_url":null,"started_at":"2018-04-16T19:00:00.000+09:00","ended_at":"2018-04-18T23:59:59.000+09:00","limit_number":null,"address":"大阪市中央区東心斎橋2-5-27","place":"The Blarney Stone (B1F)","lat":34.6718,"lon":135.504,"state":"active","id":null},{"event_id":"368527","title":"★PEP RALLY SPECIAL! (FRI AND SAT) ペップ・ラリーパーティー（金＆土）★","url":"http://peatix.com/event/368527","shortener_url":null,"started_at":"2018-04-20T19:00:00.000+09:00","ended_at":"2018-04-22T23:59:59.000+09:00","limit_number":null,"address":"東京都港区六本木3-14-9 ユア六本木2F","place":"Bar Propaganda (2F)","lat":35.6623,"lon":139.735,"state":"active","id":null},{"event_id":"369769","title":"『マインドフルネス～今を生きる、気づきの奇跡～ The Miracle of Mindfulness  プラムヴィレッジ１日リトリート＠福岡・正行寺』","url":"http://miracleofmindfullness.peatix.com","shortener_url":null,"started_at":"2018-04-21T10:00:00.000+09:00","ended_at":"2018-04-23T23:59:59.000+09:00","limit_number":null,"address":"福岡県筑紫野市二日市中央4-7-1","place":"浄土真宗　正行寺","lat":33.5001,"lon":130.517,"state":"active","id":null},{"event_id":"368548","title":"★ CRAZY GOLDEN WEEK day 2! (SAT) クレイジー・ゴールデンウイーク 2日目！（土）★","url":"http://peatix.com/event/368548","shortener_url":null,"started_at":"2018-04-28T19:00:00.000+09:00","ended_at":"2018-04-30T23:59:59.000+09:00","limit_number":null,"address":"東京都港区六本木3-14-9 ユア六本木2F","place":"Bar Propaganda (2F)","lat":35.6623,"lon":139.735,"state":"active","id":null},{"event_id":"369407","title":"Open Crack! Open-mic Night | 9pm","url":"http://peatix.com/event/369407","shortener_url":null,"started_at":"2018-04-11T22:00:00.000+09:00","ended_at":"2018-04-13T23:59:59.000+09:00","limit_number":null,"address":"24A, 1st Floor, Lorong Rahim Kajai 14, Taman Tun Dr. Ismail, 60000 Kuala Lumpur","place":"The Crackhouse Comedy Club KL","lat":3.15493,"lon":101.623,"state":"active","id":null},{"event_id":"369406","title":"Open Crack! Open-mic Night | 9pm","url":"http://peatix.com/event/369406","shortener_url":null,"started_at":"2018-04-04T22:00:00.000+09:00","ended_at":"2018-04-06T23:59:59.000+09:00","limit_number":null,"address":"24A, 1st Floor, Lorong Rahim Kajai 14, Taman Tun Dr. Ismail, 60000 Kuala Lumpur","place":"The Crackhouse Comedy Club KL","lat":3.15493,"lon":101.623,"state":"active","id":null},{"event_id":"368537","title":"★ GOLDEN WEEK KICK OFF！ゴールデンウイーク・キックオフ パーティー（金）★","url":"http://peatix.com/event/368537","shortener_url":null,"started_at":"2018-04-27T19:00:00.000+09:00","ended_at":"2018-04-29T23:59:59.000+09:00","limit_number":null,"address":"東京都港区六本木3-14-9 ユア六本木2F","place":"Bar Propaganda (2F)","lat":35.6623,"lon":139.735,"state":"active","id":null},{"event_id":"369408","title":"Open Crack! Open-mic Night | 9pm","url":"http://peatix.com/event/369408","shortener_url":null,"started_at":"2018-04-18T22:00:00.000+09:00","ended_at":"2018-04-20T23:59:59.000+09:00","limit_number":null,"address":"24A, 1st Floor, Lorong Rahim Kajai 14, Taman Tun Dr. Ismail, 60000 Kuala Lumpur","place":"The Crackhouse Comedy Club KL","lat":3.15493,"lon":101.623,"state":"active","id":null},{"event_id":"84337","title":"京都アジャイル勉強会#80 オープン・ジャム","url":"https://kyoaja.connpass.com/event/84337/","shortener_url":null,"started_at":"2018-04-16T10:30:00.000+09:00","ended_at":"2018-04-16T12:30:00.000+09:00","limit_number":20,"address":"京都府京都市中京区高宮町206(御池ビル8階)","place":"はてな","lat":35.0112,"lon":135.762,"state":"active","id":null},{"event_id":"83852","title":"NEM.アイデアソン","url":"https://xem-tokyo.connpass.com/event/83852/","shortener_url":"https://goo.gl/daEuHC","started_at":"2018-04-18T10:00:00.000+09:00","ended_at":"2018-04-18T13:00:00.000+09:00","limit_number":40,"address":"東京都港区北青山3-5-6 (青朋ビル2F)","place":"G's ACADEMY TOKYO BASE","lat":35.6672,"lon":139.714,"state":"active","id":null},{"event_id":"84296","title":"開発者\u0026発注者を無料でマッチング! Meetup  by Team AI 4/24(火)","url":"https://teamai.connpass.com/event/84296/","shortener_url":null,"started_at":"2018-04-24T19:00:00.000+09:00","ended_at":"2018-04-24T21:00:00.000+09:00","limit_number":15,"address":"東京都渋谷区宇田川町37-10","place":"オール トーキョー （OL Tokyo） ","lat":35.6621,"lon":139.696,"state":"active","id":null},{"event_id":"84290","title":"Cryptography Pitch \u0026 Networking Party 4/18(水)","url":"https://teamai.connpass.com/event/84290/","shortener_url":null,"started_at":"2018-04-18T19:00:00.000+09:00","ended_at":"2018-04-18T21:30:00.000+09:00","limit_number":5,"address":"東京都渋谷区渋谷1丁目8 (TOC第１ビル3階)","place":"みんなの会議室2-1　渋谷宮益坂","lat":35.6618,"lon":139.696,"state":"active","id":null},{"event_id":"72910","title":"WikipediaTown沼津#9","url":"https://0168e91711e4c480d710c70399.doorkeeper.jp/events/72910","shortener_url":null,"started_at":"2018-04-15T09:30:00.000+09:00","ended_at":"2018-04-15T17:30:00.000+09:00","limit_number":10,"address":"静岡県沼津市井出744","place":"大泉寺","lat":35.1425,"lon":138.796,"state":"active","id":null},{"event_id":"370995","title":"＜スイーツ好き集まれ！＞苺ジャムを作って❌贅沢スコーンを焼いて、頬張ります！","url":"http://peatix.com/event/370995","shortener_url":null,"started_at":"2018-04-07T14:00:00.000+09:00","ended_at":"2018-04-09T23:59:59.000+09:00","limit_number":null,"address":"明治神宮前駅 ※ 正確な住所は予約が承認されるとマイページに表示されます","place":"博士の食卓","lat":0.0,"lon":0.0,"state":"active","id":null},{"event_id":"367962","title":"NHKディレクソン in 旭川 ～参加者全員がTVディレクター！？「旭川発 北海道をもっと幸せにするテレビ」をみんなで考えよう！","url":"http://nhkdirecthon06.peatix.com","shortener_url":"https://goo.gl/nEDosb","started_at":"2018-04-29T10:30:00.000+09:00","ended_at":"2018-05-01T23:59:59.000+09:00","limit_number":null,"address":"旭川市宮前1条3丁目3番30号","place":"旭川市市民活動交流センター ＣｏＣｏＤｅ（ココデ）","lat":43.7568,"lon":142.372,"state":"active","id":null},{"event_id":"368481","title":"石積みワークショップ(石積み学校　in　東京都檜原村のわさび田)","url":"http://tokyo-hinoharastonework.peatix.com","shortener_url":null,"started_at":"2018-04-28T11:00:00.000+09:00","ended_at":"2018-04-30T23:59:59.000+09:00","limit_number":null,"address":"檜原村人里","place":"ゲストハウス へんぼり堂","lat":35.7132,"lon":139.087,"state":"active","id":null},{"event_id":"366311","title":"「コミュニティ経済と地域通貨・仮想通貨 、そして未来のお金」クラス","url":"http://local-community201805.peatix.com","shortener_url":null,"started_at":"2018-04-05T14:00:00.000+09:00","ended_at":"2018-04-07T23:59:59.000+09:00","limit_number":null,"address":"東京都渋谷区神宮前2-19-5","place":"greenz harajuku","lat":35.6733,"lon":139.71,"state":"active","id":null},{"event_id":"369594","title":"アニメ好きの街コン「アニコンin浜松」2018年4月30日(月・祝) 14:30-17:00","url":"http://peatix.com/event/369594","shortener_url":null,"started_at":"2018-04-30T14:30:00.000+09:00","ended_at":"2018-05-02T23:59:59.000+09:00","limit_number":null,"address":"静岡県浜松市中区肴町318‐27","place":" 地中海料理　セルフィッシュ","lat":34.7062,"lon":137.729,"state":"active","id":null},{"event_id":"369385","title":"【オンライン２２時】HSC/不登校　親子で学校に応援してもらうには〜カウンセラー本田さんゲスト","url":"http://peatix.com/event/369385","shortener_url":null,"started_at":"2018-04-12T22:00:00.000+09:00","ended_at":"2018-04-14T23:59:59.000+09:00","limit_number":null,"address":"オンライン","place":"オンライン（ご自宅で参加できます）","lat":0.0,"lon":0.0,"state":"active","id":null},{"event_id":"369602","title":"「20代限定コンin鶴岡」2018年4月28日(土) 19:30-22:00","url":"http://peatix.com/event/369602","shortener_url":null,"started_at":"2018-04-28T19:30:00.000+09:00","ended_at":"2018-04-30T23:59:59.000+09:00","limit_number":null,"address":"山形県鶴岡市末広町2-41 YS鶴岡駅前ビル 1F","place":"千年の宴　鶴岡駅前店","lat":38.7397,"lon":139.838,"state":"active","id":null},{"event_id":"369051","title":"25歳から35歳限定「アラサーコンin福島」2018年4月29日(日) 19:00-21:30","url":"http://peatix.com/event/369051","shortener_url":null,"started_at":"2018-04-29T19:00:00.000+09:00","ended_at":"2018-05-01T23:59:59.000+09:00","limit_number":null,"address":"福島市栄町11-30 ゼビオビルB1","place":"笑笑 福島東口駅前店","lat":37.754,"lon":140.463,"state":"active","id":null},{"event_id":"369690","title":"「社会人男子コンin弘前」2018年4月30日(月・祝) 14:00-16:30","url":"http://peatix.com/event/369690","shortener_url":null,"started_at":"2018-04-30T14:00:00.000+09:00","ended_at":"2018-05-02T23:59:59.000+09:00","limit_number":null,"address":"弘前市駅前町7−5","place":"笑笑 弘前駅前店","lat":40.5982,"lon":140.482,"state":"active","id":null},{"event_id":"369392","title":"25歳から35歳限定「アラサーコンin宇都宮」2018年4月28日(土) 19:00-21:30","url":"http://peatix.com/event/369392","shortener_url":null,"started_at":"2018-04-28T19:00:00.000+09:00","ended_at":"2018-04-30T23:59:59.000+09:00","limit_number":null,"address":"栃木県宇都宮市駅前通り1丁目5−2","place":"白木屋 ＪＲ宇都宮西口駅前店 ","lat":36.5597,"lon":139.897,"state":"active","id":null},{"event_id":"369455","title":"男女20代限定「社会人男子コンin宇都宮」2018年4月29日(土) 19:00-21:30","url":"http://peatix.com/event/369455","shortener_url":null,"started_at":"2018-04-29T19:00:00.000+09:00","ended_at":"2018-05-01T23:59:59.000+09:00","limit_number":null,"address":"宇都宮市駅前通り1丁目5−2","place":"白木屋 ＪＲ宇都宮西口駅前店","lat":36.5595,"lon":139.897,"state":"active","id":null},{"event_id":"369428","title":"「30代限定コンin水戸」2018年4月29日(土) 19:00-21:30","url":"http://peatix.com/event/369428","shortener_url":null,"started_at":"2018-04-29T19:00:00.000+09:00","ended_at":"2018-05-01T23:59:59.000+09:00","limit_number":null,"address":"茨城県水戸市宮町1-7-31 エクセルみなみ6F","place":"イタリアンバイキング「パパゲーノ水戸」","lat":36.3701,"lon":140.477,"state":"active","id":null},{"event_id":"369581","title":"「社会人男子コンin小山」2018年4月30日(月・祝) 15:00-17:30","url":"http://peatix.com/event/369581","shortener_url":null,"started_at":"2018-04-30T15:00:00.000+09:00","ended_at":"2018-05-02T23:59:59.000+09:00","limit_number":null,"address":"小山市駅東通り1-4-7 柿木ビル2F","place":"笑笑　小山東口駅前店","lat":36.3108,"lon":139.807,"state":"active","id":null},{"event_id":"369517","title":"男女20代限定「社会人男子コンin金沢」2018年4月29日(日) 15:00-17:30","url":"http://peatix.com/event/369517","shortener_url":null,"started_at":"2018-04-29T15:00:00.000+09:00","ended_at":"2018-05-01T23:59:59.000+09:00","limit_number":null,"address":"石川県金沢市香林坊1‐1‐1 香林坊大和8F","place":"ブッフェレストラン「ザ・ダイニング　」","lat":36.563,"lon":136.654,"state":"active","id":null},{"event_id":"369459","title":"男女20代限定「社会人男子コンin太田」2018年4月29日(日) 19:00-21:30","url":"http://peatix.com/event/369459","shortener_url":null,"started_at":"2018-04-29T19:00:00.000+09:00","ended_at":"2018-05-01T23:59:59.000+09:00","limit_number":null,"address":"群馬県太田市飯田町1389-2 武藤ビル2F","place":"白木屋 太田南口店","lat":36.2932,"lon":139.379,"state":"active","id":null},{"event_id":"369399","title":"25歳から35歳「第95回 アラサーコンin金沢」2018年4月28日(土) 19:00-21:00","url":"http://peatix.com/event/369399","shortener_url":null,"started_at":"2018-04-28T19:00:00.000+09:00","ended_at":"2018-04-30T23:59:59.000+09:00","limit_number":null,"address":"石川県金沢市香林坊1‐1‐1 香林坊大和8F","place":"ブッフェレストラン「ザ・ダイニング　」","lat":36.563,"lon":136.654,"state":"active","id":null},{"event_id":"369510","title":"「安定男子コンin茅ヶ崎」2018年4月29日(日) 14:30-17:00","url":"http://peatix.com/event/369510","shortener_url":null,"started_at":"2018-04-29T14:30:00.000+09:00","ended_at":"2018-05-01T23:59:59.000+09:00","limit_number":null,"address":"神奈川県茅ヶ崎市新栄町1-2 川上ビル4階","place":"山内農場　茅ヶ崎北口駅前店","lat":35.3304,"lon":139.405,"state":"active","id":null},{"event_id":"369685","title":"「社会人男子コンin酒田」2018年4月29日(日) 14:00-16:30","url":"http://peatix.com/event/369685","shortener_url":null,"started_at":"2018-04-29T14:00:00.000+09:00","ended_at":"2018-05-01T23:59:59.000+09:00","limit_number":null,"address":"酒田市幸町 2−1−12 ホテル・アルファーワン酒田 1階","place":"魚民 酒田駅前店","lat":38.9227,"lon":139.845,"state":"active","id":null},{"event_id":"369589","title":"25歳から35歳限定「アラサーコンin太田」2018年4月30日(月・祝) 14:30-17:00","url":"http://peatix.com/event/369589","shortener_url":null,"started_at":"2018-04-30T14:30:00.000+09:00","ended_at":"2018-05-02T23:59:59.000+09:00","limit_number":null,"address":"群馬県太田市飯田町1389-2 武藤ビル2F","place":"白木屋　太田南口駅前店","lat":36.2932,"lon":139.379,"state":"active","id":null},{"event_id":"369692","title":"「20代限定コンin盛岡」2018年4月30日(月・祝) 14:00-16:30","url":"http://peatix.com/event/369692","shortener_url":null,"started_at":"2018-04-30T14:00:00.000+09:00","ended_at":"2018-05-02T23:59:59.000+09:00","limit_number":null,"address":"盛岡市菜園2-4-23","place":"琥haku （コハク）","lat":39.7019,"lon":141.147,"state":"active","id":null},{"event_id":"369678","title":"25歳から35歳限定「アラサーコンin弘前」2018年4月29日(日) 19:00-21:30","url":"http://peatix.com/event/369678","shortener_url":null,"started_at":"2018-04-29T19:00:00.000+09:00","ended_at":"2018-05-01T23:59:59.000+09:00","limit_number":null,"address":"弘前市大字駅前町7-5 おおまち共同パーク1F","place":"笑笑 弘前駅前店 ","lat":40.5981,"lon":140.482,"state":"active","id":null},{"event_id":"369038","title":"「社会人男子コンin山形」2018年4月30日(月・祝) 14:00-16:30","url":"http://peatix.com/event/369038","shortener_url":null,"started_at":"2018-04-30T14:00:00.000+09:00","ended_at":"2018-05-02T23:59:59.000+09:00","limit_number":null,"address":"山形県山形市香澄町1-15-28 ホテルニュー最上屋","place":"魚民　山形駅前店 ","lat":38.2497,"lon":140.329,"state":"active","id":null},{"event_id":"369689","title":"ノンスモーカー限定「社会人男子コンin盛岡」2018年4月29日(日) 19:00-21:30","url":"http://peatix.com/event/369689","shortener_url":null,"started_at":"2018-04-29T19:00:00.000+09:00","ended_at":"2018-05-01T23:59:59.000+09:00","limit_number":null,"address":"盛岡市菜園2-4-23","place":"琥haku （コハク）","lat":39.7019,"lon":141.147,"state":"active","id":null},{"event_id":"369057","title":"「社会人男子コンin福島」2018年4月30日(月・祝) 14:00-16:30","url":"http://peatix.com/event/369057","shortener_url":null,"started_at":"2018-04-30T14:00:00.000+09:00","ended_at":"2018-05-02T23:59:59.000+09:00","limit_number":null,"address":"福島市 栄町11-30 ゼビオビル 地下1","place":"笑笑 福島東口駅前店","lat":37.754,"lon":140.463,"state":"active","id":null},{"event_id":"369002","title":"男女30歳以上限定「恋STORYコンin山形」2018年4月28日(土) 19:00-21:30","url":"http://peatix.com/event/369002","shortener_url":null,"started_at":"2018-04-28T19:00:00.000+09:00","ended_at":"2018-04-30T23:59:59.000+09:00","limit_number":null,"address":"山形市 香澄町1-15-28 ホテルニュー最上屋 地下1階","place":"魚民 山形駅前店","lat":38.2497,"lon":140.329,"state":"active","id":null},{"event_id":"369521","title":"アニメ好きの街コン「アニコンin富山」2018年4月29日(日) 15:00-17:30","url":"http://peatix.com/event/369521","shortener_url":null,"started_at":"2018-04-29T15:00:00.000+09:00","ended_at":"2018-05-01T23:59:59.000+09:00","limit_number":null,"address":"富山県富山市総曲輪3丁目8番6号","place":"THE BUFFET （ザ・ブッフェ）大和富山6F","lat":36.6894,"lon":137.214,"state":"active","id":null},{"event_id":"369456","title":"25歳から35歳限定「アラサーコンin小山」2018年4月29日(日) 14:00-16:30","url":"http://peatix.com/event/369456","shortener_url":null,"started_at":"2018-04-29T14:00:00.000+09:00","ended_at":"2018-05-01T23:59:59.000+09:00","limit_number":null,"address":"小山市駅東通り1-4-7 柿木ビル2F","place":"笑笑 小山東口駅前店","lat":36.3108,"lon":139.807,"state":"active","id":null},{"event_id":"369007","title":"男女35歳から45歳「社会人サークルin福島」2018年4月28日(土) 19:00-21:30","url":"http://peatix.com/event/369007","shortener_url":null,"started_at":"2018-04-28T19:00:00.000+09:00","ended_at":"2018-04-30T23:59:59.000+09:00","limit_number":null,"address":"福島市 栄町11-30 ゼビオビル 地下1","place":"笑笑 福島東口駅前店","lat":37.754,"lon":140.463,"state":"active","id":null},{"event_id":"369691","title":"「安定男子コンin鶴岡」2018年4月30日(月・祝) 14:00-16:30","url":"http://peatix.com/event/369691","shortener_url":null,"started_at":"2018-04-30T14:00:00.000+09:00","ended_at":"2018-05-02T23:59:59.000+09:00","limit_number":null,"address":"山形県鶴岡市末広町2-41 YS鶴岡駅前ビル 1F","place":"千年の宴　鶴岡駅前店","lat":38.7397,"lon":139.838,"state":"active","id":null},{"event_id":"369660","title":"「20代限定コンin青森」2018年4月29日(日) 19:00-21:30","url":"http://peatix.com/event/369660","shortener_url":null,"started_at":"2018-04-29T19:00:00.000+09:00","ended_at":"2018-05-01T23:59:59.000+09:00","limit_number":null,"address":"青森市新町1丁目1−18","place":"魚民 青森駅前店","lat":40.828,"lon":140.736,"state":"active","id":null},{"event_id":"369011","title":"「20代限定コンin山形」2018年4月29日(日) 19:00-21:30","url":"http://peatix.com/event/369011","shortener_url":null,"started_at":"2018-04-29T19:00:00.000+09:00","ended_at":"2018-05-01T23:59:59.000+09:00","limit_number":null,"address":"山形県山形市香澄町1-15-28 ホテルニュー最上屋","place":"魚民　山形駅前店","lat":38.2497,"lon":140.329,"state":"active","id":null},{"event_id":"369605","title":"25歳から35歳限定「アラサーコンin盛岡」2018年4月28日(土) 19:00-21:30","url":"http://peatix.com/event/369605","shortener_url":null,"started_at":"2018-04-28T19:00:00.000+09:00","ended_at":"2018-04-30T23:59:59.000+09:00","limit_number":null,"address":"盛岡市菜園2-4-23 バーセル菜園 5F","place":"琥haku （コハク）","lat":39.7019,"lon":141.147,"state":"active","id":null},{"event_id":"369395","title":"25歳から35歳限定「アラサーコンin高崎」2018年4月28日(土) 19:30-22:00","url":"http://peatix.com/event/369395","shortener_url":null,"started_at":"2018-04-28T19:30:00.000+09:00","ended_at":"2018-04-30T23:59:59.000+09:00","limit_number":null,"address":"高崎市 西口サウスパークビル 1階","place":"魚民 高崎西口駅前店","lat":36.3208,"lon":139.012,"state":"active","id":null},{"event_id":"369600","title":"「社会人男子コンin青森」2018年4月28日(土) 19:00-21:30","url":"http://peatix.com/event/369600","shortener_url":null,"started_at":"2018-04-28T19:00:00.000+09:00","ended_at":"2018-04-30T23:59:59.000+09:00","limit_number":null,"address":"青森市新町1丁目1−18","place":"山内農場 青森駅前店","lat":0.0,"lon":0.0,"state":"active","id":null},{"event_id":"369504","title":"男女20代限定「社会人男子コンin高崎」2018年4月29日(土) 14:00-16:30","url":"http://peatix.com/event/369504","shortener_url":null,"started_at":"2018-04-29T14:00:00.000+09:00","ended_at":"2018-05-01T23:59:59.000+09:00","limit_number":null,"address":"高崎市 西口サウスパークビル 1階","place":"魚民 高崎西口駅前店","lat":36.3208,"lon":139.012,"state":"active","id":null},{"event_id":"96021","title":"第300回 よちよちAndroid オフライン開発ミーティング in 大崎","url":"https://atnd.org/events/96021","shortener_url":null,"started_at":"2018-04-08T01:00:00.000+09:00","ended_at":"2018-04-08T03:00:00.000+09:00","limit_number":null,"address":"東京都品川区大崎1-11-1","place":"ゲートシティ大崎B1アトリウムフリー座席","lat":35.6194,"lon":139.731,"state":"closed","id":null},{"event_id":"370383","title":"八時間耐久作品制作会 in 大阪 #8","url":"http://peatix.com/event/370383","shortener_url":null,"started_at":"2018-04-14T10:00:00.000+09:00","ended_at":"2018-04-16T23:59:59.000+09:00","limit_number":null,"address":"大阪市北区中之島3-3-3  中之島三井ビルディング10F","place":" 株式会社Razest","lat":34.6932,"lon":135.494,"state":"active","id":null},{"event_id":"371350","title":"FOOD LOBANG 2.0","url":"http://tbpfoodlobang.peatix.com","shortener_url":null,"started_at":"2018-04-06T11:00:00.000+09:00","ended_at":"2018-04-08T23:59:59.000+09:00","limit_number":null,"address":"302 Tiong Bahru Road Singapore 168732","place":"Tiong Bahru Plaza","lat":1.28648,"lon":103.827,"state":"active","id":null},{"event_id":"369507","title":"オトナの政治経済 Vol. 81","url":"http://peatix.com/event/369507","shortener_url":null,"started_at":"2018-04-21T13:30:00.000+09:00","ended_at":"2018-04-23T23:59:59.000+09:00","limit_number":null,"address":"東京都中央区銀座 8-9-13 K-18 ビル 2F","place":"CHAIRS","lat":0.0,"lon":0.0,"state":"active","id":null},{"event_id":"370522","title":"Bumpy Lens 〜劇場で出会ったクリエイティブな人たち〜 #1","url":"http://bumpy-lens001.peatix.com","shortener_url":null,"started_at":"2018-04-27T19:30:00.000+09:00","ended_at":"2018-04-29T23:59:59.000+09:00","limit_number":null,"address":"千代田区有楽町1丁目1−2","place":"東京ミッドタウン日比谷","lat":35.6736,"lon":139.759,"state":"active","id":null},{"event_id":"371169","title":"Altimate Saturday ft. DJs Rattle \u0026 Big M - 07 APR 2018","url":"http://altimatesaturday.peatix.com","shortener_url":null,"started_at":"2018-04-07T23:00:00.000+09:00","ended_at":"2018-04-09T23:59:59.000+09:00","limit_number":null,"address":"Level 61, 1 Raffles Place","place":"Altimate","lat":1.28449,"lon":103.851,"state":"active","id":null},{"event_id":"84534","title":"カーネル／VMキャンプ #7","url":"https://kernelvm.connpass.com/event/84534/","shortener_url":"https://goo.gl/8RHqZm","started_at":"2018-04-13T09:00:00.000+09:00","ended_at":"2018-04-15T20:00:00.000+09:00","limit_number":13,"address":" \t長野県北安曇郡白馬村神城いいもり２６０９２","place":"カンパーニュ白馬","lat":36.673,"lon":137.849,"state":"active","id":null},{"event_id":"84533","title":"もくもく Google Code Jam 2018 Qualification Round","url":"https://enechange-meetup.connpass.com/event/84533/","shortener_url":null,"started_at":"2018-04-07T04:00:00.000+09:00","ended_at":"2018-04-07T07:00:00.000+09:00","limit_number":10,"address":"東京都千代田区大手町2-6-2 （日本ビル３Ｆ）","place":"エネチェンジ株式会社","lat":35.685,"lon":139.769,"state":"active","id":null},{"event_id":"84405","title":"HTML5でアプリをつくる Ionicもくもく会 #6  in Tokyo（Akihaba)","url":"https://ionic-jp.connpass.com/event/84405/","shortener_url":null,"started_at":"2018-04-26T19:00:00.000+09:00","ended_at":"2018-04-26T21:00:00.000+09:00","limit_number":10,"address":"東京都千代田区外神田2丁目15-8　長坂第三ビル 3F","place":"合同会社ねこもり 秋葉原オフィス","lat":35.7027,"lon":139.769,"state":"active","id":null},{"event_id":"83479","title":"スクラム道関西 第103回定例会(オープン・ジャム)","url":"https://scrumdo-kansai.connpass.com/event/83479/","shortener_url":null,"started_at":"2018-04-18T10:00:00.000+09:00","ended_at":"2018-04-18T12:00:00.000+09:00","limit_number":20,"address":"大阪市淀川区西中島5丁目14-10 (新大阪トヨタビル4階)","place":"株式会社リアズ","lat":34.7312,"lon":135.499,"state":"active","id":null},{"event_id":"83700","title":"fukuoka.ex#7：Phoenixもくもく会（19:15開始）","url":"https://fukuokaex.connpass.com/event/83700/","shortener_url":null,"started_at":"2018-04-17T19:15:00.000+09:00","ended_at":"2018-04-17T21:15:00.000+09:00","limit_number":20,"address":"〒810-0001 福岡県福岡市 中央区天神4丁目1-7 第3明星ビル6F","place":"株式会社Fusic","lat":33.5935,"lon":130.401,"state":"active","id":null},{"event_id":"371498","title":"PEP RALLY PUB CRAWL! (SAT) ペップ・ラリーパーティー（土）","url":"http://peatix.com/event/371498","shortener_url":null,"started_at":"2018-04-21T19:00:00.000+09:00","ended_at":"2018-04-23T23:59:59.000+09:00","limit_number":null,"address":"大阪市中央区東心斎橋2-5-27","place":"The Blarney Stone (B1F)","lat":34.6718,"lon":135.504,"state":"active","id":null},{"event_id":"371495","title":"GOLDEN WEEK PUB CRAWL CRAZY DAY 2! (SAT) ゴールデンウイーク・パーティー ・デー２（土）","url":"http://peatix.com/event/371495","shortener_url":null,"started_at":"2018-04-28T19:00:00.000+09:00","ended_at":"2018-04-30T23:59:59.000+09:00","limit_number":null,"address":"大阪市中央区東心斎橋2-5-27","place":"The Blarney Stone (B1F)","lat":34.6718,"lon":135.504,"state":"active","id":null},{"event_id":"84643","title":"[秋葉原] 昼から電子工作する会(ラズパイなど) #2","url":"https://weeyble-iot.connpass.com/event/84643/","shortener_url":null,"started_at":"2018-04-12T14:00:00.000+09:00","ended_at":"2018-04-12T17:00:00.000+09:00","limit_number":8,"address":"東京都千代田区神田須田町２丁目１９−２３ (野村第３ビル ４階)","place":"コワーキングスペース秋葉原Weeyble","lat":35.6966,"lon":139.772,"state":"active","id":null},{"event_id":"96063","title":"第301回 よちよちAndroid オフライン開発ミーティング in 大崎","url":"https://atnd.org/events/96063","shortener_url":null,"started_at":"2018-04-15T01:00:00.000+09:00","ended_at":"2018-04-15T03:00:00.000+09:00","limit_number":null,"address":"東京都品川区大崎1-11-1","place":"ゲートシティ大崎B1アトリウムフリー座席","lat":35.6194,"lon":139.731,"state":"closed","id":null},{"event_id":"96072","title":"第54回よちよちAndroid名古屋支部オフライン開発ミーティング","url":"https://atnd.org/events/96072","shortener_url":null,"started_at":"2018-04-15T00:00:00.000+09:00","ended_at":"2018-04-15T03:00:00.000+09:00","limit_number":null,"address":"名古屋市中区栄三丁目18番1号 ナディアパーク デザインセンタービル6階","place":"名古屋市市民活動推進センター","lat":35.1654,"lon":136.905,"state":"closed","id":null},{"event_id":"73033","title":"Startup Weekend Tokyo Blockchain コミュニティナイト","url":"https://swtokyo.doorkeeper.jp/events/73033","shortener_url":null,"started_at":"2018-04-25T19:00:00.000+09:00","ended_at":"2018-04-25T21:00:00.000+09:00","limit_number":55,"address":"東京都千代田区丸の内2-1-1 明治安田生命ビル TOKYO創業ステーション1階","place":"Startup Hub Tokyo","lat":35.6792,"lon":139.762,"state":"active","id":null},{"event_id":"371828","title":"＜大人のスイーツ会＞塩系・甘系！２種類のスコーンを焼こう❌苺ジャムを作ろう","url":"http://peatix.com/event/371828","shortener_url":null,"started_at":"2018-04-12T19:00:00.000+09:00","ended_at":"2018-04-14T23:59:59.000+09:00","limit_number":null,"address":"東京都渋谷区神宮前6-7-16-3F","place":"食の学校「パティス」","lat":35.6673,"lon":139.706,"state":"active","id":null},{"event_id":"371055","title":"【HRテクノロジーを活用して実現する】自ら組織課題を発見し、解決する「攻める自立型人事」セミナー","url":"http://peatix.com/event/371055","shortener_url":null,"started_at":"2018-04-26T19:00:00.000+09:00","ended_at":"2018-04-28T23:59:59.000+09:00","limit_number":null,"address":"千代田区丸の内1−9−2","place":"グラントウキョウ サウスタワー","lat":35.6786,"lon":139.767,"state":"active","id":null},{"event_id":"370803","title":"【4/13 13:00~】　IoTモノづくりベンチャー向けモノづくり研修 　第6回SHARP IoT. make Bootcamp supported by さくらインターネットの説明会","url":"http://sharp-bootcamp0412-4.peatix.com","shortener_url":null,"started_at":"2018-04-13T13:00:00.000+09:00","ended_at":"2018-04-15T23:59:59.000+09:00","limit_number":null,"address":"東京都千代田区神田練塀町3富士ソフトビル","place":"DMM.make AKIBA 12F Base","lat":0.0,"lon":0.0,"state":"active","id":null},{"event_id":"370802","title":"【4/13 15:00~】　IoTモノづくりベンチャー向けモノづくり研修 　第6回SHARP IoT. make Bootcamp supported by さくらインターネットの説明会","url":"http://sharp-bootcamp0412-5.peatix.com","shortener_url":null,"started_at":"2018-04-13T15:00:00.000+09:00","ended_at":"2018-04-15T23:59:59.000+09:00","limit_number":null,"address":"東京都千代田区神田練塀町3富士ソフトビル","place":"DMM.make AKIBA 12F Base","lat":0.0,"lon":0.0,"state":"active","id":null},{"event_id":"370805","title":"【4/12 15:00~】　IoTモノづくりベンチャー向けモノづくり研修 　第6回SHARP IoT. make Bootcamp supported by さくらインターネットの説明会","url":"http://sharp-bootcamp0412-2.peatix.com","shortener_url":null,"started_at":"2018-04-12T15:00:00.000+09:00","ended_at":"2018-04-14T23:59:59.000+09:00","limit_number":null,"address":"東京都千代田区神田練塀町3富士ソフトビル","place":"DMM.make AKIBA 12F Base","lat":0.0,"lon":0.0,"state":"active","id":null},{"event_id":"370563","title":"【4/12 13:00~】　IoTモノづくりベンチャー向けモノづくり研修 　第6回SHARP IoT. make Bootcamp supported by さくらインターネットの説明会","url":"http://sharp-bootcamp0412-1.peatix.com","shortener_url":null,"started_at":"2018-04-12T13:00:00.000+09:00","ended_at":"2018-04-14T23:59:59.000+09:00","limit_number":null,"address":"東京都千代田区神田練塀町3富士ソフトビル","place":"DMM.make AKIBA 12F Base","lat":0.0,"lon":0.0,"state":"active","id":null},{"event_id":"370804","title":"【4/12 19:00~】　IoTモノづくりベンチャー向けモノづくり研修 　第6回SHARP IoT. make Bootcamp supported by さくらインターネットの説明会","url":"http://sharp-bootcamp0412-3.peatix.com","shortener_url":null,"started_at":"2018-04-12T19:00:00.000+09:00","ended_at":"2018-04-14T23:59:59.000+09:00","limit_number":null,"address":"東京都千代田区神田練塀町3富士ソフトビル","place":"DMM.make AKIBA 12F Base","lat":0.0,"lon":0.0,"state":"active","id":null},{"event_id":"369987","title":"I.C.E. CREATIVE LOUNGE 〜SXSW2018”ニッポンのクリエイティブ”は世界にどう評価された？〜","url":"http://icl-2018april.peatix.com","shortener_url":null,"started_at":"2018-04-27T19:30:00.000+09:00","ended_at":"2018-04-29T23:59:59.000+09:00","limit_number":null,"address":"東京都渋谷区渋谷3-27-1","place":"100BANCH","lat":35.656,"lon":139.705,"state":"active","id":null},{"event_id":"372163","title":"アニメ好きの街コン「アニコンin高崎」2018年4月15日(日) 14:30-17:00","url":"http://peatix.com/event/372163","shortener_url":null,"started_at":"2018-04-15T14:30:00.000+09:00","ended_at":"2018-04-17T23:59:59.000+09:00","limit_number":null,"address":"高崎市栄町14−1","place":"魚民 高崎東口駅前店","lat":36.3218,"lon":139.015,"state":"active","id":null},{"event_id":"372452","title":"Natural Breast Health Workshop","url":"http://peatix.com/event/372452","shortener_url":null,"started_at":"2018-04-21T15:00:00.000+09:00","ended_at":"2018-04-23T23:59:59.000+09:00","limit_number":null,"address":"809 French Road, Kitchener Complex, 200809 Singapore","place":"Activity Studio","lat":1.30841,"lon":103.862,"state":"active","id":null},{"event_id":"371864","title":"Gumbo Show ー「ばあちゃんの幸せレシピ展」開催記念トークイベントー","url":"http://peatix.com/event/371864","shortener_url":null,"started_at":"2018-04-19T19:00:00.000+09:00","ended_at":"2018-04-21T23:59:59.000+09:00","limit_number":null,"address":"江東区有明3丁目3−3 2F 武蔵野大学有明キャンパス3号館 2F3号館","place":"ロハスカフェARIAKE","lat":35.6304,"lon":139.787,"state":"active","id":null},{"event_id":"372085","title":"トラべリアン3rd flight わたしの旅とあなたの人生","url":"http://travelian.peatix.com","shortener_url":null,"started_at":"2018-04-14T12:00:00.000+09:00","ended_at":"2018-04-16T23:59:59.000+09:00","limit_number":null,"address":"台東区浅草橋5丁目2−10","place":"写真企画室 ホトリ","lat":35.6995,"lon":139.782,"state":"active","id":null},{"event_id":"371815","title":"Market \u0026 Picnic (14-15 Apr 2018)","url":"http://peatix.com/event/371815","shortener_url":null,"started_at":"2018-04-14T11:00:00.000+09:00","ended_at":"2018-04-16T23:59:59.000+09:00","limit_number":null,"address":"Lot 20, Jalan 3/2, Persiaran Bukit Takun, Templer Heights, Rawang, Selangor","place":"Mari House @ Templer Park","lat":3.30057,"lon":101.638,"state":"active","id":null},{"event_id":"371619","title":"「安定男子コンinいわき」2018年4月28日(土) 19:30-22:00","url":"http://peatix.com/event/371619","shortener_url":null,"started_at":"2018-04-28T19:30:00.000+09:00","ended_at":"2018-04-30T23:59:59.000+09:00","limit_number":null,"address":"いわき市平白銀町1−1","place":"魚民 いわき南口駅前店","lat":37.0571,"lon":140.893,"state":"active","id":null},{"event_id":"84235","title":"【参加枠増設】VR/AR スタートアップが考える未来 - TABI LABO TECH NIGHT","url":"https://tabilabo-tech-night.connpass.com/event/84235/","shortener_url":null,"started_at":"2018-04-24T19:00:00.000+09:00","ended_at":"2018-04-24T22:00:00.000+09:00","limit_number":50,"address":"東京都世田谷区池尻2丁目31-24 信田ビル2F","place":"BPM（TABI LABO イベントスペース）","lat":35.6501,"lon":139.684,"state":"active","id":null},{"event_id":"84685","title":"Plasma  #1","url":"https://plasma-research.connpass.com/event/84685/","shortener_url":null,"started_at":"2018-04-26T19:00:00.000+09:00","ended_at":"2018-04-26T21:00:00.000+09:00","limit_number":120,"address":"東京都千代田区麹町1-4-4","place":"LIFULL (8階)","lat":35.6844,"lon":139.743,"state":"active","id":null},{"event_id":"84866","title":"もくもく Google Code Jam 2018 Round 1 A","url":"https://enechange-meetup.connpass.com/event/84866/","shortener_url":null,"started_at":"2018-04-14T00:30:00.000+09:00","ended_at":"2018-04-14T03:30:00.000+09:00","limit_number":10,"address":"東京都千代田区大手町2-6-2 （日本ビル３Ｆ）","place":"エネチェンジ株式会社","lat":35.685,"lon":139.769,"state":"active","id":null},{"event_id":"84860","title":"[秋葉原] 第19回 ゆるふわIoT電子工作入門","url":"https://weeyble-iot.connpass.com/event/84860/","shortener_url":null,"started_at":"2018-04-15T13:00:00.000+09:00","ended_at":"2018-04-15T18:00:00.000+09:00","limit_number":8,"address":"東京都千代田区神田須田町２丁目１９−２３ (野村第３ビル ４階)","place":"コワーキングスペース秋葉原Weeyble","lat":35.6966,"lon":139.772,"state":"active","id":null},{"event_id":"84820","title":"【くまもとヒャッカソン】プリングルズイートアップ","url":"https://100kuma.connpass.com/event/84820/","shortener_url":null,"started_at":"2018-04-09T18:00:00.000+09:00","ended_at":"2018-04-09T20:00:00.000+09:00","limit_number":12,"address":"熊本市中央区世安町172","place":"びぷれす","lat":32.7895,"lon":130.69,"state":"active","id":null},{"event_id":"72976","title":"【無料】本当に伝わるプレゼンの作り方 ＠つくば #3","url":"https://swtsukuba.doorkeeper.jp/events/72976","shortener_url":null,"started_at":"2018-04-22T13:00:00.000+09:00","ended_at":"2018-04-22T16:00:00.000+09:00","limit_number":20,"address":"茨城県つくば市研究学園5-2-2 TOCO BLDG 2F","place":"VIA-A+","lat":36.0836,"lon":140.08,"state":"active","id":null},{"event_id":"373295","title":"078_interactive 【親子参加可能】Kidsアイデアソン！～アイデア創発の手法で”お出かけ”を新しく～","url":"http://peatix.com/event/373295","shortener_url":"https://goo.gl/kdCpj8","started_at":"2018-04-28T13:00:00.000+09:00","ended_at":"2018-04-30T23:59:59.000+09:00","limit_number":null,"address":"神戸市中央区小野浜町1−4","place":"デザイン・クリエイティブセンター(KIITO)　303","lat":34.6851,"lon":135.199,"state":"active","id":null},{"event_id":"372084","title":"SDGs Meetup Vol.4 ～SDGsカードゲーム『SDGs2030』の講師、黒井理恵が語るSDGsとは？ 　日本における課題とそれに対するアプローチ～","url":"http://peatix.com/event/372084","shortener_url":null,"started_at":"2018-04-13T14:00:00.000+09:00","ended_at":"2018-04-15T23:59:59.000+09:00","limit_number":null,"address":"渋谷区神南1-7-9 北谷マンション301","place":"株式会社カドベヤ","lat":35.6641,"lon":139.699,"state":"active","id":null},{"event_id":"372986","title":"【Incubate School 第1期】 Vol.2 VC資金調達のためのチームビルディング入門＜Sansan,cybozu,Gamewith等の創業期から支援するVCによる連続講座シリーズ＞","url":"http://incubateschool1-2.peatix.com","shortener_url":null,"started_at":"2018-04-24T19:00:00.000+09:00","ended_at":"2018-04-26T23:59:59.000+09:00","limit_number":null,"address":"〒107-6003 東京都港区赤坂1-12-32 アーク森ビル3F","place":"Incubate Fundオフィス","lat":35.6671,"lon":139.74,"state":"active","id":null},{"event_id":"372904","title":"【Incubate School 第1期】 Vol.1 VC資金調達のためのMVP入門＜Sansan,cybozu,Gamewith等の創業期から支援するVCによる連続講座シリーズ＞","url":"http://incubateschoo1-1.peatix.com","shortener_url":null,"started_at":"2018-04-17T19:00:00.000+09:00","ended_at":"2018-04-19T23:59:59.000+09:00","limit_number":null,"address":"〒107-6003 東京都港区赤坂1-12-32 アーク森ビル3F","place":"Incubate Fund","lat":35.6671,"lon":139.74,"state":"active","id":null},{"event_id":"373179","title":"東京【4/21（土）Tenro-In Night】本屋が主催の大学生交流パーティー！出版・本屋・コミュニティ作りに興味ある学生集合！天狼院スタッフも参加します！《初心者・一人参加大歓迎！》","url":"http://peatix.com/event/373179","shortener_url":null,"started_at":"2018-04-21T19:30:00.000+09:00","ended_at":"2018-04-23T23:59:59.000+09:00","limit_number":null,"address":"豊島区南池袋3丁目24−16","place":"東京天狼院","lat":35.7243,"lon":139.716,"state":"active","id":null},{"event_id":"371348","title":"宇佐美おときた「ゆるい政治」リアル勉強会　 テーマ『ネット報道とフェイクニュース』","url":"http://peatix.com/event/371348","shortener_url":null,"started_at":"2018-04-19T19:00:00.000+09:00","ended_at":"2018-04-21T23:59:59.000+09:00","limit_number":null,"address":"東京都港区六本木3-2-1","place":"DMM.com 24F セミナースペース","lat":35.6646,"lon":139.738,"state":"active","id":null},{"event_id":"373114","title":"東京【4/22（日）小説家養成ゼミオープン講座】小説家・額賀澪さんご登壇！〜「出版不況」と言われる今、若手小説家が「プロ」として生きていくために〜《初めての方大歓迎／天狼院書店》","url":"http://peatix.com/event/373114","shortener_url":null,"started_at":"2018-04-22T17:00:00.000+09:00","ended_at":"2018-04-24T23:59:59.000+09:00","limit_number":null,"address":"豊島区南池袋3丁目24−16","place":"東京天狼院","lat":35.7243,"lon":139.716,"state":"active","id":null},{"event_id":"373247","title":"東京【4/23（月）落語部】本屋で本格落語！本屋寄席〜立川小談志師匠〜飲み会やパーティーで使える簡単落語を学ぼう！《初心者・一人参加大歓迎！》","url":"http://peatix.com/event/373247","shortener_url":null,"started_at":"2018-04-23T19:30:00.000+09:00","ended_at":"2018-04-25T23:59:59.000+09:00","limit_number":null,"address":"豊島区南池袋3丁目24−16","place":"東京天狼院","lat":35.7243,"lon":139.716,"state":"active","id":null},{"event_id":"85038","title":"fukuoka.ex#8(福岡Elixir会)：2018年 春のElixir入学式","url":"https://fukuokaex.connpass.com/event/85038/","shortener_url":null,"started_at":"2018-04-20T19:00:00.000+09:00","ended_at":"2018-04-20T21:00:00.000+09:00","limit_number":28,"address":"福岡県福岡市中央区天神1-2-4 農業共済ビル3F奥","place":"カラビナテクノロジー株式会社 農済ビルオフィス","lat":33.5892,"lon":130.403,"state":"active","id":null},{"event_id":"84710","title":"[ICE POP Vol. 4] –  ADOBE x ICE Designer Meet Up","url":"https://sansan.connpass.com/event/84710/","shortener_url":null,"started_at":"2018-04-20T10:30:00.000+09:00","ended_at":"2018-04-20T13:00:00.000+09:00","limit_number":35,"address":"〒150-0001 東京都渋谷区神宮前５−５２−２ 青山オーバルビル 13F","place":"Sansan 株式会社","lat":35.6628,"lon":139.709,"state":"active","id":null},{"event_id":"85052","title":"hojiroアニクラ 〜#ホジクラ〜","url":"https://hojiro-lt.connpass.com/event/85052/","shortener_url":null,"started_at":"2018-04-21T15:30:00.000+09:00","ended_at":"2018-04-21T19:30:00.000+09:00","limit_number":15,"address":"〒120-0076 東京都足立区千住仲町1−2","place":"北千住 Gスクエア","lat":35.7447,"lon":139.798,"state":"active","id":null},{"event_id":"371252","title":"Special CCCJ-McGill Luncheon with McGill-Desautels MBA Students Visiting Tokyo--April 17th at the Canadian Embassy","url":"http://peatix.com/event/371252","shortener_url":null,"started_at":"2018-04-17T12:00:00.000+09:00","ended_at":"2018-04-19T23:59:59.000+09:00","limit_number":null,"address":"7 Chome-3-38 Akasaka, Minato","place":"Embassy of Canada","lat":35.6733,"lon":139.729,"state":"active","id":null},{"event_id":"373558","title":"RZP Family Academy Vol.1 簡単手作りクラッカー＆これさえあれば簡単おかず！","url":"http://rzpfamilyacademy01.peatix.com","shortener_url":null,"started_at":"2018-04-22T10:00:00.000+09:00","ended_at":"2018-04-24T23:59:59.000+09:00","limit_number":null,"address":"南大塚T\u0026Tビル, 東京 都 豊島 区 南 大塚 3 丁目 36−7, 3丁目-36-7 南大塚, 豊島区","place":"RYOZAN PARK大塚","lat":35.7306,"lon":139.727,"state":"active","id":null},{"event_id":"373311","title":"自分だけのオリジナルナイフをつくろう！","url":"http://peatix.com/event/373311","shortener_url":null,"started_at":"2018-04-21T10:00:00.000+09:00","ended_at":"2018-04-23T23:59:59.000+09:00","limit_number":null,"address":"東京都渋谷区宇田川町12-18","place":"東急ハンズ渋谷店","lat":35.662,"lon":139.698,"state":"active","id":null},{"event_id":"371943","title":"AllSグッズ通販 AllS official merchandize mail order","url":"http://alls0404mailorder.peatix.com","shortener_url":null,"started_at":"2018-04-15T23:00:00.000+09:00","ended_at":"2018-04-17T23:59:59.000+09:00","limit_number":null,"address":"Tokyo","place":"Tokyo","lat":0.0,"lon":0.0,"state":"active","id":null},{"event_id":"373463","title":"「逆算手帳」ビジョン作成ワークショップ（月曜夜）＠東京桜新町（2日間）","url":"http://peatix.com/event/373463","shortener_url":null,"started_at":"2018-04-23T19:30:00.000+09:00","ended_at":"2018-04-25T23:59:59.000+09:00","limit_number":null,"address":"東京都世田谷区用賀2-11-10 けやきアパートメント201","place":"木村税務会計事務所","lat":35.6296,"lon":139.639,"state":"active","id":null},{"event_id":"84124","title":"機械学習もくもく会＃２","url":"https://ngk-moku.connpass.com/event/84124/","shortener_url":null,"started_at":"2018-04-17T18:30:00.000+09:00","ended_at":"2018-04-17T20:30:00.000+09:00","limit_number":15,"address":"愛知県名古屋市天白区塩釜口2-1403（アーバンドエル塩釜口６F)","place":"株式会社creatoオフィス内（６F)","lat":35.1321,"lon":136.978,"state":"active","id":null},{"event_id":"373967","title":"Live English Standup Comedy Show in Tokyo","url":"http://peatix.com/event/373967","shortener_url":null,"started_at":"2018-04-28T19:30:00.000+09:00","ended_at":"2018-04-30T23:59:59.000+09:00","limit_number":null,"address":"東京都墨田区東駒形 2-20-10","place":"浅草スマイルバー","lat":0.0,"lon":0.0,"state":"active","id":null},{"event_id":"85253","title":"【学生限定】アップルップルのWeb技術の学び方講座 OthloEvent#29","url":"https://othlotech.connpass.com/event/85253/","shortener_url":null,"started_at":"2018-04-29T14:00:00.000+09:00","ended_at":"2018-04-29T18:00:00.000+09:00","limit_number":24,"address":"愛知県名古屋市中村区名駅3丁目18-5 (モンマートビル5F)","place":"ベースキャンプ名古屋","lat":35.1728,"lon":136.887,"state":"active","id":null},{"event_id":"374132","title":"歌舞伎町観察ツアー04.21","url":"http://peatix.com/event/374132","shortener_url":null,"started_at":"2018-04-21T20:00:00.000+09:00","ended_at":"2018-04-23T23:59:59.000+09:00","limit_number":null,"address":"歌舞伎町","place":"歌舞伎町","lat":0.0,"lon":0.0,"state":"active","id":null},{"event_id":"374134","title":"歌舞伎町観察ツアー04.28","url":"http://peatix.com/event/374134","shortener_url":null,"started_at":"2018-04-28T20:00:00.000+09:00","ended_at":"2018-04-30T23:59:59.000+09:00","limit_number":null,"address":"歌舞伎町","place":"歌舞伎町","lat":0.0,"lon":0.0,"state":"active","id":null},{"event_id":"96213","title":"第55回よちよちAndroid名古屋支部オフライン開発ミーティング","url":"https://atnd.org/events/96213","shortener_url":null,"started_at":"2018-04-22T00:00:00.000+09:00","ended_at":"2018-04-22T03:00:00.000+09:00","limit_number":null,"address":"名古屋市中区栄三丁目18番1号 ナディアパーク デザインセンタービル6階","place":"名古屋市市民活動推進センター","lat":35.1654,"lon":136.905,"state":"closed","id":null},{"event_id":"374595","title":"Crackhouse Comedy Presents : Ro Campbel (AU)","url":"http://rodoescrack.peatix.com","shortener_url":null,"started_at":"2018-04-20T22:00:00.000+09:00","ended_at":"2018-04-22T23:59:59.000+09:00","limit_number":null,"address":"24A (1st Floor) Lorong Rahim Kajai 14, Taman Tun Dr. Ismail, 60000 Kuala Lumpur","place":"The Crackhouse Comedy Club KL","lat":3.15478,"lon":101.623,"state":"active","id":null},{"event_id":"85488","title":"【初心者歓迎】WordPressもくもく勉強会@神保町 #2","url":"https://connpass.com/event/85488/","shortener_url":null,"started_at":"2018-04-28T12:30:00.000+09:00","ended_at":"2018-04-28T16:30:00.000+09:00","limit_number":5,"address":" 東京都千代田区神田神保町1-19","place":"すずらん通りT\u0026Aビル4F","lat":35.6952,"lon":139.76,"state":"active","id":null},{"event_id":"96240","title":"第302回 よちよちAndroid オフライン開発ミーティング in 大崎","url":"https://atnd.org/events/96240","shortener_url":null,"started_at":"2018-04-22T01:00:00.000+09:00","ended_at":"2018-04-22T03:00:00.000+09:00","limit_number":null,"address":"東京都品川区大崎1-11-1","place":"ゲートシティ大崎B1アトリウムフリー座席","lat":35.6194,"lon":139.731,"state":"closed","id":null},{"event_id":"374740","title":"季節のフルーツで保存食\u0026デザート作り〜春の気の巡り食養生〜 ランチ付き","url":"http://peatix.com/event/374740","shortener_url":null,"started_at":"2018-04-22T11:00:00.000+09:00","ended_at":"2018-04-24T23:59:59.000+09:00","limit_number":null,"address":"原宿駅  ※ 正確な住所は予約が承認されるとマイページに表示されます","place":"junikoさんの食卓","lat":0.0,"lon":0.0,"state":"active","id":null},{"event_id":"374683","title":"「SDGs Meetup Vol.5 〜SDGsとは？！ピックアップテーマ　目標15: 陸の豊かさも守ろう〜」","url":"http://peatix.com/event/374683","shortener_url":null,"started_at":"2018-04-25T19:00:00.000+09:00","ended_at":"2018-04-27T23:59:59.000+09:00","limit_number":null,"address":"渋谷区 渋谷2-22-6 10F","place":"POINT EDGE ShibuyaBASE","lat":35.6585,"lon":139.704,"state":"active","id":null},{"event_id":"375233","title":"We Are 4! The Altim4te Expedition - 20 APR 2018","url":"http://expedition-altim4te.peatix.com","shortener_url":null,"started_at":"2018-04-20T23:00:00.000+09:00","ended_at":"2018-04-22T23:59:59.000+09:00","limit_number":null,"address":"Level 61, 1 Raffles Place","place":"Altimate","lat":1.28449,"lon":103.851,"state":"active","id":null},{"event_id":"84703","title":"【4/25】水曜ワトソンカフェvol.8 「DSXからWatson Studioへ最新動向」","url":"https://bmxug.connpass.com/event/84703/","shortener_url":null,"started_at":"2018-04-25T19:00:00.000+09:00","ended_at":"2018-04-25T21:30:00.000+09:00","limit_number":53,"address":"東京都千代田区大手町1-1-1大手町パークビルディング8F","place":"Splunk Services Japan","lat":35.6868,"lon":139.763,"state":"active","id":null},{"event_id":"84390","title":"【大阪工業大学】第13回 梅キャンIoT勉強会【梅田キャンパス】","url":"https://studygroup-umecanoit.connpass.com/event/84390/","shortener_url":null,"started_at":"2018-04-24T19:00:00.000+09:00","ended_at":"2018-04-24T20:00:00.000+09:00","limit_number":45,"address":"大阪府大阪市北区茶屋町1-45 8F","place":"大阪工業大学梅田キャンパス 8F ロボティクス\u0026デザインセンター","lat":34.7074,"lon":135.499,"state":"active","id":null},{"event_id":"72821","title":"いわみくと MeetUp！vol.27（いわみICT協議会定例会 ）","url":"https://iwami-ict.doorkeeper.jp/events/72821","shortener_url":null,"started_at":"2018-04-27T18:30:00.000+09:00","ended_at":"2018-04-27T20:00:00.000+09:00","limit_number":40,"address":"島根県浜田市黒川町3748番地1","place":"浜田市立中央図書館多目的ホール","lat":34.6773,"lon":131.839,"state":"active","id":null},{"event_id":"375447","title":"mSite Certification Study Jam","url":"http://peatix.com/event/375447","shortener_url":null,"started_at":"2018-04-21T14:00:00.000+09:00","ended_at":"2018-04-23T23:59:59.000+09:00","limit_number":null,"address":"08-20/28, TripleOne Somerset, 111 Somerset Road","place":"PropertyGuru","lat":1.30019,"lon":103.837,"state":"active","id":null},{"event_id":"375809","title":"４/２６（木）どっちが好き？濃厚VSさっぱり〜 写真に撮りたくなるチーズケーキを作ろう！","url":"http://peatix.com/event/375809","shortener_url":null,"started_at":"2018-04-26T13:30:00.000+09:00","ended_at":"2018-04-28T23:59:59.000+09:00","limit_number":null,"address":"江東区有明3丁目11−1","place":"東京ビッグサイト","lat":35.6298,"lon":139.794,"state":"active","id":null},{"event_id":"375252","title":"Women Techmakers Kuala Lumpur - Global Event Series Celebrating International Women's Day 2018","url":"http://wtmkl18.peatix.com","shortener_url":null,"started_at":"2018-04-28T09:00:00.000+09:00","ended_at":"2018-04-30T23:59:59.000+09:00","limit_number":null,"address":"Block 3750, Persiaran Apec, Cyber 8, Cyberjaya","place":"Cyberview Sdn Bhd","lat":0.0,"lon":0.0,"state":"active","id":null},{"event_id":"373655","title":"Tokyo International Party Nightlife Nightclub Allnight Adventure Tourists Travelers Roppongi DiA Club pub bar crawl Disco Dance Aitai Party and Meetup attraction discount coupon 国際交流パーティー 六本木クラブ ゲスト無料入場 (Free entry) L: Free 1 Drink (April20)","url":"http://tokyo-international-aitai-dia-party-nightlife-nightclub-roppongi.peatix.com","shortener_url":null,"started_at":"2018-04-20T23:55:00.000+09:00","ended_at":"2018-04-22T23:59:59.000+09:00","limit_number":null,"address":"港区六本木3丁目8−15","place":"DiA tokyo","lat":35.6633,"lon":139.734,"state":"active","id":null},{"event_id":"374945","title":"GOLDEN WEEK PUB CRAWL! Kick-Off! ( FRI) ゴールデンウイーク・パーティー（金）","url":"http://peatix.com/event/374945","shortener_url":null,"started_at":"2018-04-27T19:00:00.000+09:00","ended_at":"2018-04-29T23:59:59.000+09:00","limit_number":null,"address":"大阪市中央区東心斎橋2-5-27","place":"The Blarney Stone (B1F)","lat":34.6718,"lon":135.504,"state":"active","id":null},{"event_id":"374609","title":"ノンスモーカー限定「社会人男子コンinつくば」2018年5月13日(日) 14:00-16:30","url":"http://peatix.com/event/374609","shortener_url":null,"started_at":"2018-04-28T14:00:00.000+09:00","ended_at":"2018-04-30T23:59:59.000+09:00","limit_number":null,"address":"茨城県つくば市吾妻1-5-3","place":"月の宴　つくばクレオスクエアＭＯＧ店","lat":36.0815,"lon":140.111,"state":"active","id":null},{"event_id":"375886","title":"Founders Drink Johor - April 2018 - ft IRDA","url":"http://foundersdrink.peatix.com","shortener_url":null,"started_at":"2018-04-27T20:00:00.000+09:00","ended_at":"2018-04-29T23:59:59.000+09:00","limit_number":null,"address":"Lot PTD 199241, Mukim Pulai Daerah, Johor Bahru, Nusajaya","place":"Sunway Iskandar Sales Gallery","lat":1.39132,"lon":103.637,"state":"active","id":null},{"event_id":"375664","title":"【関西 4/27(金)】月に一度の本屋の飲み会！　TENRO-IN FESTA！　4月のテーマは「何でも一年生、集まれー！！！」4月誕生日会もやります！　どなたでもご参加歓迎！《お食事・飲み放題付き》","url":"http://peatix.com/event/375664","shortener_url":null,"started_at":"2018-04-27T19:30:00.000+09:00","ended_at":"2018-04-29T23:59:59.000+09:00","limit_number":null,"address":"京都市東山区 博多町112-5","place":"京都天狼院","lat":35.0017,"lon":135.773,"state":"active","id":null},{"event_id":"374881","title":"第22朝　オオサカ読書会　4/22朝開催！","url":"http://peatix.com/event/374881","shortener_url":null,"started_at":"2018-04-22T09:30:00.000+09:00","ended_at":"2018-04-24T23:59:59.000+09:00","limit_number":null,"address":"大阪市北区梅田","place":"大阪・梅田の喫茶店","lat":34.7034,"lon":135.498,"state":"active","id":null},{"event_id":"372560","title":"自分らしさを科学する-manabyLABO-","url":"http://manabylabo.peatix.com","shortener_url":null,"started_at":"2018-04-20T18:00:00.000+09:00","ended_at":"2018-04-22T23:59:59.000+09:00","limit_number":null,"address":"東京都渋谷区恵比寿西 1-33-18 コート代官山B1","place":"GOBLIN. 代官山店","lat":35.6468,"lon":139.703,"state":"active","id":null},{"event_id":"376571","title":"【1080円】忙しすぎの管理職＆リーダーへ！　効果的なチーム作り、ビジネス＆組織力UPのために","url":"http://peatix.com/event/376571","shortener_url":null,"started_at":"2018-04-20T17:00:00.000+09:00","ended_at":"2018-04-22T23:59:59.000+09:00","limit_number":null,"address":"東京都港区西麻布2-26-4HOWA西麻布204","place":"ダイアネティックスセンター赤坂","lat":35.66,"lon":139.72,"state":"active","id":null},{"event_id":"85875","title":"「SDGs Meetup #5 〜SDGsとは？！」","url":"https://future-tech-association.connpass.com/event/85875/","shortener_url":null,"started_at":"2018-04-25T10:00:00.000+09:00","ended_at":"2018-04-25T12:00:00.000+09:00","limit_number":15,"address":"東京都中央区日本橋室町1−5−3 福島ビル3F","place":"株式会社オフィスバスターズ","lat":35.6858,"lon":139.774,"state":"active","id":null},{"event_id":"85016","title":"ラズパイオーディオハンズオン in 中野","url":"https://raspiaudio.connpass.com/event/85016/","shortener_url":null,"started_at":"2018-04-28T18:00:00.000+09:00","ended_at":"2018-04-28T19:00:00.000+09:00","limit_number":16,"address":"東京都中野区新井2-3-10（平井ビル202号室）","place":"株式会社インプリム","lat":35.7111,"lon":139.664,"state":"active","id":null},{"event_id":"86186","title":"ぶるぶる、ふわふわ、カチカチ。触覚をハックする。「ショッカソン」in札幌　meetup会","url":"https://shokkason.connpass.com/event/86186/","shortener_url":null,"started_at":"2018-04-28T13:00:00.000+09:00","ended_at":"2018-04-28T16:00:00.000+09:00","limit_number":13,"address":"札幌市中央区南2条東2丁目7-1 SALMON 2F","place":"ジョブイエ","lat":43.0593,"lon":141.359,"state":"active","id":null},{"event_id":"376990","title":"４/２８（土）どっちが好き？濃厚VSさっぱり〜 写真に撮りたくなるチーズケーキを作ろう！","url":"http://peatix.com/event/376990","shortener_url":null,"started_at":"2018-04-28T10:30:00.000+09:00","ended_at":"2018-04-30T23:59:59.000+09:00","limit_number":null,"address":"江東区有明3丁目11−1","place":"東京ビックサイト","lat":35.63,"lon":139.794,"state":"active","id":null},{"event_id":"377016","title":"東京【4/29（日）】「笑う数学」トークイベント〜タカタ先生がお届けする、爆笑数学ネタ\u0026明日誰かに話したくなる数学雑学\u0026楽しくてタメになる数学ワークショップ《初心者・一人参加大歓迎》","url":"http://peatix.com/event/377016","shortener_url":null,"started_at":"2018-04-29T19:30:00.000+09:00","ended_at":"2018-05-01T23:59:59.000+09:00","limit_number":null,"address":"豊島区南池袋3丁目24−16","place":"東京天狼院","lat":35.7243,"lon":139.716,"state":"active","id":null},{"event_id":"377352","title":"【オンライン２２時】落ち着きのない子、車酔いをする子は両眼検眼を〜人は脳で見ている！！","url":"http://peatix.com/event/377352","shortener_url":null,"started_at":"2018-04-27T22:00:00.000+09:00","ended_at":"2018-04-29T23:59:59.000+09:00","limit_number":null,"address":"オンライン","place":"オンライン（ご自宅で参加できます）","lat":0.0,"lon":0.0,"state":"active","id":null},{"event_id":"377595","title":"★ GOLDEN WEEK KICK OFF！ゴールデンウイーク・キックオフ パーティー（金）★","url":"http://peatix.com/event/377595","shortener_url":null,"started_at":"2018-04-27T19:00:00.000+09:00","ended_at":"2018-04-29T23:59:59.000+09:00","limit_number":null,"address":"東京都港区六本木3-14-9 ユア六本木2F","place":"Bar Propaganda (2F)","lat":35.6623,"lon":139.735,"state":"active","id":null},{"event_id":"86526","title":"【大阪】xRもくもく会  #4","url":"https://osaka-driven-dev.connpass.com/event/86526/","shortener_url":null,"started_at":"2018-04-28T06:30:00.000+09:00","ended_at":"2018-04-28T09:30:00.000+09:00","limit_number":6,"address":"大阪市中央区本町4丁目7-7-303","place":"Kiiiya Hommachi","lat":34.6849,"lon":135.498,"state":"active","id":null},{"event_id":"83839","title":"Microsoft HoloLens体験会 In PLY Osaka 2018/04/26","url":"https://osaka-driven-dev.connpass.com/event/83839/","shortener_url":null,"started_at":"2018-04-26T02:00:00.000+09:00","ended_at":"2018-04-26T04:00:00.000+09:00","limit_number":10,"address":"〒540-0001 大阪府大阪市中央区城見２丁目２−６","place":"FUJITSU Knowledgeable Integration Base PLY OSAKA","lat":34.693,"lon":135.532,"state":"active","id":null},{"event_id":"377956","title":"自分だけのオリジナルナイフをつくろう！","url":"http://peatix.com/event/377956","shortener_url":null,"started_at":"2018-04-29T11:00:00.000+09:00","ended_at":"2018-05-01T23:59:59.000+09:00","limit_number":null,"address":"大阪府大阪市北区梅田3丁目1−1","place":"東急ハンズ 梅田店","lat":34.7026,"lon":135.496,"state":"active","id":null},{"event_id":"378113","title":"【4/30(月祝) 天狼院パーフェクト・ポートレート講座特別編】その人史上最高の1枚を撮る「パーフェクト・ポートレート講座」 ！プロ指導の下、旅先でモデル撮影会＠湘南　江の島《初参加大歓迎》","url":"http://peatix.com/event/378113","shortener_url":null,"started_at":"2018-04-30T13:00:00.000+09:00","ended_at":"2018-05-02T23:59:59.000+09:00","limit_number":null,"address":"藤沢市片瀬海岸2-15-3","place":"片瀬江ノ島駅","lat":35.3089,"lon":139.484,"state":"active","id":null},{"event_id":"96351","title":"Hachioji.pm #71 〜昼間にやってみんとす〜","url":"https://atnd.org/events/96351","shortener_url":null,"started_at":"2018-04-28T04:00:00.000+09:00","ended_at":"2018-04-30T23:59:59.000+09:00","limit_number":16,"address":"東京都八王子市旭町","place":"未定","lat":35.6572,"lon":139.341,"state":"closed","id":null},{"event_id":"378770","title":"078interactive_VRワークショップ「未来のホログラム体験を考えよう」","url":"http://peatix.com/event/378770","shortener_url":null,"started_at":"2018-04-28T10:00:00.000+09:00","ended_at":"2018-04-30T23:59:59.000+09:00","limit_number":null,"address":"神戸市中央区小野浜町1−4","place":"デザイン・クリエイティブセンター神戸（KIITO）","lat":34.6851,"lon":135.199,"state":"active","id":null},{"event_id":"85089","title":"【サポーターズCoLab勉強会】エンジニアのためのプレゼン勉強会「資料作成編」","url":"https://supporterz-seminar.connpass.com/event/85089/","shortener_url":null,"started_at":"2018-04-27T19:30:00.000+09:00","ended_at":"2018-04-27T21:30:00.000+09:00","limit_number":20,"address":"東京都渋谷区道玄坂1-9-5","place":"渋谷スクエアA 11F","lat":35.6573,"lon":139.699,"state":"active","id":null},{"event_id":"84370","title":"【サポーターズCoLab勉強会】ラム缶＆サバ缶屋スカイアーチのサーバレス案件事例","url":"https://supporterz-seminar.connpass.com/event/84370/","shortener_url":null,"started_at":"2018-04-26T19:30:00.000+09:00","ended_at":"2018-04-26T21:00:00.000+09:00","limit_number":20,"address":"東京都渋谷区道玄坂1-9-5","place":"渋谷スクエアA 11F","lat":35.6573,"lon":139.699,"state":"active","id":null}]