[{"event_id":"336305","title":"【先行販売】IBTが主催する『大人の写真文化祭』2018","url":"http://peatix.com/event/336305","shortener_url":"https://goo.gl/3LGjsS","started_at":"2018-12-01T10:00:00.000+09:00","ended_at":"2018-12-04T08:59:59.000+09:00","limit_number":null,"address":"大阪市東住吉区矢田1-5-9","place":"日本写真映像専門学校","lat":34.6072,"lon":135.528,"state":"active","id":null},{"event_id":"314625","title":"Emerald Hill Walking Tour  ","url":"http://eh0712.peatix.com","shortener_url":null,"started_at":"2018-12-07T10:00:00.000+09:00","ended_at":"2018-12-10T08:59:59.000+09:00","limit_number":null,"address":"Emerald Hill Road","place":"Emerald Hill Singapore","lat":1.30373,"lon":103.84,"state":"active","id":null},{"event_id":"401224","title":"December Success Academy (Chinese)","url":"http://sa-12.peatix.com","shortener_url":null,"started_at":"2018-12-01T10:00:00.000+09:00","ended_at":"2018-12-04T08:59:59.000+09:00","limit_number":null,"address":"1 Raffles Boulevard, Suntec City","place":"Suntec Singapore Convention \u0026 Exhibition Centre","lat":1.29369,"lon":103.857,"state":"active","id":null},{"event_id":"352648","title":"MIDORINOMARU 2018 ワンマンライブ","url":"http://midorinomaru2018.peatix.com","shortener_url":null,"started_at":"2018-12-03T18:30:00.000+09:00","ended_at":"2018-12-06T08:59:59.000+09:00","limit_number":null,"address":"港区 南青山4−9−1シンプル青山ビルB1F","place":"月見ル君想フ","lat":35.6674,"lon":139.718,"state":"active","id":null},{"event_id":"405667","title":"H³ 第十九回：医療者のための人工知能/機械学習入門","url":"http://hhh19.peatix.com","shortener_url":"https://goo.gl/smwsep","started_at":"2018-12-20T19:00:00.000+09:00","ended_at":"2018-12-23T08:59:59.000+09:00","limit_number":null,"address":"東京都中央区日本橋本町2-3-11","place":" 日本橋ライフサイエンスビル","lat":35.6877,"lon":139.776,"state":"active","id":null},{"event_id":"422510","title":"Monthly Tantra Practice Circle","url":"http://monthlytantra3.peatix.com","shortener_url":null,"started_at":"2018-12-01T05:00:00.000+09:00","ended_at":"2018-12-03T08:59:59.000+09:00","limit_number":null,"address":"Irving Pl, #01-21, Singapore 369546","place":"The Commerze @ Irving","lat":1.33607,"lon":103.887,"state":"active","id":null},{"event_id":"431100","title":"第6回 さぶみっと！ヨクスル in 名古屋【2018年12月20日(木)開催】","url":"http://peatix.com/event/431100","shortener_url":null,"started_at":"2018-12-20T19:00:00.000+09:00","ended_at":"2018-12-23T08:59:59.000+09:00","limit_number":null,"address":"名古屋市中村区名駅4-5-28 桜通豊田ビル15階","place":" Craft Base","lat":35.1713,"lon":136.887,"state":"active","id":null},{"event_id":"431087","title":"第6回 さぶみっと！ヨクスル in 仙台【2018年11月30日(金)開催】","url":"http://peatix.com/event/431087","shortener_url":null,"started_at":"2018-12-01T04:00:00.000+09:00","ended_at":"2018-12-03T08:59:59.000+09:00","limit_number":null,"address":"仙台市 青葉区一番町4丁目1−3","place":"仙台市市民活動サポートセンター","lat":38.263,"lon":140.873,"state":"active","id":null},{"event_id":"101474","title":"海外で働きたいエンジニア集合！初心者歓迎！セブ島で開発合宿 by NexSeed様 x GAOGAO","url":"https://gaogao.connpass.com/event/101474/","shortener_url":"https://goo.gl/LiufNN","started_at":"2018-12-08T13:00:00.000+09:00","ended_at":"2018-12-09T18:00:00.000+09:00","limit_number":26,"address":"東京都渋谷区道玄坂1-9-5 渋谷スクエアA　11F ","place":"サポーターズ様レンタルスペース","lat":35.6573,"lon":139.7,"state":"active","id":null},{"event_id":"80178","title":"【世界初】Startup Weekend Tokyo Hanoi@Framgia","url":"https://swtokyo.doorkeeper.jp/events/80178","shortener_url":null,"started_at":"2018-12-07T18:00:00.000+09:00","ended_at":"2018-12-09T21:00:00.000+09:00","limit_number":40,"address":"13F Keangnam Hanoi Landmark 72 Tower, Plot E6, Pham Hung Road, Nam Tu Liem Dist., Ha Noi, Vietnam","place":"フランジア","lat":21.0166,"lon":105.784,"state":"active","id":null},{"event_id":"435205","title":"12月23日(日)18:00～★ 青山【シングル限定】優雅なセレブラウンジでGaitomo国際交流パーティー","url":"http://peatix.com/event/435205","shortener_url":null,"started_at":"2018-12-23T18:00:00.000+09:00","ended_at":"2018-12-26T08:59:59.000+09:00","limit_number":null,"address":"港区北青山3丁目2−5 2F NH青山ビル","place":"青山 ラウンジ クラブ","lat":35.6689,"lon":139.715,"state":"active","id":null},{"event_id":"435200","title":"12月9日(日)18:00～★ 銀座 国際結婚したい人の為のGaitomo国際交流パーティー","url":"http://peatix.com/event/435200","shortener_url":null,"started_at":"2018-12-09T18:00:00.000+09:00","ended_at":"2018-12-12T08:59:59.000+09:00","limit_number":null,"address":"中央区銀座5丁目9−13 菊正ビル9F","place":"パーティプラネット「銀座ＰＰサロン」-貸切ダイニング-","lat":35.6699,"lon":139.765,"state":"active","id":null},{"event_id":"437387","title":"【参加者募集】スポーツ栄養講座「トップ選手になるために、子どもの好き嫌いをなくすには」","url":"http://peatix.com/event/437387","shortener_url":null,"started_at":"2018-12-10T13:00:00.000+09:00","ended_at":"2018-12-13T08:59:59.000+09:00","limit_number":null,"address":"東京都中央区築地3-5-10","place":"日刊スポーツ新聞社","lat":35.668,"lon":139.774,"state":"active","id":null},{"event_id":"437579","title":"Mall Grab Japan Tour 2018 in Tokyo","url":"http://mallgrabtokyo.peatix.com","shortener_url":null,"started_at":"2018-12-07T23:00:00.000+09:00","ended_at":"2018-12-10T08:59:59.000+09:00","limit_number":null,"address":"渋谷区渋谷3丁目26−16 1F/B1F 第五叶ビル","place":"Circus Tokyo","lat":35.6542,"lon":139.706,"state":"active","id":null},{"event_id":"437094","title":"アドビ合宿 in 台湾","url":"http://adobeintw.peatix.com","shortener_url":null,"started_at":"2018-12-19T00:00:00.000+09:00","ended_at":"2018-12-21T08:59:59.000+09:00","limit_number":null,"address":"台湾","place":"台湾","lat":0.0,"lon":0.0,"state":"active","id":null},{"event_id":"437782","title":"第54回こんぼ亭月例会「自分・家族・支援者も！だれでもリカバリーできる！」","url":"http://peatix.com/event/437782","shortener_url":null,"started_at":"2018-12-08T13:00:00.000+09:00","ended_at":"2018-12-11T08:59:59.000+09:00","limit_number":null,"address":"東京都江東区森下3-12-17","place":"森下文化センター　多目的ホール","lat":35.6852,"lon":139.802,"state":"active","id":null},{"event_id":"442232","title":"Hybrid Minds Japan Tour in Tokyo\"CIRCUS loves Drum\u0026bass\"","url":"http://peatix.com/event/442232","shortener_url":null,"started_at":"2018-12-15T23:00:00.000+09:00","ended_at":"2018-12-18T08:59:59.000+09:00","limit_number":null,"address":"渋谷区渋谷3丁目26−16 1F/B1F 第五叶ビル","place":"Circus Tokyo","lat":35.6542,"lon":139.706,"state":"active","id":null},{"event_id":"441390","title":"#僕らのSnapmart　非公式撮影オフ会 Part2　季節感＆ビジネスシーンの撮影会","url":"http://oursnapmart02.peatix.com","shortener_url":null,"started_at":"2018-12-01T09:25:00.000+09:00","ended_at":"2018-12-04T08:59:59.000+09:00","limit_number":null,"address":"東京都渋谷区円山町20-1 新大宗円山ビル9F","place":"TABIPPOオフィス","lat":35.6563,"lon":139.695,"state":"active","id":null},{"event_id":"442312","title":"12月15日（土）クラウドファンディングで始める創業スタイル","url":"http://181215crowd.peatix.com","shortener_url":null,"started_at":"2018-12-15T09:10:00.000+09:00","ended_at":"2018-12-18T08:59:59.000+09:00","limit_number":null,"address":"横浜市中区海岸通1-1","place":"波止場会館　３Ｆ小会議室Ｃ","lat":35.4484,"lon":139.645,"state":"active","id":null},{"event_id":"103624","title":"Yahoo! JAPAN Hack Day 2018 ハッカソン（生配信あり）","url":"https://hackday.connpass.com/event/103624/","shortener_url":"https://goo.gl/xakE1b","started_at":"2018-12-15T12:00:00.000+09:00","ended_at":"2018-12-16T18:00:00.000+09:00","limit_number":411,"address":"東京都千代田区外神田四丁目14-1","place":"秋葉原UDX","lat":35.7005,"lon":139.773,"state":"active","id":null},{"event_id":"444783","title":"【参加費無料・懇親会あり】管理職ゼロの組織が実践する新しい目標管理の形とは？","url":"http://peatix.com/event/444783","shortener_url":null,"started_at":"2018-12-05T19:00:00.000+09:00","ended_at":"2018-12-08T08:59:59.000+09:00","limit_number":null,"address":"台東区浅草橋5丁目20−8 CSタワー7階","place":"ISAO","lat":35.7014,"lon":139.781,"state":"active","id":null},{"event_id":"445635","title":"New Crack #11 - A Work in Progress Show for the Big Guns of Comedy","url":"http://newcrack11dec.peatix.com","shortener_url":null,"started_at":"2018-12-11T22:00:00.000+09:00","ended_at":"2018-12-14T08:59:59.000+09:00","limit_number":null,"address":"Rahim Kajai 14, Taman Tun Dr Ismail, Kuala Lumpur","place":"Crack House Comedy Club","lat":3.15478,"lon":101.623,"state":"active","id":null},{"event_id":"445639","title":"New Crack #13 - A Work in Progress Show for the Big Guns of Comedy","url":"http://christmascrack.peatix.com","shortener_url":null,"started_at":"2018-12-25T22:00:00.000+09:00","ended_at":"2018-12-28T08:59:59.000+09:00","limit_number":null,"address":"Rahim Kajai 14, Taman Tun Dr Ismail, Kuala Lumpur","place":"Crack House Comedy Club","lat":3.15478,"lon":101.623,"state":"active","id":null},{"event_id":"445634","title":"New Crack #10 - A Work in Progress Show for the Big Guns of Comedy","url":"http://newcrack4dec.peatix.com","shortener_url":null,"started_at":"2018-12-04T22:00:00.000+09:00","ended_at":"2018-12-07T08:59:59.000+09:00","limit_number":null,"address":"Rahim Kajai 14, Taman Tun Dr Ismail, Kuala Lumpur","place":"Crack House Comedy Club","lat":3.15478,"lon":101.623,"state":"active","id":null},{"event_id":"445637","title":"New Crack #12 - A Work in Progress Show for the Big Guns of Comedy","url":"http://newcrack18dec.peatix.com","shortener_url":null,"started_at":"2018-12-18T22:00:00.000+09:00","ended_at":"2018-12-21T08:59:59.000+09:00","limit_number":null,"address":"Rahim Kajai 14, Taman Tun Dr Ismail, Kuala Lumpur","place":"Crack House Comedy Club","lat":3.15478,"lon":101.623,"state":"active","id":null},{"event_id":"445677","title":"Crackhouse Comedy Presents : Jinx Yeo (SG)","url":"http://crookedcrack.peatix.com","shortener_url":null,"started_at":"2018-12-07T22:00:00.000+09:00","ended_at":"2018-12-10T08:59:59.000+09:00","limit_number":null,"address":"24A (1st Floor) Lorong Rahim Kajai 14, Taman Tun Dr. Ismail, 60000 Kuala Lumpur","place":"The Crackhouse Comedy Club KL","lat":3.15478,"lon":101.623,"state":"active","id":null},{"event_id":"445682","title":"Crackhouse Comedy Presents : Sam Taunton (AU)","url":"http://samtauntoncrack.peatix.com","shortener_url":null,"started_at":"2018-12-14T22:00:00.000+09:00","ended_at":"2018-12-17T08:59:59.000+09:00","limit_number":null,"address":"24A (1st Floor) Lorong Rahim Kajai 14, Taman Tun Dr. Ismail, 60000 Kuala Lumpur","place":"The Crackhouse Comedy Club KL","lat":3.15478,"lon":101.623,"state":"active","id":null},{"event_id":"445654","title":"Crackhouse Comedy Open-Mic Night | Open-Crack!","url":"http://opencrack26dec.peatix.com","shortener_url":null,"started_at":"2018-12-26T22:00:00.000+09:00","ended_at":"2018-12-29T08:59:59.000+09:00","limit_number":null,"address":"24A, 1st Floor, Lorong Rahim Kajai 14, Taman Tun Dr. Ismail, 60000 Kuala Lumpur","place":"The Crackhouse Comedy Club KL","lat":3.15493,"lon":101.623,"state":"active","id":null},{"event_id":"445650","title":"Crackhouse Comedy Open-Mic Night | Open-Crack!","url":"http://opencrack12dec.peatix.com","shortener_url":null,"started_at":"2018-12-12T22:00:00.000+09:00","ended_at":"2018-12-15T08:59:59.000+09:00","limit_number":null,"address":"24A, 1st Floor, Lorong Rahim Kajai 14, Taman Tun Dr. Ismail, 60000 Kuala Lumpur","place":"The Crackhouse Comedy Club KL","lat":3.15493,"lon":101.623,"state":"active","id":null},{"event_id":"445653","title":"Crackhouse Comedy Open-Mic Night | Open-Crack!","url":"http://opencrack19dec.peatix.com","shortener_url":null,"started_at":"2018-12-19T22:00:00.000+09:00","ended_at":"2018-12-22T08:59:59.000+09:00","limit_number":null,"address":"24A, 1st Floor, Lorong Rahim Kajai 14, Taman Tun Dr. Ismail, 60000 Kuala Lumpur","place":"The Crackhouse Comedy Club KL","lat":3.15493,"lon":101.623,"state":"active","id":null},{"event_id":"104760","title":"SHIMANE GREEN JAM #4","url":"https://sgj.connpass.com/event/104760/","shortener_url":null,"started_at":"2018-12-29T15:00:00.000+09:00","ended_at":"2018-12-29T18:00:00.000+09:00","limit_number":null,"address":"島根県松江市朝日町498番地 松江センタービル","place":"ファーエンドテクノロジー株式会社","lat":35.4645,"lon":133.06,"state":"active","id":null},{"event_id":"104704","title":"プリッカソン #6 (プリリズ/プリパラ/プリチャン)","url":"https://prickathon.connpass.com/event/104704/","shortener_url":"https://goo.gl/w7jLiH","started_at":"2018-12-02T10:00:00.000+09:00","ended_at":"2018-12-02T20:00:00.000+09:00","limit_number":null,"address":"東京都渋谷区神泉町8-16 渋谷ファーストプレイス8F","place":"株式会社VOYAGE 渋谷ファーストプレイスオフィス","lat":35.6553,"lon":139.694,"state":"active","id":null},{"event_id":"445649","title":"Crackhouse Comedy Open-Mic Night | Open-Crack!","url":"http://opencrack5dec.peatix.com","shortener_url":null,"started_at":"2018-12-05T22:00:00.000+09:00","ended_at":"2018-12-08T08:59:59.000+09:00","limit_number":null,"address":"24A, 1st Floor, Lorong Rahim Kajai 14, Taman Tun Dr. Ismail, 60000 Kuala Lumpur","place":"The Crackhouse Comedy Club KL","lat":3.15493,"lon":101.623,"state":"active","id":null},{"event_id":"80227","title":"【満席】Startup Weekend Niigata Vol.9  新潟市開催！","url":"https://swniigata.doorkeeper.jp/events/80227","shortener_url":null,"started_at":"2018-12-14T18:30:00.000+09:00","ended_at":"2018-12-16T21:00:00.000+09:00","limit_number":49,"address":"新潟県新潟市中央区関屋1-24  地図を表示","place":"Sea Point NIIGATA ","lat":37.9185,"lon":139.018,"state":"active","id":null},{"event_id":"447468","title":"【edoARTworkshop】竹細工職人が手ほどきする　ふた付き竹かご","url":"http://edoart1208-2.peatix.com","shortener_url":null,"started_at":"2018-12-08T10:15:00.000+09:00","ended_at":"2018-12-11T08:59:59.000+09:00","limit_number":null,"address":"〒111-0035 東京都台東区西浅草2-6-2","place":"かっぱ橋道具街 はし藤本店 ２Ｆ","lat":35.7127,"lon":139.789,"state":"active","id":null},{"event_id":"101250","title":"Ubuntu 18.10リリース記念オフラインミーティング18.12","url":"https://atnd.org/events/101250","shortener_url":null,"started_at":"2018-12-08T12:30:00.000+09:00","ended_at":"2018-12-08T17:00:00.000+09:00","limit_number":85,"address":"東京都港区六本木6-10-1 六本木ヒルズ森タワー","place":"グリー株式会社 @六本木ヒルズ","lat":35.6605,"lon":139.729,"state":"closed","id":null},{"event_id":"451162","title":"Ken Loh: LIVE","url":"http://kenlohlive.peatix.com","shortener_url":null,"started_at":"2018-12-29T20:00:00.000+09:00","ended_at":"2019-01-01T08:59:59.000+09:00","limit_number":null,"address":"1 Esplanade Dr, Singapore 038981","place":"Esplanade Recital Studio","lat":1.28986,"lon":103.855,"state":"active","id":null},{"event_id":"447935","title":"家族まるごと支援と家族のリカバリー in 盛岡　～リカバリ―フォーラム地方版分科会～","url":"http://peatix.com/event/447935","shortener_url":null,"started_at":"2018-12-01T13:00:00.000+09:00","ended_at":"2018-12-04T08:59:59.000+09:00","limit_number":null,"address":"岩手県盛岡市盛岡駅西通2丁目9-1","place":"マリオス（盛岡地域交流センター）18F 会議室188","lat":39.7012,"lon":141.134,"state":"active","id":null},{"event_id":"451830","title":"【2名様追加募集！】古民家再生プロジェクト第１弾！！　ゆずの収穫お手伝い＆地域特産メニューを開発しよう！！","url":"http://kodomocreatorsinc-event.peatix.com","shortener_url":null,"started_at":"2018-12-15T08:00:00.000+09:00","ended_at":"2018-12-17T08:59:59.000+09:00","limit_number":null,"address":"〒150-0001 東京都渋谷区神宮前5-29-9めぐみハイマンション102","place":"奥多摩町の古民家","lat":0.0,"lon":0.0,"state":"active","id":null},{"event_id":"451992","title":"≪無料勉強会≫　いちCRAがマネジメント視点を養う為の虎の巻　～マネージャーに求められる人材育成～","url":"http://peatix.com/event/451992","shortener_url":null,"started_at":"2018-12-19T19:00:00.000+09:00","ended_at":"2018-12-22T08:59:59.000+09:00","limit_number":null,"address":"東京都港区虎ノ門 4-3-9","place":"住友新虎ノ門ビル","lat":35.6644,"lon":139.744,"state":"active","id":null},{"event_id":"451654","title":"【edoARTworkshop】和の心を結ぶ 水引体験～正月飾り","url":"http://edoart1222.peatix.com","shortener_url":null,"started_at":"2018-12-22T13:45:00.000+09:00","ended_at":"2018-12-25T08:59:59.000+09:00","limit_number":null,"address":"〒111-0035東京都台東区西浅草2丁目6-2","place":"日本、東京都台東区西浅草２丁目６−２ はし藤 本店","lat":35.7127,"lon":139.789,"state":"active","id":null},{"event_id":"451517","title":"関西【12 /26(水)朝10:00】自分史上最高にSEXYな1枚を撮る「秘めフォト部」！新しく「SEXY」な自分を見つけて明日に自信を持つための女性限定フォトサービス！《10名様限定／初めての方大歓迎》","url":"http://peatix.com/event/451517","shortener_url":null,"started_at":"2018-12-26T10:00:00.000+09:00","ended_at":"2018-12-29T08:59:59.000+09:00","limit_number":null,"address":"京都府京都市東山区博多町112−5","place":"京都天狼院","lat":35.0017,"lon":135.773,"state":"active","id":null},{"event_id":"451508","title":"関西【12/21(金)夜7:30】自分史上最高にSEXYな1枚を撮る「秘めフォト部」！新しく「SEXY」な自分を見つけて明日に自信を持つための女性限定フォトサービス！《10名様限定／初めての方大歓迎》","url":"http://peatix.com/event/451508","shortener_url":null,"started_at":"2018-12-21T19:30:00.000+09:00","ended_at":"2018-12-24T08:59:59.000+09:00","limit_number":null,"address":"京都府京都市東山区博多町112−5","place":"京都天狼院","lat":35.0017,"lon":135.773,"state":"active","id":null},{"event_id":"445328","title":"STARRY NIGHT JAM vol.29  Live!オーロラ　アラスカの夜空をドーム空間で生中継。","url":"http://snj29.peatix.com","shortener_url":null,"started_at":"2018-12-01T16:00:00.000+09:00","ended_at":"2018-12-04T08:59:59.000+09:00","limit_number":null,"address":"福岡市中央区 六本松4丁目2−1","place":"福岡市科学館","lat":33.5774,"lon":130.378,"state":"active","id":null},{"event_id":"446623","title":"【定年後も強みを活かして仕事ができる 自分史の棚卸しワークショップ】～人生100年時代の50歳から考える人生二毛作#4～","url":"http://nimousaku4.peatix.com","shortener_url":null,"started_at":"2018-12-02T11:00:00.000+09:00","ended_at":"2018-12-05T08:59:59.000+09:00","limit_number":null,"address":"お申し込みの方へご連絡いたします","place":"渋谷区(予定)","lat":0.0,"lon":0.0,"state":"active","id":null},{"event_id":"452764","title":"【edoARTworkshop】鳥居 満智栄の恋する和菓子づくり～12月編","url":"http://edoart1206.peatix.com","shortener_url":null,"started_at":"2018-12-06T14:00:00.000+09:00","ended_at":"2018-12-09T08:59:59.000+09:00","limit_number":null,"address":"東京都台東区西浅草2-6-2","place":"かっぱ橋道具街 はし藤本店 ２Ｆ","lat":35.7127,"lon":139.789,"state":"active","id":null},{"event_id":"435193","title":"12月2日(日)18:00～★ 六本木【独身限定】駅近セレブラウンジでGaitomo国際交流パーティー","url":"http://peatix.com/event/435193","shortener_url":null,"started_at":"2018-12-02T18:00:00.000+09:00","ended_at":"2018-12-05T08:59:59.000+09:00","limit_number":null,"address":"東京都港区六本木4-10-10 正直屋ビルB1","place":"六本木 balance(バランス) ","lat":35.6639,"lon":139.732,"state":"active","id":null},{"event_id":"447179","title":"12月1日(土)19:00～★ 心斎橋 駅近の隠れ家ラウンジでオリジナルGaitomo国際交流パーティー","url":"http://peatix.com/event/447179","shortener_url":null,"started_at":"2018-12-01T19:00:00.000+09:00","ended_at":"2018-12-04T08:59:59.000+09:00","limit_number":null,"address":"大阪市中央区東心斎橋1-18-6","place":"心斎橋 Singles Bar Eden ","lat":34.6738,"lon":135.503,"state":"active","id":null},{"event_id":"446335","title":"12月7日(金)19:00～★ 代官山 婚活恋活OnlyのGaitomo国際交流パーティー","url":"http://peatix.com/event/446335","shortener_url":null,"started_at":"2018-12-07T19:00:00.000+09:00","ended_at":"2018-12-10T08:59:59.000+09:00","limit_number":null,"address":"渋谷区恵比寿西1丁目34−17 B1F Za HOUSE ビル","place":"ユナイス 代官山","lat":35.6468,"lon":139.702,"state":"active","id":null},{"event_id":"453593","title":"STARRY NIGHT JAM vol.30 クリスマス・スペシャル・コンサート　 ～星空と自然に語りかける、一夜限りのアンサンブル～","url":"http://snj30.peatix.com","shortener_url":null,"started_at":"2018-12-22T18:00:00.000+09:00","ended_at":"2018-12-25T08:59:59.000+09:00","limit_number":null,"address":"福岡市中央区 六本松4丁目2−1","place":"福岡市科学館","lat":33.5774,"lon":130.378,"state":"active","id":null},{"event_id":"444896","title":"ケン・ハラクマの究極のリラクゼーションで緩み上手になるWS","url":"http://peatix.com/event/444896","shortener_url":null,"started_at":"2018-12-07T14:30:00.000+09:00","ended_at":"2018-12-10T08:59:59.000+09:00","limit_number":null,"address":"新宿区西新宿1丁目22−2 新宿サンエービル4F","place":"【YMCメディカルトレーナーズスクール新宿校】新宿のヨガ/ヨガ資格取得","lat":35.6888,"lon":139.696,"state":"active","id":null},{"event_id":"453897","title":"初心者向け大喜利体験スポット『ひなどり』12/27(木)テーマ「お題 と徹底的に向き合う」【毎月 第２・第４木曜】","url":"http://peatix.com/event/453897","shortener_url":null,"started_at":"2018-12-27T19:30:00.000+09:00","ended_at":"2018-12-30T08:59:59.000+09:00","limit_number":null,"address":"東京都新宿区西新宿7-1-7","place":"『ひなどり』新宿ダイカン教室(新宿ダイカンビルＡ館 1109号室)","lat":35.6945,"lon":139.699,"state":"active","id":null},{"event_id":"453894","title":"初心者向け大喜利体験スポット『ひなどり』12/13(木)テーマ「想像力を見える化する」【毎月 第２・第４木曜】","url":"http://hhinadori20181213.peatix.com","shortener_url":null,"started_at":"2018-12-13T19:30:00.000+09:00","ended_at":"2018-12-16T08:59:59.000+09:00","limit_number":null,"address":"東京都新宿区西新宿7-1-7","place":"『ひなどり』新宿ダイカン教室(新宿ダイカンビルＡ館 1109号室)","lat":35.6945,"lon":139.699,"state":"active","id":null},{"event_id":"451863","title":"12/8（土）グレースかおり/【初出版記念！】元J:COM　トップセールスの『エレガントセールス』白熱セミナー＆出版社様と秘密の交流会","url":"http://peatix.com/event/451863","shortener_url":null,"started_at":"2018-12-08T15:00:00.000+09:00","ended_at":"2018-12-11T08:59:59.000+09:00","limit_number":null,"address":"〒113-0023 東京都文京区向丘2-14-9","place":"【南北線・東大前駅徒歩5分】サンクチュアリ出版B1Fイベントスペース　東京都文京区向丘2-14-9","lat":35.7207,"lon":139.758,"state":"active","id":null},{"event_id":"444752","title":"サイクルセイフティーサミット２０１８","url":"http://cyclesafety2018winter.peatix.com","shortener_url":null,"started_at":"2018-12-24T09:00:00.000+09:00","ended_at":"2018-12-27T08:59:59.000+09:00","limit_number":null,"address":"神奈川県川崎市宮前区菅生4丁目6−1","place":"向ケ丘自動車学校","lat":35.5923,"lon":139.552,"state":"active","id":null},{"event_id":"455758","title":"半田付け体験とテスター・オシロスコープ入門【12/06(木)開催】","url":"http://dmmmake181206hand.peatix.com","shortener_url":null,"started_at":"2018-12-06T11:00:00.000+09:00","ended_at":"2018-12-09T08:59:59.000+09:00","limit_number":null,"address":"東京都千代田区神田練塀町3 富士ソフト秋葉原ビル 10F DMM.make AKIBA Studio","place":"DMM.make AKIBA 10F Studio","lat":35.7008,"lon":139.774,"state":"active","id":null},{"event_id":"455837","title":"半田付け体験とテスター・オシロスコープ入門【12/09(日)開催】","url":"http://dmmmake181209hand.peatix.com","shortener_url":null,"started_at":"2018-12-09T10:00:00.000+09:00","ended_at":"2018-12-12T08:59:59.000+09:00","limit_number":null,"address":"東京都千代田区神田練塀町3 富士ソフト秋葉原ビル 10F DMM.make AKIBA Studio","place":"DMM.make AKIBA 10F Studio","lat":35.7008,"lon":139.774,"state":"active","id":null},{"event_id":"455845","title":"真空管ヘッドフォンアンプをつくろう！【12/09(日)開催】","url":"http://dmmmake1812sink.peatix.com","shortener_url":null,"started_at":"2018-12-09T13:00:00.000+09:00","ended_at":"2018-12-12T08:59:59.000+09:00","limit_number":null,"address":"東京都千代田区神田練塀町3 富士ソフト秋葉原ビル 10F DMM.make AKIBA Studio","place":"DMM.make AKIBA 10F Studio","lat":35.7008,"lon":139.774,"state":"active","id":null},{"event_id":"455756","title":"レーザーカッターで作るUSBで灯せる行燈(あんどん)【12/02(日)開催】","url":"http://dmmmake1812andon.peatix.com","shortener_url":null,"started_at":"2018-12-02T15:00:00.000+09:00","ended_at":"2018-12-05T08:59:59.000+09:00","limit_number":null,"address":"東京都千代田区神田練塀町3 富士ソフト秋葉原ビル 10F DMM.make AKIBA Studio","place":"DMM.make AKIBA 10F Studio","lat":35.7008,"lon":139.774,"state":"active","id":null},{"event_id":"82269","title":"週末起業体験！第7回Startup Weekend つくば","url":"https://swtsukuba.doorkeeper.jp/events/82269","shortener_url":null,"started_at":"2018-12-07T18:30:00.000+09:00","ended_at":"2018-12-09T21:00:00.000+09:00","limit_number":55,"address":"筑波大学総合研究棟B 1F 0110教室","place":"筑波大学総合研究棟B 1F 0112教室","lat":36.1098,"lon":140.103,"state":"active","id":null},{"event_id":"455665","title":"Christmas Cards Jam - Let's make Christmas Cards","url":"http://christmascardjam.peatix.com","shortener_url":null,"started_at":"2018-12-02T12:00:00.000+09:00","ended_at":"2018-12-05T08:59:59.000+09:00","limit_number":null,"address":"Blk 4 Upper Aljunied Lane #01-06","place":"Make Your Own","lat":1.33352,"lon":103.879,"state":"active","id":null},{"event_id":"452545","title":"【南魚沼の古民家で開催！】フラー冬期インターンシップ 2018 〜南魚沼 冬の陣〜","url":"http://fuller-winterintern2018.peatix.com","shortener_url":null,"started_at":"2018-12-25T12:00:00.000+09:00","ended_at":"2018-12-28T08:59:59.000+09:00","limit_number":null,"address":"新潟県南魚沼市坂戸117−子","place":"新潟県 南魚沼市 兼続庵","lat":37.0588,"lon":138.886,"state":"active","id":null},{"event_id":"445716","title":"【最終ご案内】アジア初開催　海を渡る永遠のヒロイン M･monroe【Pre Bid ハリウッドオークション】VOL1(日本選抜応札会120名)","url":"http://peatix.com/event/445716","shortener_url":null,"started_at":"2018-12-08T13:30:00.000+09:00","ended_at":"2018-12-11T08:59:59.000+09:00","limit_number":null,"address":"東京都千代田区大手町2-6-1朝日生命大手町ビル","place":"開場13:00  Fabbit2F特設会場(休日の為1Fよりご入場下さい)","lat":35.6844,"lon":139.769,"state":"active","id":null},{"event_id":"454479","title":"ひと×fes!","url":"http://hitofesvol12018.peatix.com","shortener_url":null,"started_at":"2018-12-01T11:00:00.000+09:00","ended_at":"2018-12-04T08:59:59.000+09:00","limit_number":null,"address":"仙台市青葉区片平1丁目3−35","place":"1TO2BLDG.","lat":38.2586,"lon":140.865,"state":"active","id":null},{"event_id":"450916","title":"【最終ご案内】アジア発開催　ハリウッド発の潮流を目撃せよ!!【Pre Bid ハリウッドオークション】VOL2(日本選抜応札会120名)","url":"http://peatix.com/event/450916","shortener_url":null,"started_at":"2018-12-09T13:30:00.000+09:00","ended_at":"2018-12-12T08:59:59.000+09:00","limit_number":null,"address":"東京都千代田区大手町2-6-1朝日生命大手町ビル","place":"開場13:15 Fabbit2F 特設会場(休日の為1Fよりご入場下さい)","lat":35.6844,"lon":139.769,"state":"active","id":null},{"event_id":"453708","title":"Project P.U.M.P EP0.2","url":"http://projectpump2018.peatix.com","shortener_url":null,"started_at":"2018-12-14T20:00:00.000+09:00","ended_at":"2018-12-17T08:59:59.000+09:00","limit_number":null,"address":"Secret Locatio","place":"Secret Location","lat":0.0,"lon":0.0,"state":"active","id":null},{"event_id":"464392","title":"サラリーマン・イノベーターの集いvol.14～「複業×スポーツ×コミュニティ」がもたらすソーシャルイノベーションの可能性～","url":"http://peatix.com/event/464392","shortener_url":null,"started_at":"2018-12-06T19:00:00.000+09:00","ended_at":"2018-12-09T08:59:59.000+09:00","limit_number":null,"address":"品川区東五反田2丁目10−2 東五反田スクエア13F","place":"Innovation Space DEJIMA","lat":35.6248,"lon":139.727,"state":"active","id":null},{"event_id":"486597","title":"12/9 タロット読書会【テーマ：吊された男　The Hanged Man】ミニ占い付き！","url":"http://peatix.com/event/486597","shortener_url":null,"started_at":"2018-12-09T14:00:00.000+09:00","ended_at":"2018-12-12T08:59:59.000+09:00","limit_number":null,"address":"世田谷区 北沢3-30-3 北沢T.Tビル301","place":"Tbooks下北沢","lat":35.6644,"lon":139.667,"state":"active","id":null},{"event_id":"475290","title":"【edoARTworkshop】青森伝統の技と心を知る 津軽こぎん刺し体験～クリスマスカラーのティー・マット","url":"http://edoart1208-1.peatix.com","shortener_url":null,"started_at":"2018-12-08T10:00:00.000+09:00","ended_at":"2018-12-11T08:59:59.000+09:00","limit_number":null,"address":"〒111-0035 東京都台東区西浅草2丁目6−2","place":"かっぱ橋道具街 はし藤 ２F","lat":35.7127,"lon":139.789,"state":"active","id":null},{"event_id":"106161","title":"例のカノジョハッカソン 2 0 1 8 i n 札幌","url":"https://vrkanojo.connpass.com/event/106161/","shortener_url":"https://goo.gl/9cXxK5","started_at":"2018-12-22T13:00:00.000+09:00","ended_at":"2018-12-23T21:00:00.000+09:00","limit_number":40,"address":"札幌市","place":"札幌市内某所（参加者に別途ご連絡）","lat":43.0621,"lon":141.354,"state":"active","id":null},{"event_id":"455623","title":"【先着無料ご招待】小池良次氏、CARTIVATOR共同代表 福澤知浩氏が登壇！　「空飛ぶクルマ」セミナー","url":"http://soratobukuruma-wisdom.peatix.com","shortener_url":null,"started_at":"2018-12-07T14:00:00.000+09:00","ended_at":"2018-12-10T08:59:59.000+09:00","limit_number":null,"address":"港区芝5丁目7−1","place":"ＮＥＣ本社ビル","lat":35.6495,"lon":139.748,"state":"active","id":null},{"event_id":"106684","title":"賞金総額100万円 Ontology ブロックチェーンハッカソン 東京 #1","url":"https://ontology.connpass.com/event/106684/","shortener_url":"https://goo.gl/Xqoxxe","started_at":"2018-12-08T09:00:00.000+09:00","ended_at":"2018-12-09T18:00:00.000+09:00","limit_number":50,"address":"東京都港区三田１丁目４−１ 住友不動産麻布十番ビル","place":"株式会社エウレカ","lat":35.6541,"lon":139.742,"state":"active","id":null},{"event_id":"82576","title":"学び・教育イノベーション!!〜社会に起きている変化・テクノロジーの潮流 ・求められる人材とは（※SW大阪プレイベント）","url":"https://swosaka.doorkeeper.jp/events/82576","shortener_url":null,"started_at":"2018-12-22T15:00:00.000+09:00","ended_at":"2018-12-22T17:00:00.000+09:00","limit_number":30,"address":"大阪府大阪市北区鶴野町1-5","place":"Startup Cafe Osaka（関西大学梅田キャンパス2階 TSUTAYA店内）","lat":34.7063,"lon":135.501,"state":"active","id":null},{"event_id":"101778","title":"【新規の方、大学生大歓迎】大学で出来ない経験を平成最後の冬に！関西唯一の政策提言イベント！第12回公共政策インゼミ合宿2018","url":"https://atnd.org/events/101778","shortener_url":null,"started_at":"2018-12-08T09:00:00.000+09:00","ended_at":"2018-12-09T18:00:00.000+09:00","limit_number":60,"address":"京都市中京区西ノ京朱雀町1","place":"立命館大学朱雀キャンパス","lat":35.0092,"lon":135.742,"state":"closed","id":null},{"event_id":"481101","title":"血友病ヘルスケアハッカソン＠日本橋","url":"http://hemophiliahh.peatix.com","shortener_url":"https://goo.gl/2S9sft","started_at":"2018-12-08T12:00:00.000+09:00","ended_at":"2018-12-11T08:59:59.000+09:00","limit_number":null,"address":"日本、東京都中央区日本橋本町2丁目3−11","place":"日本橋ライフサイエンスビル2F","lat":35.6877,"lon":139.776,"state":"active","id":null},{"event_id":"454383","title":"第4回イノベーションの教室 　12/16","url":"http://peatix.com/event/454383","shortener_url":null,"started_at":"2018-12-16T10:00:00.000+09:00","ended_at":"2018-12-19T08:59:59.000+09:00","limit_number":null,"address":"宮城県仙台市若林区卸町2-9-1","place":"INTILAQ東北イノベーションセンター","lat":38.2545,"lon":140.922,"state":"active","id":null},{"event_id":"451235","title":"NO PROBLEM あなたのものの価値基準とは？　 小沢朋子×國府田典明×山田遊 トークセッション","url":"http://miraiteibansalon5.peatix.com","shortener_url":null,"started_at":"2018-12-01T14:00:00.000+09:00","ended_at":"2018-12-04T08:59:59.000+09:00","limit_number":null,"address":"台東区谷中谷中5丁目9−21","place":"未来定番研究所","lat":35.7271,"lon":139.768,"state":"active","id":null},{"event_id":"446346","title":"12月18日(火)19:30～◆ 表参道 飲み放題+10品フルコースビュッフェのGaitomo国際交流パーティー","url":"http://peatix.com/event/446346","shortener_url":null,"started_at":"2018-12-18T19:30:00.000+09:00","ended_at":"2018-12-21T08:59:59.000+09:00","limit_number":null,"address":"東京都渋谷区神宮前5-46-15","place":"シャルール表参道 ","lat":35.6641,"lon":139.708,"state":"active","id":null},{"event_id":"446339","title":"12月12日(水)19:00～★ 銀座 帰宅前にちょこっと充実時間Gaitomo国際交流パーティー","url":"http://peatix.com/event/446339","shortener_url":null,"started_at":"2018-12-12T19:00:00.000+09:00","ended_at":"2018-12-15T08:59:59.000+09:00","limit_number":null,"address":"中央区 銀座4-3-5 ハトリビル4F","place":"POP INN.GINZA(ポップイン 銀座)","lat":35.6723,"lon":139.765,"state":"active","id":null},{"event_id":"455769","title":"Makers College イチから始める3Dプリント講座","url":"http://dmmmake3dp-1812.peatix.com","shortener_url":null,"started_at":"2018-12-05T19:00:00.000+09:00","ended_at":"2018-12-08T08:59:59.000+09:00","limit_number":null,"address":"東京都千代田区神田練塀町3 富士ソフト秋葉原ビル 10F DMM.make AKIBA Studio","place":"DMM.make AKIBA 10F Studio","lat":35.7008,"lon":139.774,"state":"active","id":null},{"event_id":"446324","title":"12月6日(木)19:00～★ 新宿御苑 本場ナポリピッツァが食べれる平日Gaitomo国際交流パーティー","url":"http://peatix.com/event/446324","shortener_url":null,"started_at":"2018-12-06T19:00:00.000+09:00","ended_at":"2018-12-09T08:59:59.000+09:00","limit_number":null,"address":"新宿区新宿2丁目8−1","place":"ピッツァナポレターノカフェ 新宿御苑前店","lat":35.689,"lon":139.71,"state":"active","id":null},{"event_id":"446375","title":"12月20日(木)19:00～★ 赤坂見附【１人参加限定】アクセス抜群Gaitomo国際交流パーティー","url":"http://peatix.com/event/446375","shortener_url":null,"started_at":"2018-12-20T19:00:00.000+09:00","ended_at":"2018-12-23T08:59:59.000+09:00","limit_number":null,"address":"5階-C, TS共和六番館, 3丁目-21-番14号 赤坂, 港区","place":"FIORE-フィオーレ-赤坂見附店","lat":35.6768,"lon":139.736,"state":"active","id":null},{"event_id":"446712","title":"12月24日(月祝)18:00～★ 六本木 クリスマスイブ【１人参加限定】Gaitomo国際交流パーティー","url":"http://peatix.com/event/446712","shortener_url":null,"started_at":"2018-12-24T18:00:00.000+09:00","ended_at":"2018-12-27T08:59:59.000+09:00","limit_number":null,"address":"港区六本木3丁目14−7 アロービルB1","place":"SEVEN SENSE","lat":35.6626,"lon":139.735,"state":"active","id":null},{"event_id":"526007","title":"12月1日(土)19:00～★ 渋谷 本格的ネパール料理屋でカレーとナンも美味しいGaitomo国際交流パーティー","url":"http://peatix.com/event/526007","shortener_url":null,"started_at":"2018-12-01T19:00:00.000+09:00","ended_at":"2018-12-04T08:59:59.000+09:00","limit_number":null,"address":"渋谷区 猿楽町2−12","place":"Asian Spice King 渋谷・代官山","lat":35.6533,"lon":139.705,"state":"active","id":null},{"event_id":"440824","title":"※受付終了※【2018年12月開催】Web講義＋土曜１日の通学講義で合格へ！ ビジネス著作権検定　上級対策講座（団体試験付）＜試験日含め全２日＞","url":"http://peatix.com/event/440824","shortener_url":null,"started_at":"2018-12-01T10:00:00.000+09:00","ended_at":"2018-12-04T08:59:59.000+09:00","limit_number":null,"address":"東京都新宿区高田馬場3-8-1","place":"東京富士大学","lat":35.7148,"lon":139.701,"state":"active","id":null},{"event_id":"448933","title":"横山カズ英語セミナー in 名古屋　①聴こえる！即効リスニング1DAYインストール 　②英語\"自動化トレーニング\"","url":"http://peatix.com/event/448933","shortener_url":null,"started_at":"2018-12-02T10:45:00.000+09:00","ended_at":"2018-12-05T08:59:59.000+09:00","limit_number":null,"address":"名古屋市中区栄4丁目16−24メーゾンオザワビル403号室","place":"＜ミツバチ会議室＞⭐栄デザインスペース♪","lat":35.1661,"lon":136.91,"state":"active","id":null},{"event_id":"440081","title":"ＰＲプランナー３次試験対応講座（2018年度冬期）","url":"http://3rd-2018winter.peatix.com","shortener_url":null,"started_at":"2018-12-04T19:00:00.000+09:00","ended_at":"2018-12-07T08:59:59.000+09:00","limit_number":null,"address":"東京都港区六本木6-10-1","place":"六本木アカデミーヒルズ49（六本木ヒルズ森タワー49階）","lat":35.6604,"lon":139.729,"state":"active","id":null},{"event_id":"435224","title":"12月16日(日)18:00～★ 麻布十番 シャンデリアの下で旅行好き集まれGaitomo国際交流パーティー","url":"http://peatix.com/event/435224","shortener_url":null,"started_at":"2018-12-16T18:00:00.000+09:00","ended_at":"2018-12-19T08:59:59.000+09:00","limit_number":null,"address":"港区麻布十番1丁目9−2 7F","place":"SPUTNIK LOUNGE","lat":35.6564,"lon":139.735,"state":"active","id":null},{"event_id":"448579","title":"Musilogue Music Showcase  vol.9","url":"http://peatix.com/event/448579","shortener_url":null,"started_at":"2018-12-11T19:00:00.000+09:00","ended_at":"2018-12-14T08:59:59.000+09:00","limit_number":null,"address":"渋谷区宇田川町19−5 東京山手教会 B1F","place":"公園通りクラシックス","lat":35.6617,"lon":139.7,"state":"active","id":null},{"event_id":"526997","title":"Project Pump EP02","url":"http://projectpump02.peatix.com","shortener_url":null,"started_at":"2018-12-21T20:00:00.000+09:00","ended_at":"2018-12-24T08:59:59.000+09:00","limit_number":null,"address":"Secret Locatio","place":"Secret Location","lat":0.0,"lon":0.0,"state":"active","id":null},{"event_id":"532718","title":"【edoARTworkshop】在来種大豆(小糸在来)と玄米麹を使う こだわりの手前味噌づくり","url":"http://edoart1201.peatix.com","shortener_url":null,"started_at":"2018-12-01T13:00:00.000+09:00","ended_at":"2018-12-04T08:59:59.000+09:00","limit_number":null,"address":"東京都台東区西浅草2丁目6−2","place":"はし藤 本店","lat":35.7127,"lon":139.789,"state":"active","id":null},{"event_id":"444516","title":"Meeting Japanese girls dating in Japan DiA Tokyo Nightlife Attraction Adventure Roppongi Best Nightclub Dance Disco Aitai Partyon meet Japanese Girls Boys Travelers Tourists Every Friday Saturday public holiday DiA Aitai 六本木クラブ女性無料入場プラス無料１ドリンク毎週金曜日と土曜日と祭日","url":"http://meeting-japanese-girls-dating-tokyo-roppongi-party.peatix.com","shortener_url":null,"started_at":"2018-12-01T23:50:00.000+09:00","ended_at":"2018-12-04T08:59:59.000+09:00","limit_number":null,"address":"Minatoku Roppongi 3-8-15 Tokyo","place":"DiA Tokyo Roppongi","lat":35.6634,"lon":139.734,"state":"active","id":null},{"event_id":"447127","title":"Dance Party Meeting Japanese girls dating in Japan DiA Tokyo Nightlife Attraction Adventure Roppongi Best Nightclub Dance Disco Aitai Partyon meet Japanese Girls Boys Travelers Tourists Every Friday Saturday public holiday DiA Aitai 六本木クラブ女性無料入場プラス無料１ドリンク","url":"http://dance-party-roppongi-tokyo-nightlife-nightclub-dia-aitai.peatix.com","shortener_url":null,"started_at":"2018-12-07T23:55:00.000+09:00","ended_at":"2018-12-10T08:59:59.000+09:00","limit_number":null,"address":"Minatoku Roppongi 3-8-15 Tokyo","place":"DiA Tokyo Roppongi","lat":35.6634,"lon":139.734,"state":"active","id":null},{"event_id":"447862","title":"六本木クラブ女性入場無料インターナショナルパーティー JAPAN Biggest INTERNATIONAL Party@DiA Tokyo Roppongi Club AitaiParty お得にイベント参加","url":"http://japan-biggest-tokyo-international-party.peatix.com","shortener_url":null,"started_at":"2018-12-01T23:55:00.000+09:00","ended_at":"2018-12-04T08:59:59.000+09:00","limit_number":null,"address":"Minatoku Roppongi 3-8-15 Tokyo","place":"DiA Tokyo Roppongi","lat":35.6634,"lon":139.734,"state":"active","id":null},{"event_id":"105494","title":"前橋開催！Web×IoT メイカーズチャレンジ 2018-19 【ハンズオン講習 \u0026 ハッカソン","url":"https://webiotmakers.connpass.com/event/105494/","shortener_url":"https://goo.gl/XLYmVA","started_at":"2018-12-15T10:00:00.000+09:00","ended_at":"2018-12-16T18:00:00.000+09:00","limit_number":40,"address":"群馬県前橋市本町2丁目12-1","place":"前橋プラザ元気21内 中央公民館 3F ホール","lat":36.3899,"lon":139.071,"state":"active","id":null},{"event_id":"565932","title":"MY VILLAGE IDEATHON　in TOKYO","url":"http://peatix.com/event/565932","shortener_url":"https://goo.gl/YBYovo","started_at":"2018-12-02T10:00:00.000+09:00","ended_at":"2018-12-05T08:59:59.000+09:00","limit_number":null,"address":"東京都新宿区四谷4-20","place":"東京おもちゃ美術館","lat":35.6898,"lon":139.718,"state":"active","id":null},{"event_id":"565787","title":"GDG DevFest x Firebase Summit Extended 2018","url":"http://devfestxfirebase.peatix.com","shortener_url":null,"started_at":"2018-12-01T09:00:00.000+09:00","ended_at":"2018-12-04T08:59:59.000+09:00","limit_number":null,"address":"5, Jalan Universiti, Bandar Sunway","place":"Sunway University","lat":3.06716,"lon":101.604,"state":"active","id":null},{"event_id":"565821","title":"箔入門講座 PIGMENT LAB WORKSHOP Introduction to Metal Leaf","url":"http://peatix.com/event/565821","shortener_url":null,"started_at":"2018-12-21T19:00:00.000+09:00","ended_at":"2018-12-24T08:59:59.000+09:00","limit_number":null,"address":"品川区 東品川2丁目5−5 TERRADA Harbor One Bldg. 1F","place":"PIGMENT","lat":35.6213,"lon":139.75,"state":"active","id":null},{"event_id":"565769","title":"テンペラ絵具入門講座 PIGMENT LAB WORKSHOP Introduction to Tempera Painting","url":"http://peatix.com/event/565769","shortener_url":null,"started_at":"2018-12-07T19:00:00.000+09:00","ended_at":"2018-12-10T08:59:59.000+09:00","limit_number":null,"address":"品川区 東品川2丁目5−5 TERRADA Harbor One Bldg. 1F","place":"PIGMENT","lat":35.6213,"lon":139.75,"state":"active","id":null},{"event_id":"565815","title":"テンペラ絵具入門講座 PIGMENT LAB WORKSHOP Introduction to Tempera Painting","url":"http://peatix.com/event/565815","shortener_url":null,"started_at":"2018-12-14T19:00:00.000+09:00","ended_at":"2018-12-17T08:59:59.000+09:00","limit_number":null,"address":"品川区 東品川2丁目5−5 TERRADA Harbor One Bldg. 1F","place":"PIGMENT","lat":35.6213,"lon":139.75,"state":"active","id":null},{"event_id":"565862","title":"油絵具入門講座　PIGMENT LAB WORKSHOP Introduction to Oil Painting","url":"http://peatix.com/event/565862","shortener_url":null,"started_at":"2018-12-09T16:00:00.000+09:00","ended_at":"2018-12-12T08:59:59.000+09:00","limit_number":null,"address":"品川区 東品川2丁目5−5 TERRADA Harbor One Bldg. 1F","place":"PIGMENT","lat":35.6213,"lon":139.75,"state":"active","id":null},{"event_id":"498381","title":"料紙づくり PIGMENT LAB WORKSHOP Creating Original Ryo-shi","url":"http://peatix.com/event/498381","shortener_url":null,"started_at":"2018-12-08T13:00:00.000+09:00","ended_at":"2018-12-11T08:59:59.000+09:00","limit_number":null,"address":"品川区 東品川2丁目5−5 TERRADA Harbor One Bldg. 1F","place":"PIGMENT","lat":35.6213,"lon":139.75,"state":"active","id":null},{"event_id":"563021","title":"Comedy Masala ft. Jinx Yeo (SIN)","url":"http://jinxx.peatix.com","shortener_url":null,"started_at":"2018-12-04T21:00:00.000+09:00","ended_at":"2018-12-07T08:59:59.000+09:00","limit_number":null,"address":"69 Circular Road, Boat Quay, Singapore 049423","place":"HERO'S, 69 Circular Road, Singapore 049423","lat":1.28641,"lon":103.849,"state":"active","id":null},{"event_id":"444230","title":"【30人限定】ババ抜きで世界を知ろう「笑って学ぶSDGs」〜 出張授業を体験しよう〜","url":"http://20181213shoukasonjuku.peatix.com","shortener_url":null,"started_at":"2018-12-13T19:30:00.000+09:00","ended_at":"2018-12-16T08:59:59.000+09:00","limit_number":null,"address":"〒160-0022 東京都新宿区新宿6丁目14−1","place":"新宿区立新宿文化センター第2会議室","lat":35.6955,"lon":139.709,"state":"active","id":null},{"event_id":"565767","title":"箔入門　PIGMENT LAB WORKSHOP Introduction to Metal Leaf","url":"http://peatix.com/event/565767","shortener_url":null,"started_at":"2018-12-05T13:00:00.000+09:00","ended_at":"2018-12-08T08:59:59.000+09:00","limit_number":null,"address":"品川区 東品川2丁目5−5 TERRADA Harbor One Bldg. 1F","place":"PIGMENT","lat":35.6213,"lon":139.75,"state":"active","id":null},{"event_id":"565825","title":"水晶を使ったオリジナル水彩絵具作り PIGMENT LAB WORKSHOP Creating Original Paints","url":"http://peatix.com/event/565825","shortener_url":null,"started_at":"2018-12-15T13:00:00.000+09:00","ended_at":"2018-12-18T08:59:59.000+09:00","limit_number":null,"address":"品川区 東品川2丁目5−5 TERRADA Harbor One Bldg. 1F","place":"PIGMENT","lat":35.6213,"lon":139.75,"state":"active","id":null},{"event_id":"565814","title":"はじめての「墨」講座　PIGMENT LAB WORKSHOP Introduction to Sumi Ink","url":"http://peatix.com/event/565814","shortener_url":null,"started_at":"2018-12-12T14:00:00.000+09:00","ended_at":"2018-12-15T08:59:59.000+09:00","limit_number":null,"address":"品川区 東品川2丁目5−5 TERRADA Harbor One Bldg. 1F","place":"PIGMENT","lat":35.6213,"lon":139.75,"state":"active","id":null},{"event_id":"565819","title":"岩絵具入門講座 PIGMENT LAB WORKSHOP Introduction to Mineral Pigments","url":"http://peatix.com/event/565819","shortener_url":null,"started_at":"2018-12-19T13:00:00.000+09:00","ended_at":"2018-12-22T08:59:59.000+09:00","limit_number":null,"address":"品川区 東品川2丁目5−5 TERRADA Harbor One Bldg. 1F","place":"PIGMENT","lat":35.6213,"lon":139.75,"state":"active","id":null},{"event_id":"565864","title":"キャンバス下地講座 PIGMENT LAB WORKSHOP How to Prime a Canvas for Painting","url":"http://peatix.com/event/565864","shortener_url":null,"started_at":"2018-12-09T13:00:00.000+09:00","ended_at":"2018-12-12T08:59:59.000+09:00","limit_number":null,"address":"品川区 東品川2丁目5−5 TERRADA Harbor One Bldg. 1F","place":"PIGMENT","lat":35.6213,"lon":139.75,"state":"active","id":null},{"event_id":"469189","title":"３時間で身につける！周りの目を気にせずに本当に望む毎日を手に入れる自信の作り方「ぬいぐるみ心理学1day講座」","url":"http://20181daykouza.peatix.com","shortener_url":null,"started_at":"2018-12-01T11:00:00.000+09:00","ended_at":"2018-12-04T08:59:59.000+09:00","limit_number":null,"address":"東京都品川区北品川","place":"品川区の会議室（JR大崎駅が最寄りです。申込者に詳細をお伝えします）","lat":0.0,"lon":0.0,"state":"active","id":null},{"event_id":"566003","title":"Create Realistic Interior Designs with SketchUp V-Ray","url":"http://meklab-vray.peatix.com","shortener_url":null,"started_at":"2018-12-14T11:00:00.000+09:00","ended_at":"2018-12-17T08:59:59.000+09:00","limit_number":null,"address":"1 Irving Pl, #01-21, Singapore 369546","place":"The Commerze @ Irving","lat":1.33625,"lon":103.886,"state":"active","id":null},{"event_id":"107812","title":"HIVEHack","url":"https://connpass.com/event/107812/","shortener_url":"https://goo.gl/uPG6DS","started_at":"2018-12-15T08:00:00.000+09:00","ended_at":"2018-12-16T19:30:00.000+09:00","limit_number":100,"address":"〒541-0053 大阪府中央区本町４丁目２−１２","place":"billage osaka","lat":34.6834,"lon":135.5,"state":"active","id":null},{"event_id":"106667","title":"SDLアプリコンテストに応募しようぜハッカソン","url":"https://mashupawards.connpass.com/event/106667/","shortener_url":"https://goo.gl/q25kkY","started_at":"2018-12-08T19:00:00.000+09:00","ended_at":"2018-12-10T05:00:00.000+09:00","limit_number":15,"address":"大阪府東大阪市新喜多１丁目６−５６","place":"METEORWORKS Inc.","lat":34.6724,"lon":135.574,"state":"active","id":null},{"event_id":"107761","title":"Global Innovators in Startup City Fukuoka","url":"https://connpass.com/event/107761/","shortener_url":null,"started_at":"2018-12-06T19:00:00.000+09:00","ended_at":"2018-12-06T21:00:00.000+09:00","limit_number":30,"address":"広島県広島市南区京橋町1−7 アスティ広島京橋ビルディング1F","place":"fabbit広島駅前","lat":34.3946,"lon":132.473,"state":"active","id":null},{"event_id":"565182","title":"SDGs × ハテナソン ワークショップデザイン講座 IN 東京新宿","url":"http://peatix.com/event/565182","shortener_url":"https://goo.gl/djpHHR","started_at":"2018-12-01T10:00:00.000+09:00","ended_at":"2018-12-04T08:59:59.000+09:00","limit_number":null,"address":"東京都新宿区歌舞伎町2丁目2−21 ライオンズマンション歌舞伎町A棟508","place":"東京都新宿区歌舞伎町２丁目２−２１ ライオンズマンション歌舞伎町Ａ棟508","lat":35.6955,"lon":139.707,"state":"active","id":null},{"event_id":"566187","title":"12月14日(金)19:00～代官山 目的別ブレスレットで出会い率アップのGaitomo国際交流パーティー","url":"http://peatix.com/event/566187","shortener_url":null,"started_at":"2018-12-14T19:00:00.000+09:00","ended_at":"2018-12-17T08:59:59.000+09:00","limit_number":null,"address":"〒150-0034, 20-20 代官山町, 渋谷区","place":"BLU JAM CAFE Daikanyama","lat":35.648,"lon":139.702,"state":"active","id":null},{"event_id":"566980","title":"Tokyo Nightlife Nightclub Party Meet Japanese Girls Boys Travelers Tourists Every Friday Saturday public holiday in Roppongi DiA Tokyo Disco Dance club Aitai Party Partyon Adventure Best Nightclub","url":"http://tokyo-nightlife-nightclub-allnight-party-experience-roppongi.peatix.com","shortener_url":null,"started_at":"2018-12-07T23:55:00.000+09:00","ended_at":"2018-12-10T08:59:59.000+09:00","limit_number":null,"address":"Minatoku Roppongi 3-8-15 Tokyo","place":"DiA Tokyo Roppongi","lat":35.6634,"lon":139.734,"state":"active","id":null},{"event_id":"566459","title":"TRAFFIC LIGHT PARTY! (SAT) トラフィック・ライト パーティー！（土）","url":"http://peatix.com/event/566459","shortener_url":null,"started_at":"2018-12-08T19:00:00.000+09:00","ended_at":"2018-12-11T08:59:59.000+09:00","limit_number":null,"address":"東京都港区六本木3-14-9 ユア六本木2F","place":"Bar Propaganda (2F)","lat":35.6623,"lon":139.735,"state":"active","id":null},{"event_id":"566458","title":"TRAFFIC LIGHT PARTY! (FRI) トラフィック・ライト パーティー！（金）","url":"http://peatix.com/event/566458","shortener_url":null,"started_at":"2018-12-07T19:00:00.000+09:00","ended_at":"2018-12-10T08:59:59.000+09:00","limit_number":null,"address":"東京都港区六本木3-14-9 ユア六本木2F","place":"Bar Propaganda (2F)","lat":35.6623,"lon":139.735,"state":"active","id":null},{"event_id":"566456","title":"DANCE ALL NIGHT PUB CRAWL! (SAT) ダンス・オール・ナイト パーティー（土）","url":"http://peatix.com/event/566456","shortener_url":null,"started_at":"2018-12-01T19:00:00.000+09:00","ended_at":"2018-12-04T08:59:59.000+09:00","limit_number":null,"address":"東京都港区六本木3-14-9 ユア六本木2F","place":"Bar Propaganda (2F)","lat":35.6623,"lon":139.735,"state":"active","id":null},{"event_id":"566461","title":"RED CHRISTMAS PARTY! (FRI) レッド・クリスマス・パーティー（金）","url":"http://peatix.com/event/566461","shortener_url":null,"started_at":"2018-12-14T19:00:00.000+09:00","ended_at":"2018-12-17T08:59:59.000+09:00","limit_number":null,"address":"東京都港区六本木3-14-9 ユア六本木2F","place":"Bar Propaganda (2F)","lat":35.6623,"lon":139.735,"state":"active","id":null},{"event_id":"566465","title":"CHRISTMAS PUB CRAWL! (SAT) クリスマス・パーティー（土）","url":"http://peatix.com/event/566465","shortener_url":null,"started_at":"2018-12-22T19:00:00.000+09:00","ended_at":"2018-12-25T08:59:59.000+09:00","limit_number":null,"address":"東京都港区六本木3-14-9 ユア六本木2F","place":"Bar Propaganda (2F)","lat":35.6623,"lon":139.735,"state":"active","id":null},{"event_id":"566467","title":"END OF THE YEAR PARTY! (FRI) 年末パーティー！（金）","url":"http://peatix.com/event/566467","shortener_url":null,"started_at":"2018-12-28T19:00:00.000+09:00","ended_at":"2018-12-31T08:59:59.000+09:00","limit_number":null,"address":"東京都港区六本木3-14-9 ユア六本木2F","place":"Bar Propaganda (2F)","lat":35.6623,"lon":139.735,"state":"active","id":null},{"event_id":"566462","title":"RED CHRISTMAS PARTY! (SAT) レッド・クリスマス・パーティー（土）","url":"http://peatix.com/event/566462","shortener_url":null,"started_at":"2018-12-15T19:00:00.000+09:00","ended_at":"2018-12-18T08:59:59.000+09:00","limit_number":null,"address":"東京都港区六本木3-14-9 ユア六本木2F","place":"Bar Propaganda (2F)","lat":35.6623,"lon":139.735,"state":"active","id":null},{"event_id":"566468","title":"END OF THE YEAR PARTY! (SAT) 年末パーティー！（土）","url":"http://peatix.com/event/566468","shortener_url":null,"started_at":"2018-12-29T19:00:00.000+09:00","ended_at":"2019-01-01T08:59:59.000+09:00","limit_number":null,"address":"東京都港区六本木3-14-9 ユア六本木2F","place":"Bar Propaganda (2F)","lat":35.6623,"lon":139.735,"state":"active","id":null},{"event_id":"566464","title":"CHRISTMAS PUB CRAWL! (FRI) クリスマス・パーティー（金）","url":"http://peatix.com/event/566464","shortener_url":null,"started_at":"2018-12-21T19:00:00.000+09:00","ended_at":"2018-12-24T08:59:59.000+09:00","limit_number":null,"address":"東京都港区六本木3-14-9 ユア六本木2F","place":"Bar Propaganda (2F)","lat":35.6623,"lon":139.735,"state":"active","id":null},{"event_id":"566149","title":"12月21日(金)19:00～★ 原宿 トリックアートカフェでインスタ映えするGaitomo国際交流パーティー","url":"http://peatix.com/event/566149","shortener_url":null,"started_at":"2018-12-21T19:00:00.000+09:00","ended_at":"2018-12-24T08:59:59.000+09:00","limit_number":null,"address":"東京都渋谷区神宮前1-19-1","place":"原宿 Cafe Art ","lat":35.6717,"lon":139.704,"state":"active","id":null},{"event_id":"566220","title":"12月28日(金)19:00～★ 恵比寿 新しい出会いの場立ち飲みバーでGaitomo国際交流パーティー","url":"http://peatix.com/event/566220","shortener_url":null,"started_at":"2018-12-28T19:00:00.000+09:00","ended_at":"2018-12-31T08:59:59.000+09:00","limit_number":null,"address":"東京都渋谷区恵比寿1-7-9","place":"恵比寿 私を恵比寿に連れてってEbisu330BAR ","lat":35.648,"lon":139.711,"state":"active","id":null},{"event_id":"566260","title":"12月8日(土)19:00～ 渋谷 本格的ネパール料理屋でカレーとナンも美味しいGaitomo国際交流パーティー","url":"http://peatix.com/event/566260","shortener_url":null,"started_at":"2018-12-08T19:00:00.000+09:00","ended_at":"2018-12-11T08:59:59.000+09:00","limit_number":null,"address":"渋谷区 猿楽町2−12","place":"Asian Spice King 渋谷・代官山","lat":35.6533,"lon":139.705,"state":"active","id":null},{"event_id":"566253","title":"12月29日(土)19:00～★ 六本木 恋したい人集まれ☆Gaitomo国際交流パーティー","url":"http://peatix.com/event/566253","shortener_url":null,"started_at":"2018-12-29T19:00:00.000+09:00","ended_at":"2019-01-01T08:59:59.000+09:00","limit_number":null,"address":"港区六本木3丁目11−10","place":"RAKAN TOKYO","lat":35.6633,"lon":139.733,"state":"active","id":null},{"event_id":"566083","title":"12月15日(土)19:00～★ 西麻布 シックでお洒落なNYスタイルのバーでGaitomo国際交流パーティー","url":"http://peatix.com/event/566083","shortener_url":null,"started_at":"2018-12-15T19:00:00.000+09:00","ended_at":"2018-12-18T08:59:59.000+09:00","limit_number":null,"address":"西麻布1丁目4番10号, ダイユウビル西麻布 1階, 港区","place":"B612 Nishiazabu","lat":35.6621,"lon":139.726,"state":"active","id":null},{"event_id":"566122","title":"12月22日(土)19:00～★ 六本木 インターナショナルバーで楽しむGaitomo国際交流パーティー","url":"http://peatix.com/event/566122","shortener_url":null,"started_at":"2018-12-22T19:00:00.000+09:00","ended_at":"2018-12-25T08:59:59.000+09:00","limit_number":null,"address":"港区六本木 7 丁目 14−5","place":"Mogambo Tokyo","lat":35.6638,"lon":139.731,"state":"active","id":null},{"event_id":"566173","title":"12月26日(水)19:00～★ 恵比寿 仕事帰りに駅近のお洒落カフェで平日Gaitomo国際交流パーティー","url":"http://peatix.com/event/566173","shortener_url":null,"started_at":"2018-12-26T19:00:00.000+09:00","ended_at":"2018-12-29T08:59:59.000+09:00","limit_number":null,"address":"東京都渋谷区恵比寿南1-3-2","place":"恵比寿 dot. Grill and Bar ","lat":35.6457,"lon":139.708,"state":"active","id":null},{"event_id":"487345","title":"NHKディレクソン in 徳島 ～参加者全員がTVディレクター！？　「魅力全開！ 徳島をもっと輝かせる番組企画を考えよう！」","url":"http://nhkdirecthon17.peatix.com","shortener_url":"https://goo.gl/6X2ZfA","started_at":"2018-12-02T10:00:00.000+09:00","ended_at":"2018-12-05T08:59:59.000+09:00","limit_number":null,"address":"徳島県徳島市寺島本町東1-28","place":"NHK徳島放送局","lat":34.0727,"lon":134.554,"state":"active","id":null},{"event_id":"567081","title":"TouchDesigner Study Weekend vol.012","url":"http://tdsw012.peatix.com","shortener_url":null,"started_at":"2018-12-02T10:00:00.000+09:00","ended_at":"2018-12-05T08:59:59.000+09:00","limit_number":null,"address":"港区東新橋1丁目9−2 汐留住友ビル","place":"汐留住友ビル","lat":35.6622,"lon":139.76,"state":"active","id":null},{"event_id":"482556","title":"【12/23日】年末特別編！『ホモ・デウス　～テクノロジーとサピエンスの未来～』de【大人の教養大学】#19","url":"http://peatix.com/event/482556","shortener_url":null,"started_at":"2018-12-23T13:00:00.000+09:00","ended_at":"2018-12-26T08:59:59.000+09:00","limit_number":null,"address":"東京都港区六本木3-2-1","place":"DMM.com本社（住友不動産六本木グランドタワー24F）","lat":35.6646,"lon":139.738,"state":"active","id":null},{"event_id":"567062","title":"西洋画初心者講座 ー静物(花)ー PIGMENT LAB WORKSHOP Oil Painting for Beginners　-Still life Painting (Flower)-","url":"http://peatix.com/event/567062","shortener_url":null,"started_at":"2018-12-22T13:00:00.000+09:00","ended_at":"2018-12-25T08:59:59.000+09:00","limit_number":null,"address":"品川区 東品川2丁目5−5 TERRADA Harbor One Bldg. 1F","place":"PIGMENT","lat":35.6213,"lon":139.75,"state":"active","id":null},{"event_id":"567162","title":"【無料講演会】人生100年時代、「働く力」は「学ぶ力」","url":"http://peatix.com/event/567162","shortener_url":null,"started_at":"2018-12-12T15:00:00.000+09:00","ended_at":"2018-12-15T08:59:59.000+09:00","limit_number":null,"address":"兵庫県神戸市中央区三宮町1-9-1","place":"スペースアルファ三宮（三宮センタープラザ東館6階）","lat":34.6917,"lon":135.192,"state":"active","id":null},{"event_id":"567430","title":"Beautify your PowerPoint with Infographics Course (SkillsFuture Eligible)","url":"http://peatix.com/event/567430","shortener_url":null,"started_at":"2018-12-03T11:00:00.000+09:00","ended_at":"2018-12-06T08:59:59.000+09:00","limit_number":null,"address":"6 Raffles Quay","place":"6 Raffles Quay, #15-00","lat":1.28179,"lon":103.851,"state":"active","id":null},{"event_id":"109132","title":"【学生限定】UXデザイン講座@アクアリング OthloEvent#39","url":"https://othlotech.connpass.com/event/109132/","shortener_url":null,"started_at":"2018-12-02T19:30:00.000+09:00","ended_at":"2018-12-03T01:00:00.000+09:00","limit_number":20,"address":"愛知県名古屋市中区栄三丁目19番8号 (栄ミナミ平和ビル6,7階)","place":"株式会社アクアリング 名古屋本社オフィス","lat":35.1656,"lon":136.904,"state":"active","id":null},{"event_id":"82856","title":"【ブロックチェーン × 教育】セミナー、アイデアソン（12/1 10:00〜11:30）","url":"https://ec747169718e0c9fbe36fcd571.doorkeeper.jp/events/82856","shortener_url":"https://goo.gl/sgT4U1","started_at":"2018-12-01T10:00:00.000+09:00","ended_at":"2018-12-01T11:30:00.000+09:00","limit_number":30,"address":"東京都文京区本郷7-3-1","place":"東京大学本郷キャンパス　情報学環・福武ホール　地下二階ラーニングスタジオ","lat":null,"lon":null,"state":"active","id":null},{"event_id":"82871","title":"ジョージアグルメ紀行～食べて、祈って、恋をして～　料理・ワイン・旅トークでジョージアを楽しむ会","url":"https://keynoters.doorkeeper.jp/events/82871","shortener_url":null,"started_at":"2018-12-01T13:00:00.000+09:00","ended_at":"2018-12-01T15:00:00.000+09:00","limit_number":15,"address":"東京都武蔵野市吉祥寺本町1-4-10 ナインビル B1F","place":"カフェロシア","lat":null,"lon":null,"state":"active","id":null},{"event_id":"566893","title":"若手サミット２０１８@名古屋","url":"http://wakasami2018.peatix.com","shortener_url":"https://goo.gl/Y8C5us","started_at":"2018-12-01T09:30:00.000+09:00","ended_at":"2018-12-04T08:59:59.000+09:00","limit_number":null,"address":"名古屋市東区矢田南4丁目102−9","place":"名城大学 ナゴヤドーム前キャンパス","lat":35.189,"lon":136.944,"state":"active","id":null},{"event_id":"567654","title":"2018 冬の瓶詰部「柚子仕事」＠まめくらし研究所","url":"http://bottling004.peatix.com","shortener_url":null,"started_at":"2018-12-02T11:30:00.000+09:00","ended_at":"2018-12-05T08:59:59.000+09:00","limit_number":null,"address":"東京都杉並区高円寺北4-2-24","place":"まめぐらし研究所","lat":35.7054,"lon":139.644,"state":"active","id":null},{"event_id":"494458","title":"【家業イノベーションの可能性・面白さに触れ、自分らしい一歩を踏み出すためのイベント】家業イノベーション・ラボ　〜LIVE 2018～","url":"http://kagyolive2018.peatix.com","shortener_url":null,"started_at":"2018-12-09T13:30:00.000+09:00","ended_at":"2018-12-12T08:59:59.000+09:00","limit_number":null,"address":"千代田区紀尾井町4−1","place":"エヌエヌ生命保険（株） 本社","lat":35.6793,"lon":139.736,"state":"active","id":null},{"event_id":"109299","title":"その場でスカウト？！台本のない学生エンジニア就活イベント！！","url":"https://29reach.connpass.com/event/109299/","shortener_url":null,"started_at":"2018-12-05T04:00:00.000+09:00","ended_at":"2018-12-05T06:30:00.000+09:00","limit_number":20,"address":"東京都渋谷区渋谷２丁目１５−１(クロスタワー12F)","place":"株式会社ビズリーチ","lat":35.6588,"lon":139.705,"state":"active","id":null},{"event_id":"109136","title":"CircleCI Orbs ミニハッカソン","url":"https://circleci.connpass.com/event/109136/","shortener_url":"https://goo.gl/5BVh41","started_at":"2018-12-15T19:00:00.000+09:00","ended_at":"2018-12-16T02:00:00.000+09:00","limit_number":22,"address":"東京都品川区上大崎2-13-30","place":"Quipperオフィス oak meguro","lat":35.6347,"lon":139.718,"state":"active","id":null},{"event_id":"568056","title":"Business Modelling Workshop : How to Build Investor-Ready Financial Projections","url":"http://businessmodellingworkshop.peatix.com","shortener_url":null,"started_at":"2018-12-07T17:30:00.000+09:00","ended_at":"2018-12-10T08:59:59.000+09:00","limit_number":null,"address":"Unit 02-02, Lvl 2, Cimb Leadership Academy,, No 3, Jalan Medini Utara 1, Medini Iskandar, Iskandar Puteri","place":"IskandarSpace","lat":1.42636,"lon":103.634,"state":"active","id":null},{"event_id":"565883","title":"Comedy Masala ft. Sam See (SIN) | Last Show in 2018!","url":"http://mrsamsee.peatix.com","shortener_url":null,"started_at":"2018-12-18T21:00:00.000+09:00","ended_at":"2018-12-21T08:59:59.000+09:00","limit_number":null,"address":"69 Circular Road, Boat Quay, Singapore 049423","place":"HERO'S, 69 Circular Road, Singapore 049423","lat":1.28641,"lon":103.849,"state":"active","id":null},{"event_id":"568072","title":"TEDxPickeringStreet Adventures #11: Visit to Animal Sanctuary","url":"http://tedxpsadv11.peatix.com","shortener_url":null,"started_at":"2018-12-02T11:00:00.000+09:00","ended_at":"2018-12-05T08:59:59.000+09:00","limit_number":null,"address":"301 Boon Lay Way, Singapore 649846","place":"Boon Lay MRT Station","lat":0.0,"lon":0.0,"state":"active","id":null},{"event_id":"567628","title":"Beautify your PowerPoint with Infographics Course (SkillsFuture Eligible)","url":"http://beautify-powerpoint-with-infographics-dec2018.peatix.com","shortener_url":null,"started_at":"2018-12-19T11:00:00.000+09:00","ended_at":"2018-12-22T08:59:59.000+09:00","limit_number":null,"address":"6 Raffles Quay","place":"6 Raffles Quay, #15-00","lat":1.28179,"lon":103.851,"state":"active","id":null},{"event_id":"108020","title":"Ethereum × Dapps ハッカソン","url":"https://neutrino.connpass.com/event/108020/","shortener_url":"https://goo.gl/6mhGGG","started_at":"2018-12-01T19:00:00.000+09:00","ended_at":"2018-12-03T01:00:00.000+09:00","limit_number":35,"address":"東京都渋谷区桜丘町12-10 住友不動産渋谷インフォスアネックス1F","place":"Neutrino","lat":35.6544,"lon":139.701,"state":"active","id":null},{"event_id":"82960","title":"中東遠　道路・交通関連情報オープンデータ アイデアソン UDC2018","url":"https://0168e91711e4c480d710c70399.doorkeeper.jp/events/82960","shortener_url":"https://goo.gl/rTHV4x","started_at":"2018-12-08T13:00:00.000+09:00","ended_at":"2018-12-08T17:30:00.000+09:00","limit_number":40,"address":"","place":"","lat":null,"lon":null,"state":"active","id":null},{"event_id":"109463","title":"大阪Progate非公式もくもく会","url":"https://connpass.com/event/109463/","shortener_url":null,"started_at":"2018-12-08T23:00:00.000+09:00","ended_at":"2018-12-09T03:00:00.000+09:00","limit_number":17,"address":"大阪市中央区本町4丁目7-7-303","place":"Kiiiya Hommachi","lat":34.6849,"lon":135.498,"state":"active","id":null},{"event_id":"109318","title":"IBM CloudでKubernetesを学ぶハンズオン #ma_2018","url":"https://mashupawards.connpass.com/event/109318/","shortener_url":null,"started_at":"2018-12-14T04:00:00.000+09:00","ended_at":"2018-12-14T07:00:00.000+09:00","limit_number":30,"address":"東京都港区北青山3-5-6 青朋ビル2F POTAL POINT AOYAMA内","place":"G’s ACADEMY TOKYO BASE","lat":35.6673,"lon":139.714,"state":"active","id":null},{"event_id":"109522","title":"ヒャッカソン熊本-2018冬の陣-","url":"https://100kuma.connpass.com/event/109522/","shortener_url":"https://goo.gl/vHehwz","started_at":"2018-12-16T13:00:00.000+09:00","ended_at":"2018-12-16T18:00:00.000+09:00","limit_number":11,"address":"熊本市中央区世安町172","place":"びぷれす","lat":32.7895,"lon":130.69,"state":"active","id":null},{"event_id":"109457","title":"子ども向けプログラミングクラブ コーダー道場甲府#17","url":"https://coderdojokofu.connpass.com/event/109457/","shortener_url":null,"started_at":"2018-12-01T09:20:00.000+09:00","ended_at":"2018-12-01T11:40:00.000+09:00","limit_number":10,"address":"山梨県甲府市北口２丁目８番１号","place":"山梨県立図書館","lat":35.6685,"lon":138.57,"state":"active","id":null},{"event_id":"100970","title":"M→Fes 2018","url":"https://atnd.org/events/100970","shortener_url":null,"started_at":"2018-12-22T12:30:00.000+09:00","ended_at":"2018-12-25T08:59:59.000+09:00","limit_number":150,"address":"東京都中野区中野4丁目21 明治大学中野キャンパス","place":"明治大学中野キャンパス5階ホール","lat":35.707,"lon":139.66,"state":"closed","id":null},{"event_id":"569199","title":"FUSE 36 - ゲーム開発イベント（Game Jam / ハッカソン）","url":"http://fuse36.peatix.com","shortener_url":"https://goo.gl/9ivehq","started_at":"2018-12-01T09:00:00.000+09:00","ended_at":"2018-12-04T08:59:59.000+09:00","limit_number":null,"address":"福島県郡山市方八町2-4-15","place":"WiZ 国際情報工科自動車大学校","lat":37.3943,"lon":140.391,"state":"active","id":null},{"event_id":"568908","title":"美しい里山がある岡山県・美咲町 〜地域の魅力を活かしたゲストハウスを考える〜 中村功芳氏、大島正幸氏、菅本香菜氏が登壇！","url":"http://peatix.com/event/568908","shortener_url":"https://goo.gl/2sZLTh","started_at":"2018-12-11T19:30:00.000+09:00","ended_at":"2018-12-14T08:59:59.000+09:00","limit_number":null,"address":"杉並区今川4丁目8−21","place":"konocafeコノカフェ","lat":35.7154,"lon":139.599,"state":"active","id":null},{"event_id":"566677","title":"ジョージアグルメ紀行～食べて、祈って、恋をして～　料理・ワイン・旅トークでジョージアを楽しむ会","url":"http://georgia2018-2.peatix.com","shortener_url":null,"started_at":"2018-12-01T13:00:00.000+09:00","ended_at":"2018-12-04T08:59:59.000+09:00","limit_number":null,"address":"武蔵野市吉祥寺本町1丁目1−4−10 B-1","place":"Cafe RUSSIA","lat":35.7033,"lon":139.578,"state":"active","id":null},{"event_id":"569088","title":"「シナリオランド」オフラインイベント　ロボット＆バトルアニメの書き方","url":"http://peatix.com/event/569088","shortener_url":null,"started_at":"2018-12-21T19:00:00.000+09:00","ended_at":"2018-12-24T08:59:59.000+09:00","limit_number":null,"address":"東京都豊島区東池袋4-5-2","place":"あうるすぽっと（ライズアリーナビル3F：会議室B2）","lat":35.7269,"lon":139.719,"state":"active","id":null},{"event_id":"566756","title":"【KCCA (韓国キャンドルクラフト協会) 認定指導講師資格講座】日本で！短期間で！取得できるチャンス！","url":"http://kcca.peatix.com","shortener_url":null,"started_at":"2018-12-07T10:00:00.000+09:00","ended_at":"2018-12-10T08:59:59.000+09:00","limit_number":null,"address":"渋谷区神南1-11-5 ダイネス壱番館906","place":"CandleRoom KRTEK","lat":35.6626,"lon":139.701,"state":"active","id":null},{"event_id":"568630","title":"～会いに行ける社長プロジェクト～『全国縦断!!松山洋の中途採用座談会』in福岡","url":"http://peatix.com/event/568630","shortener_url":null,"started_at":"2018-12-12T19:00:00.000+09:00","ended_at":"2018-12-15T08:59:59.000+09:00","limit_number":null,"address":"福岡市博多区博多駅前1丁目7−4","place":"花ざかり 博多駅前本店","lat":33.5943,"lon":130.417,"state":"active","id":null},{"event_id":"568518","title":"12月1日(土)19:00～★ 銀座 いい人に出会えたらいいな～Gaitomo国際交流パーティー","url":"http://peatix.com/event/568518","shortener_url":null,"started_at":"2018-12-01T19:00:00.000+09:00","ended_at":"2018-12-04T08:59:59.000+09:00","limit_number":null,"address":"中央区銀座4丁目2−17 B1F/1F 銀座111レジャービル","place":"LAPIS TOKYO(ラピストーキョー)銀座","lat":35.6728,"lon":139.764,"state":"active","id":null},{"event_id":"569578","title":"12月30日(日)19:00～渋谷【35歳以上限定】素敵な大人のGaitomo国際交流パーティー","url":"http://peatix.com/event/569578","shortener_url":null,"started_at":"2018-12-30T19:00:00.000+09:00","ended_at":"2019-01-02T08:59:59.000+09:00","limit_number":null,"address":"東京都渋谷区円山町15-3","place":"渋谷 エンカウント零式（旧名：グローススペース） ","lat":35.6577,"lon":139.694,"state":"active","id":null},{"event_id":"569567","title":"12月30日(日)15:00～★ 渋谷 未成年者も参加出来るGaitomo国際交流ノンアルコールパーティー","url":"http://peatix.com/event/569567","shortener_url":null,"started_at":"2018-12-30T15:00:00.000+09:00","ended_at":"2019-01-02T08:59:59.000+09:00","limit_number":null,"address":"東京都渋谷区円山町15-3","place":"渋谷 エンカウント零式（旧名：グローススペース） ","lat":35.6577,"lon":139.694,"state":"active","id":null},{"event_id":"109191","title":"経営陣ご登壇！【IoT x エンジニア】CTO、取締役、テックリードが語る勝ち筋","url":"https://connpass.com/event/109191/","shortener_url":null,"started_at":"2018-12-07T04:00:00.000+09:00","ended_at":"2018-12-07T07:00:00.000+09:00","limit_number":40,"address":"東京都 港区六本木１丁目６−１","place":"for Startups, Inc.","lat":35.6646,"lon":139.739,"state":"active","id":null},{"event_id":"109727","title":"BPLL #28","url":"https://bpstudy.connpass.com/event/109727/","shortener_url":null,"started_at":"2018-12-11T21:10:00.000+09:00","ended_at":"2018-12-11T22:00:00.000+09:00","limit_number":null,"address":"東京都渋谷区千駄ヶ谷5-32-7-4F","place":"株式会社ビープラウド","lat":35.6864,"lon":139.704,"state":"active","id":null},{"event_id":"109690","title":"１２月ゆるもく会","url":"https://connpass.com/event/109690/","shortener_url":"https://goo.gl/bNoKoF","started_at":"2018-12-09T20:00:00.000+09:00","ended_at":"2018-12-10T03:00:00.000+09:00","limit_number":null,"address":"高松市亀井町10番地3","place":"燈屋","lat":34.3527,"lon":134.047,"state":"active","id":null},{"event_id":"82994","title":"【12/3（月）】Pythonで学ぶ機械学習入門①～マーケットバスケット分析","url":"https://soleildatadojo.doorkeeper.jp/events/82994","shortener_url":null,"started_at":"2018-12-03T19:00:00.000+09:00","ended_at":"2018-12-03T21:30:00.000+09:00","limit_number":15,"address":"大阪府大阪市北区西天満二丁目5番3号(堂島深川ビル3階)","place":"SCRIBBLE OSAKA LAB（SOL）（大阪メトロ御堂筋線「淀屋橋」駅から徒歩４分）","lat":null,"lon":null,"state":"active","id":null},{"event_id":"82997","title":"【12/4（火）・11（火）】初心者向け・２回で学ぶシリーズ①『PythonとJupyterNotebookの基礎』","url":"https://soleildatadojo.doorkeeper.jp/events/82997","shortener_url":null,"started_at":"2018-12-04T19:30:00.000+09:00","ended_at":"2018-12-11T21:30:00.000+09:00","limit_number":10,"address":"大阪府大阪市北区西天満二丁目5番3号(堂島深川ビル3階)","place":"SCRIBBLE OSAKA LAB（SOL）（大阪メトロ御堂筋線「淀屋橋」駅から徒歩４分）","lat":null,"lon":null,"state":"active","id":null},{"event_id":"82998","title":"【12/7（金）・14（金）】初心者向け・２回で学ぶシリーズ②『Pandasによるデータ前処理と可視化の基礎』","url":"https://soleildatadojo.doorkeeper.jp/events/82998","shortener_url":null,"started_at":"2018-12-07T19:30:00.000+09:00","ended_at":"2018-12-14T21:30:00.000+09:00","limit_number":6,"address":"大阪府大阪市北区西天満二丁目5番3号(堂島深川ビル3階)","place":"SCRIBBLE OSAKA LAB（SOL）（大阪メトロ御堂筋線「淀屋橋」駅から徒歩４分）","lat":34.6951,"lon":135.502,"state":"active","id":null},{"event_id":"82663","title":"kintone Café 大阪 Vol.20 〜kintoneを使ってみんなで知恵をふりしぼるハンズオン２「連携についてのグループワーク」〜","url":"https://kintonecafe-osaka.doorkeeper.jp/events/82663","shortener_url":null,"started_at":"2018-12-05T19:00:00.000+09:00","ended_at":"2018-12-05T20:30:00.000+09:00","limit_number":20,"address":"大阪府大阪市北区大深町4-20グランフロント大阪タワーA 32F","place":"エックスサーバー【大阪本社】","lat":null,"lon":null,"state":"active","id":null},{"event_id":"568003","title":"企(たくらみ)展 関連企画：トークセッション「藤野の地域デザイン」","url":"http://181206.peatix.com","shortener_url":null,"started_at":"2018-12-06T19:00:00.000+09:00","ended_at":"2018-12-09T08:59:59.000+09:00","limit_number":null,"address":"港区 赤坂9丁目7−1 ミッドタウンタワー5階","place":"武蔵野美術大学 デザイン・ラウンジ","lat":35.6662,"lon":139.732,"state":"active","id":null},{"event_id":"570038","title":"油絵具入門講座 PIGMENT LAB WORKSHOP Introduction to Oil Painting","url":"http://peatix.com/event/570038","shortener_url":null,"started_at":"2018-12-18T14:00:00.000+09:00","ended_at":"2018-12-21T08:59:59.000+09:00","limit_number":null,"address":"品川区 東品川2丁目5−5 TERRADA Harbor One Bldg. 1F","place":"PIGMENT","lat":35.6213,"lon":139.75,"state":"active","id":null},{"event_id":"569424","title":"スタンダップトーク！〜飲み会で、やらかした話〜＜オープンマイク＞","url":"http://standuptalk5.peatix.com","shortener_url":null,"started_at":"2018-12-09T18:30:00.000+09:00","ended_at":"2018-12-12T08:59:59.000+09:00","limit_number":null,"address":"台東区浅草橋3丁目3−9","place":"SERA","lat":35.7002,"lon":139.787,"state":"active","id":null},{"event_id":"570033","title":"12月31日(月)21:00～◆ 渋谷 KITSUNE 年越しカウントダウンGaitomo国際交流パーティー","url":"http://peatix.com/event/570033","shortener_url":null,"started_at":"2018-12-31T21:00:00.000+09:00","ended_at":"2019-01-03T08:59:59.000+09:00","limit_number":null,"address":"東京都渋谷区東2-20-13","place":"恵比寿 KITSUNE ","lat":35.6534,"lon":139.709,"state":"active","id":null},{"event_id":"102086","title":"ハッカソンにも使える！アイデアをビジネスアイデアに昇華する「ビジネスモデルキャンバス」勉強会","url":"https://atnd.org/events/102086","shortener_url":"https://goo.gl/CiBr93","started_at":"2018-12-12T19:00:00.000+09:00","ended_at":"2018-12-12T20:30:00.000+09:00","limit_number":3,"address":"東京都 渋谷区 道玄坂 2-18-11","place":"渋谷Moca","lat":35.6589,"lon":139.696,"state":"closed","id":null},{"event_id":"570011","title":"【AQUA IoT\u0026Laundromat Hack! in福岡】ハッカソン申込フォーム","url":"http://aqua-laundromat-fukuoka.peatix.com","shortener_url":"https://goo.gl/ZCaGRU","started_at":"2018-12-15T10:00:00.000+09:00","ended_at":"2018-12-18T08:59:59.000+09:00","limit_number":null,"address":"福岡市中央区大名1丁目3−41","place":"G's BASE FUKUOKA","lat":33.5866,"lon":130.394,"state":"active","id":null},{"event_id":"568101","title":"（無料）間接材購買支援実績No1！　ディーコープ主催の最適な間接材購買“アイデアソン”","url":"http://dee-ideathon1.peatix.com","shortener_url":"https://goo.gl/8n5M1D","started_at":"2018-12-04T15:00:00.000+09:00","ended_at":"2018-12-07T08:59:59.000+09:00","limit_number":null,"address":"〒162-0064 東京都新宿区市谷仲之町4−39","place":"市ヶ谷健保会館２F　会議室F","lat":35.6954,"lon":139.724,"state":"active","id":null},{"event_id":"569110","title":"MakeCodeプログラミング教育プレミアムセミナー","url":"http://programming-premier.peatix.com","shortener_url":null,"started_at":"2018-12-02T10:00:00.000+09:00","ended_at":"2018-12-05T08:59:59.000+09:00","limit_number":null,"address":"港区港南2丁目16−3 品川グランドセントラルタワー","place":"日本マイクロソフト","lat":35.6267,"lon":139.74,"state":"active","id":null},{"event_id":"565646","title":"第57回堀江貴文とカウンターで高級寿司を食べる【限定8名】テリヤキプレミアム鮨会","url":"http://peatix.com/event/565646","shortener_url":null,"started_at":"2018-12-07T18:30:00.000+09:00","ended_at":"2018-12-10T08:59:59.000+09:00","limit_number":null,"address":"東京都港区麻布十番2-8-12 101","place":"鮨 麻布十番乃南","lat":35.6555,"lon":139.734,"state":"active","id":null},{"event_id":"109431","title":"【豪華景品が貰える】Uranus Meetup @Tokyo【来場者全員にエアドロップ】","url":"https://next-money.connpass.com/event/109431/","shortener_url":null,"started_at":"2018-12-02T23:00:00.000+09:00","ended_at":"2018-12-03T01:00:00.000+09:00","limit_number":100,"address":"1030025 東京都中央区日本橋茅場町1-8-1茅場町一丁目平和ビル　１階","place":"【日本橋】FinGATE　KAYABA","lat":35.6801,"lon":139.779,"state":"active","id":null},{"event_id":"109453","title":"わたし達の未来をつくるアイデアソン・ハッカソン【レビュー】","url":"https://connpass.com/event/109453/","shortener_url":"https://goo.gl/wYm6UK","started_at":"2018-12-14T13:00:00.000+09:00","ended_at":"2018-12-14T18:00:00.000+09:00","limit_number":30,"address":"〒651-0087　神戸市中央区御幸通8-1-6","place":"神戸国際会館セミナーハウス701号室","lat":34.6921,"lon":135.196,"state":"active","id":null},{"event_id":"109871","title":"ハッカソンにも使える！アイデアをビジネスアイデアに昇華する「ビジネスモデルキャンバス」勉強会","url":"https://connpass.com/event/109871/","shortener_url":"https://goo.gl/sQnk4H","started_at":"2018-12-13T04:00:00.000+09:00","ended_at":"2018-12-13T05:30:00.000+09:00","limit_number":4,"address":"東京都 渋谷区 道玄坂 2-18-11","place":"渋谷Moca","lat":35.6589,"lon":139.696,"state":"active","id":null},{"event_id":"102110","title":"【 女性の「嬉しい♡」がきっと見つかる 】Dear Venus Marche ‐ ディアヴィーナスマルシェ ‐ Vol.4","url":"https://atnd.org/events/102110","shortener_url":null,"started_at":"2018-12-05T10:00:00.000+09:00","ended_at":"2018-12-05T16:00:00.000+09:00","limit_number":null,"address":"東京都八王子市横山町9-10","place":"古民家ダイニング となりわ 中庭","lat":35.6596,"lon":139.336,"state":"closed","id":null},{"event_id":"571171","title":"【託児付/子連れ参加大歓迎！】子育てデトックス合宿”ママ道場”　ヨガとワークショップで、ママももっと楽に！楽しく！幸せに！","url":"http://mamadojo.peatix.com","shortener_url":null,"started_at":"2018-12-01T14:00:00.000+09:00","ended_at":"2018-12-04T08:59:59.000+09:00","limit_number":null,"address":"神奈川県鎌倉市台2-2-13","place":"ビジネス旅館　津久井","lat":0.0,"lon":0.0,"state":"active","id":null},{"event_id":"571243","title":"Serbian Night Café ＠鎌倉　ソンベカフェ Vol.12","url":"http://peatix.com/event/571243","shortener_url":null,"started_at":"2018-12-12T11:30:00.000+09:00","ended_at":"2018-12-15T08:59:59.000+09:00","limit_number":null,"address":"鎌倉市御成町13−32","place":"ソンベカフェ","lat":35.3206,"lon":139.55,"state":"active","id":null},{"event_id":"567904","title":"【12/11(火)開催】年内に整えましょう“わたしたちの健康”","url":"http://pola-pavilion-sheis.peatix.com","shortener_url":null,"started_at":"2018-12-11T19:00:00.000+09:00","ended_at":"2018-12-14T08:59:59.000+09:00","limit_number":null,"address":"目黒区上目黒1丁目6−10","place":"PAVILION","lat":35.6451,"lon":139.7,"state":"active","id":null},{"event_id":"570806","title":"【梅田】姿勢を整える秘訣ポイントは〇〇・・・・～ついでに解剖学も深く学ぼう～","url":"http://peatix.com/event/570806","shortener_url":null,"started_at":"2018-12-14T15:30:00.000+09:00","ended_at":"2018-12-17T08:59:59.000+09:00","limit_number":null,"address":"大阪市北区曽根崎新地1−4−12 桜橋プラザビル8F","place":"【YMCメディカルトレーナーズスクール大阪・梅田校】梅田のヨガ/ヨガスクール","lat":34.6982,"lon":135.496,"state":"active","id":null},{"event_id":"570957","title":"結ぶ、繋がる、水引づくり","url":"http://peatix.com/event/570957","shortener_url":null,"started_at":"2018-12-10T19:00:00.000+09:00","ended_at":"2018-12-13T08:59:59.000+09:00","limit_number":null,"address":"東京都豊島区長崎1-9-2","place":"金剛院 蓮華堂B1","lat":35.7272,"lon":139.696,"state":"active","id":null},{"event_id":"570802","title":"【梅田】アッと驚くセルフ\u0026ペア筋肉の柔軟性。きっとそれは〇〇・・・・～ついでに解剖学も深く学ぼう～","url":"http://peatix.com/event/570802","shortener_url":null,"started_at":"2018-12-14T13:00:00.000+09:00","ended_at":"2018-12-17T08:59:59.000+09:00","limit_number":null,"address":"大阪市北区曽根崎新地1−4−12 桜橋プラザビル8F","place":"【YMCメディカルトレーナーズスクール大阪・梅田校】梅田のヨガ/ヨガスクール","lat":34.6982,"lon":135.496,"state":"active","id":null},{"event_id":"568711","title":"ものづくり忘年会2018 powered by Makuake","url":"http://monodukuribonenkai.peatix.com","shortener_url":null,"started_at":"2018-12-19T19:00:00.000+09:00","ended_at":"2018-12-22T08:59:59.000+09:00","limit_number":null,"address":"東京都渋谷区恵比寿南 3-1-24  シティスクエア恵比寿1F","place":"EBISU SHOW ROOM","lat":35.6459,"lon":139.706,"state":"active","id":null},{"event_id":"569768","title":"Tokyo 2018 ブロックチェーンの動向、スタートアップとキャリア","url":"http://bbcxwaseda.peatix.com","shortener_url":null,"started_at":"2018-12-10T14:00:00.000+09:00","ended_at":"2018-12-13T08:59:59.000+09:00","limit_number":null,"address":"新宿区戸塚町1−104","place":"早稲田大学 大隈記念講堂","lat":35.7089,"lon":139.722,"state":"active","id":null},{"event_id":"110088","title":"リトモン Meet-up!! \u0026 Holiday Party!! 2018","url":"https://littlemonster.connpass.com/event/110088/","shortener_url":null,"started_at":"2018-12-13T04:00:00.000+09:00","ended_at":"2018-12-13T08:00:00.000+09:00","limit_number":50,"address":"東京都渋谷区渋谷１丁目５−１２ 第2西青山ビル 2F","place":"渋谷青山G-style","lat":35.6604,"lon":139.705,"state":"active","id":null},{"event_id":"110023","title":"【大阪】LINE Bot \u0026 Clova CEK開発者2018大忘年会 at さくらインターネット様","url":"https://line.connpass.com/event/110023/","shortener_url":null,"started_at":"2018-12-14T04:30:00.000+09:00","ended_at":"2018-12-14T07:00:00.000+09:00","limit_number":65,"address":"大阪府大阪市北区大深町4-20 グランフロント大阪タワーA 35F","place":"さくらインターネット株式会社大阪本社","lat":34.7043,"lon":135.495,"state":"active","id":null},{"event_id":"109599","title":"UEQareer × IoT縛りの勉強会！IoTLT for Student #2","url":"https://ueqareer.connpass.com/event/109599/","shortener_url":null,"started_at":"2018-12-05T04:00:00.000+09:00","ended_at":"2018-12-05T06:00:00.000+09:00","limit_number":33,"address":"東京都渋谷区渋谷2丁目21−1","place":"","lat":35.659,"lon":139.703,"state":"active","id":null},{"event_id":"102134","title":"無料 CTO/テックリード育成講座","url":"https://atnd.org/events/102134","shortener_url":null,"started_at":"2018-12-15T13:00:00.000+09:00","ended_at":"2018-12-15T19:00:00.000+09:00","limit_number":12,"address":"東京都千代田区三番町1-1 KY三番町ビル1F","place":"インターノウス株式会社 半蔵門研修所内","lat":35.6897,"lon":139.745,"state":"closed","id":null},{"event_id":"570920","title":"Christmas Card Jam Session","url":"http://christmascardjamsession.peatix.com","shortener_url":null,"started_at":"2018-12-04T19:00:00.000+09:00","ended_at":"2018-12-07T08:59:59.000+09:00","limit_number":null,"address":"59 New Bridge Road","place":"the Hive","lat":1.28799,"lon":103.847,"state":"active","id":null},{"event_id":"568285","title":"VTuberハッカソン全国ツアー2018茨城大会","url":"http://ibakiratvevent.peatix.com","shortener_url":"https://goo.gl/aPXNJw","started_at":"2018-12-15T10:00:00.000+09:00","ended_at":"2018-12-18T08:59:59.000+09:00","limit_number":null,"address":"土浦市中央2丁目2−16","place":"土浦商工会議所","lat":36.0828,"lon":140.202,"state":"active","id":null},{"event_id":"571215","title":"インクルーシブアイディアソン〜AIスピーカー／チャットボットで考える障がい者支援の新しいかたち〜","url":"http://peatix.com/event/571215","shortener_url":"https://goo.gl/AmsfPW","started_at":"2018-12-01T10:00:00.000+09:00","ended_at":"2018-12-04T08:59:59.000+09:00","limit_number":null,"address":"東京都渋谷区神宮前5-52-2","place":"Sansan株式会社　（青山オーバルビル 13F）","lat":35.6627,"lon":139.709,"state":"active","id":null},{"event_id":"571336","title":"クリスマスピーロートワインフェスティバル2018＠Tokyo Midtown","url":"http://christmas2018.peatix.com","shortener_url":null,"started_at":"2018-12-01T11:00:00.000+09:00","ended_at":"2018-12-04T08:59:59.000+09:00","limit_number":null,"address":"東京都港区赤坂9-7-1","place":"東京ミッドタウン　ガレリア棟 B1F アトリウム","lat":35.6661,"lon":139.731,"state":"active","id":null},{"event_id":"571630","title":"【参加無料】データの正しい理解と活用方法を学ぶ！Googleアナリティクス、サーチコンソールの実践的な分析とは","url":"http://peatix.com/event/571630","shortener_url":null,"started_at":"2018-12-07T15:00:00.000+09:00","ended_at":"2018-12-10T08:59:59.000+09:00","limit_number":null,"address":"東京都渋谷区富ヶ谷2-43-15 山崎ビル6F","place":"株式会社シンメトリック　セミナールーム","lat":35.6677,"lon":139.686,"state":"active","id":null},{"event_id":"109516","title":"第20回　CoderDojo横浜","url":"https://coderdojo-yokohama.connpass.com/event/109516/","shortener_url":null,"started_at":"2018-12-02T10:00:00.000+09:00","ended_at":"2018-12-02T12:00:00.000+09:00","limit_number":null,"address":"神奈川県横浜市神奈川区鶴屋町2-24-2","place":"かながわ県民センター","lat":35.4684,"lon":139.621,"state":"active","id":null},{"event_id":"110077","title":"第5回 CoderDojo厚木","url":"https://coderdojo-atsugi.connpass.com/event/110077/","shortener_url":null,"started_at":"2018-12-16T22:30:00.000+09:00","ended_at":"2018-12-17T00:30:00.000+09:00","limit_number":null,"address":"神奈川県厚木市中町2丁目12-15","place":"アミューあつぎ","lat":35.4425,"lon":139.366,"state":"active","id":null},{"event_id":"83274","title":"【特別企画】五十嵐 邦明氏、松岡 浩平氏「ゼロからわかる Ruby 超入門」出版記念 即売会","url":"https://diveintocode.doorkeeper.jp/events/83274","shortener_url":null,"started_at":"2018-12-05T19:00:00.000+09:00","ended_at":"2018-12-05T20:30:00.000+09:00","limit_number":39,"address":"〒150-0044 東京都渋谷区円山町28-4 大場ビルA館4階","place":"DIVE INTO CODE東京校　4階教室","lat":null,"lon":null,"state":"active","id":null},{"event_id":"83286","title":"【12/1（土）午後】初心者向けシリーズ④『StatsModels・PyMCと確率・統計の基礎』","url":"https://soleildatadojo.doorkeeper.jp/events/83286","shortener_url":null,"started_at":"2018-12-01T13:00:00.000+09:00","ended_at":"2018-12-01T17:10:00.000+09:00","limit_number":8,"address":"大阪府大阪市北区西天満二丁目5番3号(堂島深川ビル3階)","place":"SCRIBBLE OSAKA LAB（SOL）（大阪メトロ御堂筋線「淀屋橋」駅から徒歩４分）","lat":null,"lon":null,"state":"active","id":null},{"event_id":"571640","title":"【参加無料・2日間講座】スタートアップCTO、アクセラレーター代表に学ぶ、CTO\u0026テックリード育成講座「OCTOPASS」","url":"http://octopass.peatix.com","shortener_url":null,"started_at":"2018-12-15T13:00:00.000+09:00","ended_at":"2018-12-18T08:59:59.000+09:00","limit_number":null,"address":"東京都千代田区三番町1-1 KY三番町ビル1F","place":"インターノウス株式会社　半蔵門研修所内","lat":35.6897,"lon":139.745,"state":"active","id":null},{"event_id":"110080","title":"【大阪】Progateからのあこがれ!!ハッカソン（発表会）2018/12/08","url":"https://kansai-web-app.connpass.com/event/110080/","shortener_url":"https://goo.gl/JDsyb3","started_at":"2018-12-08T18:30:00.000+09:00","ended_at":"2018-12-08T21:30:00.000+09:00","limit_number":17,"address":"大阪市中央区谷町6丁目3−25 4階","place":"LOKTOP","lat":34.674,"lon":135.518,"state":"active","id":null},{"event_id":"572221","title":"【現役AIエンジニアから学ぶ】ディープラーニング入門","url":"http://peatix.com/event/572221","shortener_url":null,"started_at":"2018-12-05T19:30:00.000+09:00","ended_at":"2018-12-08T08:59:59.000+09:00","limit_number":null,"address":"東京都豊島区高田3丁目15-7","place":"kurenai会議室","lat":35.7155,"lon":139.706,"state":"active","id":null},{"event_id":"571481","title":"美少女ゲームソングイベント「E-SPADA vol.4」","url":"http://e-spada-04.peatix.com","shortener_url":null,"started_at":"2018-12-15T13:00:00.000+09:00","ended_at":"2018-12-18T08:59:59.000+09:00","limit_number":null,"address":"名古屋市中区大須4丁目1-71","place":"名古屋大須 RAD HALL","lat":35.1614,"lon":136.907,"state":"active","id":null},{"event_id":"572745","title":"リトルハッピー・イン・スローナイト~ヒマラヤの麓に見つめる愛と思いやりのかたち~","url":"http://wtp-youth20181118.peatix.com","shortener_url":null,"started_at":"2018-12-18T19:00:00.000+09:00","ended_at":"2018-12-21T08:59:59.000+09:00","limit_number":null,"address":"神奈川県横浜市戸塚区矢部町125","place":"カフェゆっくり堂","lat":35.4041,"lon":139.536,"state":"active","id":null},{"event_id":"572958","title":"Fw:東北　共創イベント　人口増にたよらないまちづくり —福島県小野町から考える、地域を沸き立てる力とは？","url":"http://peatix.com/event/572958","shortener_url":null,"started_at":"2018-12-08T13:00:00.000+09:00","ended_at":"2018-12-11T08:59:59.000+09:00","limit_number":null,"address":"小野町小野新町中通2","place":"小野町 多目的研修集会施設","lat":37.2793,"lon":140.634,"state":"active","id":null},{"event_id":"110309","title":"とやま県民協働未来創生事業/アーバンデータチャレンジ　県民発公共交通オープンデータ利活用開発合宿","url":"https://code4toyama.connpass.com/event/110309/","shortener_url":"https://goo.gl/NSF8Nk","started_at":"2018-12-15T13:30:00.000+09:00","ended_at":"2018-12-16T15:00:00.000+09:00","limit_number":28,"address":"富山県富山市 八尾町上新町2701-1","place":"越中八尾ベース OYATSU","lat":36.5765,"lon":137.132,"state":"active","id":null},{"event_id":"110730","title":"量子コンピュータハッカソン by Team AI 12/12(水)","url":"https://teamai.connpass.com/event/110730/","shortener_url":"https://goo.gl/9H9QFY","started_at":"2018-12-13T04:30:00.000+09:00","ended_at":"2018-12-13T06:30:00.000+09:00","limit_number":10,"address":"","place":"Online","lat":35.6618,"lon":139.696,"state":"active","id":null},{"event_id":"110232","title":"【増枠】アイマスハッカソン2018","url":"https://imas.connpass.com/event/110232/","shortener_url":"https://goo.gl/c1kdPx","started_at":"2018-12-23T10:00:00.000+09:00","ended_at":"2018-12-23T20:00:00.000+09:00","limit_number":49,"address":"東京都千代田区神田駿河台2‒2 御茶ノ水杏雲ビル5F","place":"株式会社BearTail","lat":35.6655,"lon":139.736,"state":"active","id":null},{"event_id":"110381","title":"3D クリエイター座談会 Unity Japan ✕ ピクシブ","url":"https://pixiv.connpass.com/event/110381/","shortener_url":null,"started_at":"2018-12-01T04:00:00.000+09:00","ended_at":"2018-12-01T07:30:00.000+09:00","limit_number":150,"address":"渋谷区千駄ヶ谷4-23-5 JPR千駄ヶ谷ビル2F","place":"ピクシブ株式会社","lat":35.6809,"lon":139.707,"state":"active","id":null},{"event_id":"104271","title":"塩尻MLもくもく会 #12","url":"https://shiomoku.connpass.com/event/104271/","shortener_url":null,"started_at":"2018-12-02T02:50:00.000+09:00","ended_at":"2018-12-02T06:30:00.000+09:00","limit_number":7,"address":"長野県塩尻市大門一番町12－2","place":"市民交流センターえんぱーく 2F 会議室203","lat":36.1121,"lon":137.953,"state":"active","id":null},{"event_id":"83445","title":"量子コンピュータハッカソン","url":"https://team-ai.doorkeeper.jp/events/83445","shortener_url":"https://goo.gl/45kKhJ","started_at":"2018-12-12T19:30:00.000+09:00","ended_at":"2018-12-12T21:30:00.000+09:00","limit_number":4,"address":"東京都渋谷区宇田川町36-17 ニューシブヤマンション202","place":"Team AIベース（ニューシブヤマンション202）","lat":35.6618,"lon":139.696,"state":"active","id":null},{"event_id":"570659","title":"「俵ヶ浦と佐世保」ツアー＆アイデアソン","url":"http://tawaragauraandsasebo.peatix.com","shortener_url":"https://goo.gl/Pz1p4u","started_at":"2018-12-08T09:30:00.000+09:00","ended_at":"2018-12-11T08:59:59.000+09:00","limit_number":null,"address":"佐世保市野崎町2916","place":"佐世保・俵ヶ浦半島","lat":0.0,"lon":0.0,"state":"active","id":null},{"event_id":"573688","title":"TouchDesigner Study Weekend vol.013 @長野","url":"http://tdsw013.peatix.com","shortener_url":null,"started_at":"2018-12-15T10:00:00.000+09:00","ended_at":"2018-12-18T08:59:59.000+09:00","limit_number":null,"address":"長野市南長野西後町1550","place":"株式会社JBN","lat":36.6509,"lon":138.187,"state":"active","id":null},{"event_id":"573295","title":"Meet Japanese Girls Tokyo Best Nightclub party Nightlife Travelers Tourists Every Friday Saturday public holiday in Roppongi DiA Tokyo Disco Dance club Aitai Party Partyon Adventure","url":"http://tokyo-nightclub-best-party-roppongi-dia-aitai.peatix.com","shortener_url":null,"started_at":"2018-12-21T23:50:00.000+09:00","ended_at":"2018-12-24T08:59:59.000+09:00","limit_number":null,"address":"Minatoku Roppongi 3-8-15 Tokyo","place":"DiA Tokyo Roppongi","lat":35.6634,"lon":139.734,"state":"active","id":null},{"event_id":"573351","title":"Meet Japanese Girls Tokyo Best Nightclub Nightlife party Travelers Tourists Every Friday Saturday public holiday in Roppongi DiA Tokyo Disco Dance club Aitai Party Partyon Adventure","url":"http://meet-japanese-girls-tokyo-nightlife-nightclub-party.peatix.com","shortener_url":null,"started_at":"2018-12-15T23:50:00.000+09:00","ended_at":"2018-12-18T08:59:59.000+09:00","limit_number":null,"address":"Minatoku Roppongi 3-8-15 Tokyo","place":"DiA Tokyo Roppongi","lat":35.6634,"lon":139.734,"state":"active","id":null},{"event_id":"573256","title":"Where to Meet Japanese Girls Tokyo Nightlife Nightclub party Travelers Tourists Every Friday Saturday public holiday in Roppongi DiA Tokyo Disco Dance club Aitai Party Partyon Adventure Best Nightclub","url":"http://meet-japanese-girls-nightclub-nightlife-party-roppongi.peatix.com","shortener_url":null,"started_at":"2018-12-14T23:50:00.000+09:00","ended_at":"2018-12-17T08:59:59.000+09:00","limit_number":null,"address":"Minatoku Roppongi 3-8-15 Tokyo","place":"DiA Tokyo Roppongi","lat":35.6634,"lon":139.734,"state":"active","id":null},{"event_id":"451687","title":"Best Nightclub in Tokyo Party on with Japanese Girls Boys Travelers Tourists Every Friday Saturday public holiday 六本木クラブ女性無料入場プラス無料１ドリンク毎週金曜日と土曜日と祭日夜中Roppongi Club Girls Free entry plus one free drink (複製)","url":"http://peatix.com/event/451687","shortener_url":null,"started_at":"2018-12-03T23:00:00.000+09:00","ended_at":"2018-12-06T08:59:59.000+09:00","limit_number":null,"address":"Minatoku Roppongi 3-8-15 Tokyo","place":"DiA Tokyo Roppongi","lat":35.6634,"lon":139.734,"state":"active","id":null},{"event_id":"573258","title":"Tokyo Best Nightclub party Meet Japanese Girls Tokyo Nightlife Travelers Tourists Every Friday Saturday public holiday in Roppongi DiA Tokyo Disco Dance club Aitai Party Partyon Adventure Best Nightclub","url":"http://tokyo-best-nightclub-party-dia-aitaiparty-roppongi.peatix.com","shortener_url":null,"started_at":"2018-12-15T23:50:00.000+09:00","ended_at":"2018-12-18T08:59:59.000+09:00","limit_number":null,"address":"Minatoku Roppongi 3-8-15 Tokyo","place":"DiA Tokyo Roppongi","lat":35.6634,"lon":139.734,"state":"active","id":null},{"event_id":"110880","title":"学生対象：【文理不問】AI／機械学習／データサイエンティストにチャレンジ","url":"https://serakumedia.connpass.com/event/110880/","shortener_url":"https://goo.gl/1j16j3","started_at":"2018-12-15T19:00:00.000+09:00","ended_at":"2018-12-16T03:00:00.000+09:00","limit_number":10,"address":"東京都新宿区西新宿7-5-25 西新宿プライムスクエア 6F","place":"東京本社","lat":35.6974,"lon":139.699,"state":"active","id":null},{"event_id":"110778","title":"対話の可視化の可能性を探るワークショップ - サービスデザインクエスト #2","url":"https://sdq.connpass.com/event/110778/","shortener_url":null,"started_at":"2018-12-17T19:30:00.000+09:00","ended_at":"2018-12-17T22:00:00.000+09:00","limit_number":20,"address":"東京都渋谷区恵比寿4-20-3 恵比寿ガーデンプレイスタワー6階","place":"クラウドワークス","lat":35.6424,"lon":139.713,"state":"active","id":null},{"event_id":"110857","title":"【大阪】「Laravel入門」読書会＋もくもく会 2018/12/03","url":"https://kansai-web-app.connpass.com/event/110857/","shortener_url":null,"started_at":"2018-12-04T04:00:00.000+09:00","ended_at":"2018-12-04T06:30:00.000+09:00","limit_number":15,"address":"大阪市中央区本町４丁目７−７−３０３","place":"KiiiyaHommachi","lat":34.6849,"lon":135.498,"state":"active","id":null},{"event_id":"110590","title":"Blockchain Night／日本と海外のブロックチェーン業界ってどうなの？【12/10開催】","url":"https://framgia.connpass.com/event/110590/","shortener_url":null,"started_at":"2018-12-11T04:00:00.000+09:00","ended_at":"2018-12-11T07:00:00.000+09:00","limit_number":25,"address":"〒101-0035 東京都千代田区神田紺屋町15番地 グランファースト神田紺屋町9F","place":"株式会社フランジア","lat":35.6923,"lon":139.774,"state":"active","id":null},{"event_id":"83457","title":"【12/17（月）】Pythonで学ぶ機械学習入門②～協調フィルタリング","url":"https://soleildatadojo.doorkeeper.jp/events/83457","shortener_url":null,"started_at":"2018-12-17T19:00:00.000+09:00","ended_at":"2018-12-17T21:30:00.000+09:00","limit_number":12,"address":"大阪府大阪市北区西天満二丁目5番3号(堂島深川ビル3階)","place":"SCRIBBLE OSAKA LAB（SOL）（大阪メトロ御堂筋線「淀屋橋」駅から徒歩４分）","lat":34.6951,"lon":135.502,"state":"active","id":null},{"event_id":"83478","title":"『Python, Machine Learning \u0026 Raspberry PI』自主勉強会#10","url":"https://soleildatadojo.doorkeeper.jp/events/83478","shortener_url":null,"started_at":"2018-12-19T19:30:00.000+09:00","ended_at":"2018-12-19T21:40:00.000+09:00","limit_number":8,"address":"大阪府大阪市北区西天満二丁目5番3号(堂島深川ビル3階)","place":"SCRIBBLE OSAKA LAB（SOL）（大阪メトロ御堂筋線「淀屋橋」駅から徒歩４分）","lat":34.6951,"lon":135.502,"state":"active","id":null},{"event_id":"570993","title":"Jobweb Forum 2018 「 Strive for Eudaimonia 」自己実現や生きがいを感じることで得られる幸せについて考える","url":"http://jobwebforum2018.peatix.com","shortener_url":null,"started_at":"2018-12-15T12:00:00.000+09:00","ended_at":"2018-12-18T08:59:59.000+09:00","limit_number":null,"address":"東京都千代田区九段北4-2-1 市ヶ谷東急ビル5階","place":"株式会社ビービット","lat":35.6923,"lon":139.739,"state":"active","id":null},{"event_id":"573570","title":"12/7Fri 20:00〜メディア好きが集まる平成最後の大忘年会【主催：メディアインキュベート/Omnibus】","url":"http://media-party.peatix.com","shortener_url":null,"started_at":"2018-12-07T19:00:00.000+09:00","ended_at":"2018-12-10T08:59:59.000+09:00","limit_number":null,"address":"東京都渋谷区神宮前3-23-6","place":"原宿駅竹下口3分・明治神宮前駅3分『Re:Nature』3F\u00264F","lat":35.6693,"lon":139.707,"state":"active","id":null},{"event_id":"574175","title":"みやざきに移住せんか～？移住就農相談会＠東京《農家直伝！経験ゼロから稼げるピーマン農家の秘訣もお教えします♪》《東京出身で先輩移住就農者も登壇予定》","url":"http://miyazaki-agreen.peatix.com","shortener_url":null,"started_at":"2018-12-22T13:00:00.000+09:00","ended_at":"2018-12-25T08:59:59.000+09:00","limit_number":null,"address":"千代田区内神田3-6-2 アーバンネット神田ビル2F","place":"アーバンネット神田カンファレンス","lat":35.6906,"lon":139.77,"state":"active","id":null},{"event_id":"573440","title":"ロボットプログラミング教室supported by ロボ団＆T-KIDSシェアスクール","url":"http://robodone0.peatix.com","shortener_url":null,"started_at":"2018-12-09T11:00:00.000+09:00","ended_at":"2018-12-12T08:59:59.000+09:00","limit_number":null,"address":"大阪府吹田市山手町3丁目3-35","place":"関大大学千里山キャンパス　イノベーション創生センター1階","lat":34.771,"lon":135.509,"state":"active","id":null},{"event_id":"574341","title":"第4回：英国校認定特別講座説明会セミナー：イギリス本場でしか受けられない講座を日本で","url":"http://peatix.com/event/574341","shortener_url":null,"started_at":"2018-12-01T16:00:00.000+09:00","ended_at":"2018-12-04T08:59:59.000+09:00","limit_number":null,"address":"お申込みの方へご案内致します","place":"お申込みの方へご案内致します","lat":0.0,"lon":0.0,"state":"active","id":null},{"event_id":"572515","title":"Live English Standup Comedy Show in Tokyo","url":"http://peatix.com/event/572515","shortener_url":null,"started_at":"2018-12-15T19:30:00.000+09:00","ended_at":"2018-12-18T08:59:59.000+09:00","limit_number":null,"address":"東京都墨田区東駒形 2-20-10","place":"浅草スマイルバー","lat":0.0,"lon":0.0,"state":"active","id":null},{"event_id":"573713","title":"なぜ、今？大企業がクラウドファンディングを使う理由 〜パナソニックデザインチームの挑戦〜","url":"http://peatix.com/event/573713","shortener_url":null,"started_at":"2018-12-04T19:00:00.000+09:00","ended_at":"2018-12-07T08:59:59.000+09:00","limit_number":null,"address":"中央区日本橋茅場町1丁目5−8","place":"CAFE SALVADOR","lat":35.6806,"lon":139.78,"state":"active","id":null},{"event_id":"83604","title":"【12/6（木）】『Deep Learning』輪読会#3","url":"https://soleildatadojo.doorkeeper.jp/events/83604","shortener_url":null,"started_at":"2018-12-06T19:30:00.000+09:00","ended_at":"2018-12-06T21:40:00.000+09:00","limit_number":8,"address":"大阪府大阪市北区西天満二丁目5番3号(堂島深川ビル3階)","place":"SCRIBBLE OSAKA LAB（SOL）（大阪メトロ御堂筋線「淀屋橋」駅から徒歩４分）","lat":34.6951,"lon":135.502,"state":"active","id":null},{"event_id":"110993","title":"Alexa対応電子レンジを作る会【ハッカソン】","url":"https://iotlab.connpass.com/event/110993/","shortener_url":"https://goo.gl/1McJrp","started_at":"2018-12-15T18:00:00.000+09:00","ended_at":"2018-12-16T03:00:00.000+09:00","limit_number":8,"address":"東京都品川区大井1-23-2-702","place":"品川ハッカースペース","lat":35.6062,"lon":139.732,"state":"active","id":null},{"event_id":"110875","title":"【福岡中継】3D クリエイター座談会 Unity Japan ✕ ピクシブ","url":"https://connpass.com/event/110875/","shortener_url":null,"started_at":"2018-12-01T04:00:00.000+09:00","ended_at":"2018-12-01T07:30:00.000+09:00","limit_number":10,"address":"福岡市博多区祇園町8-13 (第一プリンスビル 1F)","place":"The Company キャナルシティ博多前店 会議室B","lat":33.5912,"lon":130.411,"state":"active","id":null},{"event_id":"111142","title":"Kamakura Mok Mok Hack 24","url":"https://kamkura-mokmok.connpass.com/event/111142/","shortener_url":null,"started_at":"2018-12-01T11:00:00.000+09:00","ended_at":"2018-12-01T13:00:00.000+09:00","limit_number":7,"address":"神奈川県 鎌倉市由比ガ浜1丁目12-8","place":"HOUSE YUIGAHAMA","lat":35.3202,"lon":139.55,"state":"active","id":null},{"event_id":"111132","title":"第13回 SQL Server 2019勉強会","url":"https://sqlserver.connpass.com/event/111132/","shortener_url":"https://goo.gl/FftcK4","started_at":"2018-12-22T18:30:00.000+09:00","ended_at":"2018-12-23T03:00:00.000+09:00","limit_number":46,"address":"","place":"Teams Online Meeting","lat":35.6266,"lon":139.741,"state":"active","id":null},{"event_id":"111065","title":"ライトニングトーク大会","url":"https://connpass.com/event/111065/","shortener_url":"https://goo.gl/L31cD2","started_at":"2018-12-29T00:00:00.000+09:00","ended_at":"2018-12-29T06:00:00.000+09:00","limit_number":25,"address":"大阪府大阪市福島区海老江２丁目８−２９ 2F","place":"大阪分散技術コミュニティー","lat":34.6979,"lon":135.475,"state":"active","id":null},{"event_id":"110402","title":"[ハッカソン]第2回 年忘れハッカソン\u0026LT","url":"https://osaka-dtc.connpass.com/event/110402/","shortener_url":"https://goo.gl/XTA32B","started_at":"2018-12-29T00:00:00.000+09:00","ended_at":"2018-12-29T06:00:00.000+09:00","limit_number":15,"address":"大阪府大阪市福島区海老江２丁目８−２９ 2F","place":"大阪分散技術コミュニティ","lat":34.6979,"lon":135.475,"state":"active","id":null},{"event_id":"574779","title":"【プログラミングしないハッカソン】あなたのアイデアで \"社内コミュニケーション\" をアップデート","url":"http://ideathon1215.peatix.com","shortener_url":"https://goo.gl/773Rru","started_at":"2018-12-15T12:30:00.000+09:00","ended_at":"2018-12-18T08:59:59.000+09:00","limit_number":null,"address":"新宿区西五軒町 2-10 東松ビル2F","place":"Co-nect 神楽坂（コネクト）","lat":35.7061,"lon":139.738,"state":"active","id":null},{"event_id":"575273","title":"【宇宙＝ロケットだけじゃない！】宇宙を「利用」する時代～宇宙ビジネスの今までとこれから～","url":"http://peatix.com/event/575273","shortener_url":null,"started_at":"2018-12-03T19:15:00.000+09:00","ended_at":"2018-12-06T08:59:59.000+09:00","limit_number":null,"address":"東京都中央区銀座7丁目16番12号 G-7ビルディング","place":"NIFcLounge","lat":35.6666,"lon":139.766,"state":"active","id":null},{"event_id":"574936","title":"Pitching MasterClass: How To Raise Venture Capital (EXCLUSIVE)","url":"http://fltl-ws-pitching-201812.peatix.com","shortener_url":null,"started_at":"2018-12-08T10:30:00.000+09:00","ended_at":"2018-12-11T08:59:59.000+09:00","limit_number":null,"address":"Singapore 409958","place":"Co-V, 12 Arumugam Road, Lion Building B, #06-01","lat":1.325,"lon":103.891,"state":"active","id":null},{"event_id":"574535","title":"誰でもすんなり理解できる解剖学テクニック～指導者にとって必要不可欠～","url":"http://peatix.com/event/574535","shortener_url":null,"started_at":"2018-12-14T10:00:00.000+09:00","ended_at":"2018-12-17T08:59:59.000+09:00","limit_number":null,"address":"大阪市北区曽根崎新地1−4−12 桜橋プラザビル8F","place":"【YMCメディカルトレーナーズスクール大阪・梅田校】梅田のヨガ/ヨガスクール","lat":34.6982,"lon":135.496,"state":"active","id":null},{"event_id":"575254","title":"Comedy Masala ft. Jinx Yeo (SIN) - EXTRA SHOW ADDED (Wed 05 Dec)","url":"http://jinxyeowedshow.peatix.com","shortener_url":null,"started_at":"2018-12-05T21:00:00.000+09:00","ended_at":"2018-12-08T08:59:59.000+09:00","limit_number":null,"address":"69 Circular Road, Boat Quay, Singapore 049423","place":"HERO'S, 69 Circular Road, Singapore 049423","lat":1.28641,"lon":103.849,"state":"active","id":null},{"event_id":"477225","title":"12月15日（土）アイデアからビジネスを創るワークショップ「Startup Discussion」","url":"http://181215discussion.peatix.com","shortener_url":null,"started_at":"2018-12-15T10:30:00.000+09:00","ended_at":"2018-12-18T08:59:59.000+09:00","limit_number":null,"address":"横浜市中区海岸通1-1","place":"波止場会館　３Ｆ小会議室Ｃ（日本大通り駅 徒歩５分）","lat":35.4483,"lon":139.645,"state":"active","id":null},{"event_id":"572643","title":"Comedy Masala ft. Kavin Jay (NETFLIX) \u0026 Umar Rana (Comedy Central) as THE AGONY UNCLES | Live Advice on Sex, Relationships \u0026 Very Dirty Stuff","url":"http://agonydecember.peatix.com","shortener_url":null,"started_at":"2018-12-11T21:00:00.000+09:00","ended_at":"2018-12-14T08:59:59.000+09:00","limit_number":null,"address":"69 Circular Road, Boat Quay, Singapore 049423","place":"HERO'S, 69 Circular Road, Singapore 049423","lat":1.28641,"lon":103.849,"state":"active","id":null},{"event_id":"111383","title":"オオミシマスペース忘年ハッカソン","url":"https://omishima-space.connpass.com/event/111383/","shortener_url":"https://goo.gl/2TjynS","started_at":"2018-12-01T19:00:00.000+09:00","ended_at":"2018-12-02T21:00:00.000+09:00","limit_number":6,"address":"愛媛県今治市上浦町甘崎1538","place":"オオミシマスペース","lat":34.2461,"lon":133.05,"state":"active","id":null},{"event_id":"111197","title":"【増枠】UX JAM 27 -Sports \u0026 UX Special-","url":"https://uxmilk.connpass.com/event/111197/","shortener_url":null,"started_at":"2018-12-11T19:30:00.000+09:00","ended_at":"2018-12-11T21:30:00.000+09:00","limit_number":70,"address":"〒231-0021 神奈川県横浜市中区日本大通３４","place":"THE BAYS 2F CREATIVE SPORTS LAB","lat":35.4449,"lon":139.642,"state":"active","id":null},{"event_id":"575617","title":"IchigoJamプログラミング講座＜子ども向け・大人向け＞\u003cHana道場\u003e(12月22日)","url":"http://peatix.com/event/575617","shortener_url":null,"started_at":"2018-12-22T14:00:00.000+09:00","ended_at":"2018-12-25T08:59:59.000+09:00","limit_number":null,"address":"〒916-0025, 旭町1丁目6-6, 鯖江市","place":"Hana道場 - Hana Open Innovation Dojo -","lat":35.9446,"lon":136.186,"state":"active","id":null},{"event_id":"575956","title":"Where to Party in Tokyo Nightlife Nightclub Guide Meet Japanese Girls Travelers Tourists Every Friday Saturday public holiday in Roppongi DiA Tokyo Disco Dance club Aitai Party Partyon Adventure","url":"http://where-to-party-in-tokyo-nightlife-nightclub.peatix.com","shortener_url":null,"started_at":"2018-12-07T23:50:00.000+09:00","ended_at":"2018-12-10T08:59:59.000+09:00","limit_number":null,"address":"Minatoku Roppongi 3-8-15 Tokyo","place":"DiA Tokyo Roppongi","lat":35.6634,"lon":139.734,"state":"active","id":null},{"event_id":"575972","title":"Tokyo Nightlife Party 六本木クラブパーティー女性無料国際交流パーティー Where to Party in Tokyo Nightlife Nightclub Guide Meet Japanese Girls Travelers Tourists Every Friday Saturday public holiday in Roppongi DiA Tokyo Disco Dance club Aitai Party Partyon Adventure (複製)","url":"http://tokyo-nightlife-party-roppongi-disco.peatix.com","shortener_url":null,"started_at":"2018-12-14T23:55:00.000+09:00","ended_at":"2018-12-17T08:59:59.000+09:00","limit_number":null,"address":"Minatoku Roppongi 3-8-15 Tokyo","place":"DiA Tokyo Roppongi","lat":35.6634,"lon":139.734,"state":"active","id":null},{"event_id":"575965","title":"六本木クラブパーティー女性無料国際交流パーティー Where to Party in Tokyo Nightlife Nightclub Guide Meet Japanese Girls Travelers Tourists Every Friday Saturday public holiday in Roppongi DiA Tokyo Disco Dance club Aitai Party Partyon Adventure","url":"http://tokyo-nightlife.peatix.com","shortener_url":null,"started_at":"2018-12-08T23:55:00.000+09:00","ended_at":"2018-12-11T08:59:59.000+09:00","limit_number":null,"address":"Minatoku Roppongi 3-8-15 Tokyo","place":"DiA Tokyo Roppongi","lat":35.6634,"lon":139.734,"state":"active","id":null},{"event_id":"571337","title":"初めての「ZOOM」：体験してみて発想しよう！ （12月度）","url":"http://peatix.com/event/571337","shortener_url":null,"started_at":"2018-12-22T23:00:00.000+09:00","ended_at":"2018-12-25T08:59:59.000+09:00","limit_number":null,"address":"東京都中央区日本橋三丁目","place":"オンラインセミナー「ZOOM」会議室","lat":35.6798,"lon":139.772,"state":"active","id":null},{"event_id":"576149","title":"関西【12/29(土)夜7:30】自分史上最高にSEXYな1枚を撮る「秘めフォト部」！新しく「SEXY」な自分を見つけて明日に自信を持つための女性限定フォトサービス！《10名様限定／初めての方大歓迎》","url":"http://peatix.com/event/576149","shortener_url":null,"started_at":"2018-12-29T19:30:00.000+09:00","ended_at":"2019-01-01T08:59:59.000+09:00","limit_number":null,"address":"京都府京都市東山区博多町112−5","place":"京都天狼院","lat":35.0017,"lon":135.773,"state":"active","id":null},{"event_id":"571338","title":"「ZOOMオンラインセミナー」実践を学ぶ：準備から開催・ZOOM機能フル活用：実務編 （12月度）","url":"http://peatix.com/event/571338","shortener_url":null,"started_at":"2018-12-22T23:00:00.000+09:00","ended_at":"2018-12-25T08:59:59.000+09:00","limit_number":null,"address":"東京都中央区日本橋三丁目","place":"オンラインセミナー","lat":35.6798,"lon":139.772,"state":"active","id":null},{"event_id":"111503","title":"自然言語データ分析ハッカソン by Team AI 12/19(水)","url":"https://teamai.connpass.com/event/111503/","shortener_url":"https://goo.gl/eSm6x5","started_at":"2018-12-20T04:30:00.000+09:00","ended_at":"2018-12-20T06:30:00.000+09:00","limit_number":10,"address":"","place":"Online","lat":35.6618,"lon":139.696,"state":"active","id":null},{"event_id":"575237","title":"秋葉原アイディアソンVol.1「ライブエンターテイメント特区を考える」","url":"http://akibaideathon.peatix.com","shortener_url":"https://goo.gl/u4bvLz","started_at":"2018-12-15T10:30:00.000+09:00","ended_at":"2018-12-18T08:59:59.000+09:00","limit_number":null,"address":"千代田区外神田1丁目8−13","place":"二松學舍大学 AKIBA Lab.","lat":35.6992,"lon":139.77,"state":"active","id":null},{"event_id":"575860","title":"WAGASHI PARTY 〜大福ちゃんと最中さん〜","url":"http://daifukumonaka.peatix.com","shortener_url":null,"started_at":"2018-12-08T12:00:00.000+09:00","ended_at":"2018-12-11T08:59:59.000+09:00","limit_number":null,"address":"江東区清澄2丁目5−3","place":"ちんぷん館TOKYO","lat":35.6817,"lon":139.795,"state":"active","id":null},{"event_id":"576326","title":"【残り10名】12/11(火)開催 年内に整えましょう“わたしたちの健康” 【二次募集】","url":"http://pola-pavilion-sheis2.peatix.com","shortener_url":null,"started_at":"2018-12-11T19:00:00.000+09:00","ended_at":"2018-12-14T08:59:59.000+09:00","limit_number":null,"address":"目黒区上目黒1丁目6−10","place":"PAVILION","lat":35.6451,"lon":139.7,"state":"active","id":null},{"event_id":"575525","title":"[ 1ST WEEK DECEMBER UNLOCKED ] SUN- 2nd DEC: Pizza TASTING SESSION 52.0","url":"http://sun2nddecpizzasession.peatix.com","shortener_url":null,"started_at":"2018-12-02T19:00:00.000+09:00","ended_at":"2018-12-05T08:59:59.000+09:00","limit_number":null,"address":"12, Jalan 21/22, Sea Park, 46300 Petaling Jaya, Selangor, Malaysia","place":"myPizzaLab","lat":3.1105,"lon":101.622,"state":"active","id":null},{"event_id":"575522","title":"[ 1ST WEEK DECEMBER UNLOCKED ] SAT - 1st DEC: Pizza TASTING SESSION 51.0","url":"http://sat1stdecpizzasession.peatix.com","shortener_url":null,"started_at":"2018-12-01T19:00:00.000+09:00","ended_at":"2018-12-04T08:59:59.000+09:00","limit_number":null,"address":"12, Jalan 21/22, Sea Park, 46300 Petaling Jaya, Selangor, Malaysia","place":"myPizzaLab","lat":3.1105,"lon":101.622,"state":"active","id":null},{"event_id":"576010","title":"経営陣ご登壇！【IoT x エンジニア】CTO、取締役、テックリードが語る勝ち筋","url":"http://peatix.com/event/576010","shortener_url":null,"started_at":"2018-12-06T19:00:00.000+09:00","ended_at":"2018-12-09T08:59:59.000+09:00","limit_number":null,"address":"東京都港区六本木1-6-1","place":"forStartups,Inc. オフィス","lat":35.6646,"lon":139.739,"state":"active","id":null},{"event_id":"576454","title":"FRISK風ヘッドフォンアンプをつくろう【12/16(日)開催】","url":"http://dmmmake1812frsk.peatix.com","shortener_url":null,"started_at":"2018-12-16T11:00:00.000+09:00","ended_at":"2018-12-19T08:59:59.000+09:00","limit_number":null,"address":"東京都千代田区神田練塀町3 富士ソフト秋葉原ビル 10F DMM.make AKIBA Studio","place":"DMM.make AKIBA 10F Studio","lat":35.7008,"lon":139.774,"state":"active","id":null},{"event_id":"576456","title":"半田付け体験とテスター・オシロスコープ入門【12/20(木)開催】","url":"http://dmmmake181220hand.peatix.com","shortener_url":null,"started_at":"2018-12-20T11:00:00.000+09:00","ended_at":"2018-12-23T08:59:59.000+09:00","limit_number":null,"address":"東京都千代田区神田練塀町3 富士ソフト秋葉原ビル 10F DMM.make AKIBA Studio","place":"DMM.make AKIBA 10F Studio","lat":35.7008,"lon":139.774,"state":"active","id":null},{"event_id":"576446","title":"シナ合板でつくる多面体スピーカー【12/15(土)開催】","url":"http://dmmmake1812poly.peatix.com","shortener_url":null,"started_at":"2018-12-15T11:00:00.000+09:00","ended_at":"2018-12-18T08:59:59.000+09:00","limit_number":null,"address":"東京都千代田区神田練塀町3 富士ソフト秋葉原ビル 10F DMM.make AKIBA Studio","place":"DMM.make AKIBA 10F Studio","lat":35.7008,"lon":139.774,"state":"active","id":null},{"event_id":"576458","title":"とことん３Dスキャン体験【12/22(土)開催】","url":"http://dmmmake1812scan.peatix.com","shortener_url":null,"started_at":"2018-12-22T14:00:00.000+09:00","ended_at":"2018-12-25T08:59:59.000+09:00","limit_number":null,"address":"東京都千代田区神田練塀町3 富士ソフト秋葉原ビル 10F DMM.make AKIBA Studio","place":"DMM.make AKIBA 10F Studio","lat":35.7008,"lon":139.774,"state":"active","id":null},{"event_id":"576239","title":"I Laugh KL Presents: Xmas Comes Early w. Phoon Chi Ho!","url":"http://ilaughxmas.peatix.com","shortener_url":null,"started_at":"2018-12-03T22:00:00.000+09:00","ended_at":"2018-12-06T08:59:59.000+09:00","limit_number":null,"address":"Rahim Kajai 14, Taman Tun Dr Ismail, Kuala Lumpur","place":"Crack House Comedy Club","lat":3.15478,"lon":101.623,"state":"active","id":null},{"event_id":"576161","title":"今、話題のiDeCo、30分でサクッと解説！【iDeCo寄り道セミナー】しくみ編　（参加費無料）","url":"http://peatix.com/event/576161","shortener_url":null,"started_at":"2018-12-05T12:15:00.000+09:00","ended_at":"2018-12-08T08:59:59.000+09:00","limit_number":null,"address":"東京都中央区八重洲2-1","place":"つみたてプラザやえす(八重洲地下街北１号)","lat":35.6799,"lon":139.77,"state":"active","id":null},{"event_id":"576541","title":"Crackhouse Presents: BURN OUT Comedy!","url":"http://burnout13dec.peatix.com","shortener_url":null,"started_at":"2018-12-13T22:00:00.000+09:00","ended_at":"2018-12-16T08:59:59.000+09:00","limit_number":null,"address":"24A Lorong Rahim Kajai 14, Taman Tun Dr. Ismail, 60000 Kuala Lumpur","place":"Crackhouse Comedy Club Kuala Lumpur","lat":3.15474,"lon":101.623,"state":"active","id":null},{"event_id":"576293","title":"Comedy 'Rojak!' | Malay \u0026 English Stand-up Comedy","url":"http://rojak6dec.peatix.com","shortener_url":null,"started_at":"2018-12-06T22:00:00.000+09:00","ended_at":"2018-12-09T08:59:59.000+09:00","limit_number":null,"address":"24A Lorong Rahim Kajai 14, Taman Tun Dr. Ismail, 60000 Kuala Lumpur","place":"Crackhouse Comedy Club Kuala Lumpur","lat":3.15474,"lon":101.623,"state":"active","id":null},{"event_id":"576227","title":"今、話題のiDeCo、30分でサクッと解説！【iDeCo寄り道セミナー】手続き編　（参加費無料）","url":"http://peatix.com/event/576227","shortener_url":null,"started_at":"2018-12-12T12:15:00.000+09:00","ended_at":"2018-12-15T08:59:59.000+09:00","limit_number":null,"address":"東京都中央区八重洲2-1","place":"つみたてプラザやえす(八重洲地下街北１号)","lat":35.6799,"lon":139.77,"state":"active","id":null},{"event_id":"576238","title":"今、話題のiDeCo、30分でサクッと解説！【iDeCo寄り道セミナー】運用基礎編　（参加費無料）","url":"http://peatix.com/event/576238","shortener_url":null,"started_at":"2018-12-19T12:15:00.000+09:00","ended_at":"2018-12-22T08:59:59.000+09:00","limit_number":null,"address":"東京都中央区八重洲2-1","place":"つみたてプラザやえす(八重洲地下街北１号)","lat":35.6799,"lon":139.77,"state":"active","id":null},{"event_id":"575859","title":"maison de mana 出張ワークショップ in モロッコマルシェ@象の鼻テラス","url":"http://maison120809.peatix.com","shortener_url":null,"started_at":"2018-12-08T11:00:00.000+09:00","ended_at":"2018-12-11T08:59:59.000+09:00","limit_number":null,"address":"横浜市中区海岸通1丁目","place":"象の鼻テラス","lat":35.4496,"lon":139.643,"state":"active","id":null},{"event_id":"570735","title":"セブン銀行が登壇決定！金融関連企業様必見のチャット・botを活用した働き方改革実現セミナー","url":"http://wowtech181213.peatix.com","shortener_url":null,"started_at":"2018-12-13T15:00:00.000+09:00","ended_at":"2018-12-16T08:59:59.000+09:00","limit_number":null,"address":"東京都千代田区神田須田町1-26-3","place":"エッサム 本社ビル（こだまホール 4階）","lat":35.6945,"lon":139.77,"state":"active","id":null},{"event_id":"576344","title":"【前売終了・当日券あり】12/23(日) 泡クリスマス @鹿児島duckbill","url":"http://awapa181223.peatix.com","shortener_url":null,"started_at":"2018-12-23T19:00:00.000+09:00","ended_at":"2018-12-26T08:59:59.000+09:00","limit_number":null,"address":"鹿児島県鹿児島市市山之口町11-7","place":"Duckbill","lat":31.5894,"lon":130.554,"state":"active","id":null},{"event_id":"83609","title":"第２回いわみプログラミング少年団　発表会【合同開催】いわみくと MeetUp！vol.34（いわみICT協議会定例会 ）","url":"https://iwami-ict.doorkeeper.jp/events/83609","shortener_url":null,"started_at":"2018-12-22T10:00:00.000+09:00","ended_at":"2018-12-22T17:00:00.000+09:00","limit_number":null,"address":"島根県浜田市黒川町3748番地1","place":" 浜田市立中央図書館多目的ホール ","lat":34.8982,"lon":132.096,"state":"active","id":null},{"event_id":"83952","title":"[WACA x SPARTA共催] 英語でウェブ解析士認定講座の体験セミナー","url":"https://web-mining.doorkeeper.jp/events/83952","shortener_url":null,"started_at":"2018-12-05T19:30:00.000+09:00","ended_at":"2018-12-05T21:30:00.000+09:00","limit_number":20,"address":"東京都新宿区新宿1-12-3 ガーデンビル3F","place":"スパルタ英会話","lat":null,"lon":null,"state":"active","id":null},{"event_id":"575314","title":"Chilly Source JAM Special Edition 〜BASI BACK AGAIN〜","url":"http://chillysourcejamspecial.peatix.com","shortener_url":null,"started_at":"2018-12-29T18:00:00.000+09:00","ended_at":"2019-01-01T08:59:59.000+09:00","limit_number":null,"address":"中央区日本橋大伝馬町15−2","place":"シタン","lat":35.6916,"lon":139.781,"state":"active","id":null},{"event_id":"566751","title":"SNS運用講座~ 1万人を味方につける！自己ブランディング合宿 ~","url":"http://weekend20181201.peatix.com","shortener_url":null,"started_at":"2018-12-01T13:00:00.000+09:00","ended_at":"2018-12-04T08:59:59.000+09:00","limit_number":null,"address":"都留市田原2丁目14−8 小宮ビル2F","place":"コワーキングコミュニティteraco.","lat":35.5414,"lon":138.898,"state":"active","id":null},{"event_id":"576801","title":"これからの町づくり、会社を超えたチームビルディングを語ろう","url":"http://inc-line-1st-event.peatix.com","shortener_url":null,"started_at":"2018-12-11T19:30:00.000+09:00","ended_at":"2018-12-14T08:59:59.000+09:00","limit_number":null,"address":"渋谷区渋谷3丁目9−10 渋谷アサヒビル5階","place":"Inc-line","lat":35.6572,"lon":139.704,"state":"active","id":null},{"event_id":"576765","title":"World Top DJ play in DiA Tokyo 1Dec2018 Mike Williams Nightlife Nightclub Party Meet Japanese Girls Travelers Tourists Where to Party in Tokyo Guide Every Friday Saturday public holiday Roppongi DiA Tokyo Disco Dance club Aitai Party Partyon Adventure","url":"http://peatix.com/event/576765","shortener_url":null,"started_at":"2018-12-01T23:55:00.000+09:00","ended_at":"2018-12-04T08:59:59.000+09:00","limit_number":null,"address":"Minatoku Roppongi 3-8-15 Tokyo","place":"DiA Tokyo Roppongi","lat":35.6634,"lon":139.734,"state":"active","id":null},{"event_id":"576920","title":"Tokyo Best Nightlife Nightclub Party with World Top DJ play in DiA Tokyo 1Dec2018 Mike Williams Meet Japanese Girls Travelers Tourists Where to Party in Tokyo Guide Every Friday Saturday public holiday Roppongi DiA Tokyo Disco Dance club Aitai Party Party","url":"http://tokyo-nightclub-party-dia-aitai-roppongi-allnight.peatix.com","shortener_url":null,"started_at":"2018-12-01T23:50:00.000+09:00","ended_at":"2018-12-04T08:59:59.000+09:00","limit_number":null,"address":"Minatoku Roppongi 3-8-15 Tokyo","place":"DiA Tokyo Roppongi","lat":35.6634,"lon":139.734,"state":"active","id":null},{"event_id":"576685","title":"サイエンスブッククラブvol.22（今を見通し未来を創るサイエンス100冊／学び始めのサイエンス）","url":"http://peatix.com/event/576685","shortener_url":null,"started_at":"2018-12-19T19:00:00.000+09:00","ended_at":"2018-12-22T08:59:59.000+09:00","limit_number":null,"address":"大阪府大阪市北区大深町3-1","place":"The Lab（カフェラボ）グランフロント大阪店","lat":34.7053,"lon":135.495,"state":"active","id":null},{"event_id":"576690","title":"サイエンスブッククラブvol.23（今を見通し未来を創るサイエンス100冊／学び始めのサイエンス）","url":"http://peatix.com/event/576690","shortener_url":null,"started_at":"2018-12-29T09:00:00.000+09:00","ended_at":"2019-01-01T08:59:59.000+09:00","limit_number":null,"address":"大阪府大阪市北区大深町3-1","place":"The Lab（カフェラボ）グランフロント大阪店","lat":34.7053,"lon":135.495,"state":"active","id":null},{"event_id":"111738","title":"【大阪】SundayティータイムHACK 2018/12/02【初心者歓迎】","url":"https://hackers-salon.connpass.com/event/111738/","shortener_url":null,"started_at":"2018-12-02T22:00:00.000+09:00","ended_at":"2018-12-03T02:00:00.000+09:00","limit_number":null,"address":"大阪市中央区本町４丁目７−７ 飛鳥ビル３０２","place":"Kiiiya Hommachi（2020年6月営業終了）","lat":34.6849,"lon":135.498,"state":"active","id":null},{"event_id":"111720","title":"熊ゆに Unityもくもく会　2018/12/2（日）","url":"https://kumauni.connpass.com/event/111720/","shortener_url":null,"started_at":"2018-12-02T13:00:00.000+09:00","ended_at":"2018-12-02T17:00:00.000+09:00","limit_number":10,"address":"熊本県熊本市下通り１丁目１０－１０(銀座プラザビル８F)","place":"Bar ランバリオン","lat":32.8001,"lon":130.709,"state":"active","id":null},{"event_id":"111711","title":"FinTechデー­­タ分析ハッカソン by Team AI 12/21(金)","url":"https://teamai.connpass.com/event/111711/","shortener_url":"https://goo.gl/GxJyp1","started_at":"2018-12-22T04:30:00.000+09:00","ended_at":"2018-12-22T06:30:00.000+09:00","limit_number":16,"address":"","place":"Online","lat":35.6618,"lon":139.696,"state":"active","id":null},{"event_id":"105741","title":"高専カンファレンス in 名古屋2018","url":"https://connpass.com/event/105741/","shortener_url":null,"started_at":"2018-12-22T22:00:00.000+09:00","ended_at":"2018-12-23T03:00:00.000+09:00","limit_number":80,"address":"愛知県名古屋市東区東桜2丁目3番7号(東カン名古屋キャステール)","place":"東カン名古屋キャステール2階 大会議室","lat":35.1738,"lon":136.918,"state":"active","id":null},{"event_id":"104293","title":"Meguro.es #18 @ ラクスル","url":"https://meguroes.connpass.com/event/104293/","shortener_url":null,"started_at":"2018-12-07T04:30:00.000+09:00","ended_at":"2018-12-07T07:30:00.000+09:00","limit_number":67,"address":"東京都品川区上大崎2-24-9 (アイケイビル1F)","place":"ラクスル株式会社","lat":35.6353,"lon":139.714,"state":"active","id":null},{"event_id":"110639","title":"Netlify Meetup #003","url":"https://jamstack-tokyo.connpass.com/event/110639/","shortener_url":null,"started_at":"2018-12-14T04:00:00.000+09:00","ended_at":"2018-12-14T06:00:00.000+09:00","limit_number":53,"address":"東京都港区白金1-17-3 NBF プラチナタワー10F","place":"ABEJA Office","lat":35.6446,"lon":139.735,"state":"active","id":null},{"event_id":"111483","title":"THE NEXT WAVE OF DISTRIBUTED TECH","url":"https://neutrino.connpass.com/event/111483/","shortener_url":null,"started_at":"2018-12-07T03:30:00.000+09:00","ended_at":"2018-12-07T06:00:00.000+09:00","limit_number":50,"address":"東京都渋谷区桜丘町12-10 住友不動産渋谷インフォスアネックス1F","place":"Neutrino","lat":35.6544,"lon":139.701,"state":"active","id":null},{"event_id":"83837","title":"【アイデア創出の基礎が身につく！！】第2回 SDGsワークショプ～テクノロジーで社会課題を解決しよう～","url":"https://future-tech-association.doorkeeper.jp/events/83837","shortener_url":"https://goo.gl/vbZwT1","started_at":"2018-12-15T14:00:00.000+09:00","ended_at":"2018-12-15T17:30:00.000+09:00","limit_number":20,"address":"東京都千代田区神田練塀町3(富士ソフト秋葉原ビル)","place":"DMM.make AKIBA","lat":35.7003,"lon":139.774,"state":"active","id":null},{"event_id":"84032","title":"FinTechデータ分析ハッカソン","url":"https://team-ai.doorkeeper.jp/events/84032","shortener_url":"https://goo.gl/EDaWYb","started_at":"2018-12-21T19:30:00.000+09:00","ended_at":"2018-12-21T21:30:00.000+09:00","limit_number":3,"address":"東京都渋谷区宇田川町36-17 ニューシブヤマンション202","place":"Team AIベース（ニューシブヤマンション202）","lat":35.6618,"lon":139.696,"state":"active","id":null},{"event_id":"487153","title":"古森結衣 21st Birthday live 2部","url":"http://peatix.com/event/487153","shortener_url":null,"started_at":"2018-12-02T17:00:00.000+09:00","ended_at":"2018-12-05T08:59:59.000+09:00","limit_number":null,"address":"横浜市中区花咲町2-68-4","place":"JAM THE SECOND　 ジャムセカンド","lat":35.4502,"lon":139.63,"state":"active","id":null},{"event_id":"487146","title":"古森結衣 21st Birthday live 1部","url":"http://peatix.com/event/487146","shortener_url":null,"started_at":"2018-12-02T13:00:00.000+09:00","ended_at":"2018-12-05T08:59:59.000+09:00","limit_number":null,"address":"横浜市中区花咲町2-68-4","place":"JAM THE SECOND　 ジャムセカンド","lat":35.4502,"lon":139.63,"state":"active","id":null},{"event_id":"576348","title":"【アイデア創出の基礎が身につく！！】第2回 SDGsワークショプ～テクノロジーで社会課題を解決しよう～","url":"http://peatix.com/event/576348","shortener_url":"https://goo.gl/7buCvj","started_at":"2018-12-15T13:00:00.000+09:00","ended_at":"2018-12-18T08:59:59.000+09:00","limit_number":null,"address":"東京都千代田区神田練塀町3","place":"DMM.make AKIBA(富士ソフト秋葉原ビル)","lat":0.0,"lon":0.0,"state":"active","id":null},{"event_id":"566831","title":"New Jack vol.13 -6th Anniversary- #NJ1201","url":"http://newjack1201.peatix.com","shortener_url":null,"started_at":"2018-12-01T21:00:00.000+09:00","ended_at":"2018-12-04T08:59:59.000+09:00","limit_number":null,"address":"愛知県名古屋市中区栄4-7-17ユタカビル","place":"New Jack","lat":35.167,"lon":136.914,"state":"active","id":null},{"event_id":"575025","title":"第6回mokubaの勉強会：ボーダレスな空間をデザインする","url":"http://mokuba-event06.peatix.com","shortener_url":null,"started_at":"2018-12-07T19:00:00.000+09:00","ended_at":"2018-12-10T08:59:59.000+09:00","limit_number":null,"address":"渋谷区恵比寿4丁目6−1 8階 恵比寿MFビル","place":"Peatix Japan株式会社","lat":35.6458,"lon":139.712,"state":"active","id":null},{"event_id":"577227","title":"【満員につき締切！】現役セキュリティ研究者から学ぶ『What's up?セキュリティ』　～監視カメラのぞき見からサイバーテロまで～","url":"http://peatix.com/event/577227","shortener_url":null,"started_at":"2018-12-12T19:30:00.000+09:00","ended_at":"2018-12-15T08:59:59.000+09:00","limit_number":null,"address":"東京都豊島区高田3丁目15-7 第一大島ビル406号室","place":"kurenai会議室","lat":35.7155,"lon":139.706,"state":"active","id":null},{"event_id":"577203","title":"【現役データサイエンティストと学ぶ】課題を解いて身に付けるPythonデータ分析","url":"http://peatix.com/event/577203","shortener_url":null,"started_at":"2018-12-08T18:30:00.000+09:00","ended_at":"2018-12-11T08:59:59.000+09:00","limit_number":null,"address":"東京都中央区築地6-6-3 米山ビル3F","place":"築地ジェニールーム","lat":35.6656,"lon":139.774,"state":"active","id":null},{"event_id":"577709","title":"[ 1ST WEEK DECEMBER UNLOCKED ] THURS- 6th DEC: Pizza TASTING SESSION 55.0","url":"http://thurs6thdecpizzasession.peatix.com","shortener_url":null,"started_at":"2018-12-06T19:00:00.000+09:00","ended_at":"2018-12-09T08:59:59.000+09:00","limit_number":null,"address":"12, Jalan 21/22, Sea Park, 46300 Petaling Jaya, Selangor, Malaysia","place":"myPizzaLab","lat":3.1105,"lon":101.622,"state":"active","id":null},{"event_id":"577711","title":"[ 1ST WEEK DECEMBER UNLOCKED ] TUES- 4th DEC: Pizza TASTING SESSION 53.0","url":"http://tues4thdecpizzasession.peatix.com","shortener_url":null,"started_at":"2018-12-04T19:00:00.000+09:00","ended_at":"2018-12-07T08:59:59.000+09:00","limit_number":null,"address":"12, Jalan 21/22, Sea Park, 46300 Petaling Jaya, Selangor, Malaysia","place":"myPizzaLab","lat":3.1105,"lon":101.622,"state":"active","id":null},{"event_id":"577716","title":"[ 1ST WEEK DECEMBER UNLOCKED ] WEDS- 5th DEC: Pizza TASTING SESSION 54.0","url":"http://weds5thdecpizzasession.peatix.com","shortener_url":null,"started_at":"2018-12-05T19:00:00.000+09:00","ended_at":"2018-12-08T08:59:59.000+09:00","limit_number":null,"address":"12, Jalan 21/22, Sea Park, 46300 Petaling Jaya, Selangor, Malaysia","place":"myPizzaLab","lat":3.1105,"lon":101.622,"state":"active","id":null},{"event_id":"577412","title":"【関係者・協賛者向け】【ホーム最終戦】F2リーグ第13節Y.S.C.C.横浜vsボルクバレット北九州","url":"http://ysccfutsal20181215.peatix.com","shortener_url":null,"started_at":"2018-12-15T14:30:00.000+09:00","ended_at":"2018-12-18T08:59:59.000+09:00","limit_number":null,"address":"横浜市神奈川区三ツ沢西町3−1","place":"横浜市平沼記念体育館","lat":35.4698,"lon":139.607,"state":"active","id":null},{"event_id":"577546","title":"“つくるとたべる”のチェンジ・メイカー育成プログラム オープンセッション","url":"http://peatix.com/event/577546","shortener_url":null,"started_at":"2018-12-15T14:00:00.000+09:00","ended_at":"2018-12-18T08:59:59.000+09:00","limit_number":null,"address":"千代田区丸の内1丁目7−12","place":"立命館東京キャンパス","lat":35.6838,"lon":139.768,"state":"active","id":null},{"event_id":"577119","title":"Jobweb Forum 2018 「 For Eudaimonia 」幸せに働くにはどうすればよいのか？","url":"http://jobwebforum20181215.peatix.com","shortener_url":null,"started_at":"2018-12-15T14:00:00.000+09:00","ended_at":"2018-12-18T08:59:59.000+09:00","limit_number":null,"address":"東京都千代田区神田駿河台4-6 ソラシティアカデミア5F","place":"株式会社EDUPLA","lat":0.0,"lon":0.0,"state":"active","id":null},{"event_id":"575413","title":"【満員御礼】【12/18夜】前野教授とデータで語る1on1の実態と今後の展望","url":"http://happinessatwork013.peatix.com","shortener_url":null,"started_at":"2018-12-18T18:00:00.000+09:00","ended_at":"2018-12-21T08:59:59.000+09:00","limit_number":null,"address":"港区港南1-2-70","place":"コクヨ品川SSTライブオフィス（品川シーズンテラス18F）","lat":35.6326,"lon":139.742,"state":"active","id":null},{"event_id":"577146","title":"[SOLD OUT] Crackhouse Comedy Presents : Douglas Lim (MY)","url":"http://douglascracksdecember.peatix.com","shortener_url":null,"started_at":"2018-12-19T22:00:00.000+09:00","ended_at":"2018-12-22T08:59:59.000+09:00","limit_number":null,"address":"24A (1st Floor) Lorong Rahim Kajai 14, Taman Tun Dr. Ismail, 60000 Kuala Lumpur","place":"The Crackhouse Comedy Club KL","lat":3.15478,"lon":101.623,"state":"active","id":null},{"event_id":"577254","title":"Microsoft Power BI 実践ハンズオン 入門編（2018年12月）","url":"http://powerbi201812.peatix.com","shortener_url":null,"started_at":"2018-12-27T14:00:00.000+09:00","ended_at":"2018-12-30T08:59:59.000+09:00","limit_number":null,"address":"東京都中央区銀座3丁目9 銀座3-9-4 銀座草野ビルディング 4F","place":"マイスペース 銀座マロニエ通り店","lat":35.6718,"lon":139.768,"state":"active","id":null},{"event_id":"569496","title":"Osaka Pub Crawl SATURDAY night party!","url":"http://peatix.com/event/569496","shortener_url":null,"started_at":"2018-12-01T19:00:00.000+09:00","ended_at":"2018-12-04T08:59:59.000+09:00","limit_number":null,"address":"大阪市中央区東心斎橋2-5-27","place":"The Blarney Stone (B1F)","lat":34.6718,"lon":135.504,"state":"active","id":null},{"event_id":"569503","title":"Osaka Pub Crawl SATURDAY night party!","url":"http://peatix.com/event/569503","shortener_url":null,"started_at":"2018-12-08T19:00:00.000+09:00","ended_at":"2018-12-11T08:59:59.000+09:00","limit_number":null,"address":"大阪市中央区東心斎橋2-5-27","place":"The Blarney Stone (B1F)","lat":34.6718,"lon":135.504,"state":"active","id":null},{"event_id":"569502","title":"Osaka Pub Crawl FRIDAY night party!","url":"http://peatix.com/event/569502","shortener_url":null,"started_at":"2018-12-07T19:00:00.000+09:00","ended_at":"2018-12-10T08:59:59.000+09:00","limit_number":null,"address":"大阪市中央区東心斎橋2-5-27","place":"The Blarney Stone (B1F)","lat":34.6718,"lon":135.504,"state":"active","id":null},{"event_id":"83947","title":"SDGs忘年会～アイデアソンで考えるSDGs10年計画～ （朝日新聞社・未来技術推進協会 共催）","url":"https://future-tech-association.doorkeeper.jp/events/83947","shortener_url":"https://goo.gl/hhFv3g","started_at":"2018-12-19T18:30:00.000+09:00","ended_at":"2018-12-19T21:30:00.000+09:00","limit_number":30,"address":"東京都中央区築地5-3-2 新館15階","place":"朝日新聞社東京本社　レセプションルーム","lat":35.664,"lon":139.766,"state":"active","id":null},{"event_id":"577352","title":"Rolypoly Family Year-End Dance Jam","url":"http://rolypolyyearendjam.peatix.com","shortener_url":null,"started_at":"2018-12-22T11:00:00.000+09:00","ended_at":"2018-12-25T08:59:59.000+09:00","limit_number":null,"address":"Goodman Arts Centre 90 Goodman Road Block B, #01-08","place":"RAW Moves Ltd","lat":1.30329,"lon":103.885,"state":"active","id":null},{"event_id":"577828","title":"Where to Party in Tokyo Best Nightclub World Top DJ Mike Williams 1Dec2018 in DiATokyo Roppongi Disco Meet Japanese Girls Travelers Tourists Where to Party in Tokyo Guide Every Friday Saturday public holiday Dance club Aitai Party Party","url":"http://where-to-party-in-tokyo-night-time.peatix.com","shortener_url":null,"started_at":"2018-12-01T23:50:00.000+09:00","ended_at":"2018-12-04T08:59:59.000+09:00","limit_number":null,"address":"Minatoku Roppongi 3-8-15 Tokyo","place":"DiA Tokyo Roppongi","lat":35.6634,"lon":139.734,"state":"active","id":null},{"event_id":"576374","title":"【コラボ企画】ふわとろオムレツ on トマトカレー　スペシャル！Vol.3","url":"http://peatix.com/event/576374","shortener_url":null,"started_at":"2018-12-16T12:30:00.000+09:00","ended_at":"2018-12-19T08:59:59.000+09:00","limit_number":null,"address":"JR/東京メトロ 上野駅 ※ 正確な住所は予約が承認されるとお知らせがとどきます","place":"Mayukoさんの食卓","lat":0.0,"lon":0.0,"state":"active","id":null},{"event_id":"84052","title":"起業にまつわる5つの原則","url":"https://swtokyo.doorkeeper.jp/events/84052","shortener_url":null,"started_at":"2018-12-24T13:00:00.000+09:00","ended_at":"2018-12-24T16:00:00.000+09:00","limit_number":10,"address":"東京都港区南青山6-10-11","place":"Wesley Center #201","lat":35.6597,"lon":139.716,"state":"active","id":null},{"event_id":"577712","title":"【夜のカフェシアター】THINK OF FILMS #7「オラフォー・エリアソン 視覚と知覚」","url":"http://tof7.peatix.com","shortener_url":null,"started_at":"2018-12-21T20:00:00.000+09:00","ended_at":"2018-12-24T08:59:59.000+09:00","limit_number":null,"address":"渋谷区千駄ヶ谷3丁目62−1","place":"THINK OF THINGS","lat":35.6732,"lon":139.704,"state":"active","id":null},{"event_id":"577576","title":"第2回「大企業でもイノベーションを起こせる」 ～組織改編をすることなしに、そのままで～（8名限定）","url":"http://innovation-20181219.peatix.com","shortener_url":"https://goo.gl/J3ucY9","started_at":"2018-12-19T19:10:00.000+09:00","ended_at":"2018-12-22T08:59:59.000+09:00","limit_number":null,"address":"港区 新橋2-19-3 カシケイビル 2F","place":"Basis Point新橋店 - コワーキングスペース/貸会議室","lat":35.6668,"lon":139.76,"state":"active","id":null},{"event_id":"577723","title":"[ 1ST WEEK DECEMBER UNLOCKED ] SUN - 9th DEC: Pizza TASTING SESSION 58.0","url":"http://sun9thdecpizzasession.peatix.com","shortener_url":null,"started_at":"2018-12-09T19:00:00.000+09:00","ended_at":"2018-12-12T08:59:59.000+09:00","limit_number":null,"address":"12, Jalan 21/22, Sea Park, 46300 Petaling Jaya, Selangor, Malaysia","place":"myPizzaLab","lat":3.1105,"lon":101.622,"state":"active","id":null},{"event_id":"577720","title":"[ 1ST WEEK DECEMBER UNLOCKED ] SAT- 8th DEC: Pizza TASTING SESSION 57.0","url":"http://sat8thdecpizzasession.peatix.com","shortener_url":null,"started_at":"2018-12-08T19:00:00.000+09:00","ended_at":"2018-12-11T08:59:59.000+09:00","limit_number":null,"address":"12, Jalan 21/22, Sea Park, 46300 Petaling Jaya, Selangor, Malaysia","place":"myPizzaLab","lat":3.1105,"lon":101.622,"state":"active","id":null},{"event_id":"577718","title":"[ 1ST WEEK DECEMBER UNLOCKED ] FRI - 7th DEC: Pizza TASTING SESSION 56.0","url":"http://fri7thdecpizzasession.peatix.com","shortener_url":null,"started_at":"2018-12-07T19:00:00.000+09:00","ended_at":"2018-12-10T08:59:59.000+09:00","limit_number":null,"address":"12, Jalan 21/22, Sea Park, 46300 Petaling Jaya, Selangor, Malaysia","place":"myPizzaLab","lat":3.1105,"lon":101.622,"state":"active","id":null},{"event_id":"578341","title":"[EVENT CHANGED] Crackhouse Comedy Presents : December Doubles w. Kavin Jay \u0026 Dr. Jason Leong!","url":"http://deepakdecember.peatix.com","shortener_url":null,"started_at":"2018-12-14T22:00:00.000+09:00","ended_at":"2018-12-17T08:59:59.000+09:00","limit_number":null,"address":"24A (1st Floor) Lorong Rahim Kajai 14, Taman Tun Dr. Ismail, 60000 Kuala Lumpur","place":"The Crackhouse Comedy Club KL","lat":3.15478,"lon":101.623,"state":"active","id":null},{"event_id":"578340","title":"Crackhouse Presents: BURN OUT Comedy!","url":"http://burnoutcomedy13dec.peatix.com","shortener_url":null,"started_at":"2018-12-13T22:00:00.000+09:00","ended_at":"2018-12-16T08:59:59.000+09:00","limit_number":null,"address":"24A Lorong Rahim Kajai 14, Taman Tun Dr. Ismail, 60000 Kuala Lumpur","place":"Crackhouse Comedy Club Kuala Lumpur","lat":3.15474,"lon":101.623,"state":"active","id":null},{"event_id":"578266","title":"無料: 海外・地方で働くx 稼ぐ x 暮らすーボーダレス・ジャパンx 地域商社こゆ財団-特別対談","url":"http://takahashi-kunio.peatix.com","shortener_url":null,"started_at":"2018-12-07T20:00:00.000+09:00","ended_at":"2018-12-10T08:59:59.000+09:00","limit_number":null,"address":"新宿区市谷田町2丁目17","place":"株式会社ボーダレス・ジャパン 市ヶ谷オフィス","lat":35.6954,"lon":139.738,"state":"active","id":null},{"event_id":"577835","title":"算数工作＆透明骨格標本ワークショップ　育て！輝け！理系脳 [ラズキッズクリスマスSP]","url":"http://peatix.com/event/577835","shortener_url":null,"started_at":"2018-12-25T13:30:00.000+09:00","ended_at":"2018-12-28T08:59:59.000+09:00","limit_number":null,"address":"世田谷区太子堂2丁目16−7","place":"世田谷区民会館別館 三茶しゃれなあどホール","lat":35.6445,"lon":139.671,"state":"active","id":null},{"event_id":"578234","title":"CodeNomad Malaysia (December 14-23)","url":"http://codenomad2018.peatix.com","shortener_url":null,"started_at":"2018-12-14T20:30:00.000+09:00","ended_at":"2018-12-17T08:59:59.000+09:00","limit_number":null,"address":"20, Jalan PJS 11/18, Bandar Sunway, 47500 Petaling Jaya","place":"The Compass","lat":0.0,"lon":0.0,"state":"active","id":null},{"event_id":"84116","title":"NASA/宇宙デー­­タ分析ハッカソン","url":"https://team-ai.doorkeeper.jp/events/84116","shortener_url":"https://goo.gl/g14e7L","started_at":"2018-12-23T16:00:00.000+09:00","ended_at":"2018-12-23T18:00:00.000+09:00","limit_number":3,"address":"東京都渋谷区宇田川町36-17 ニューシブヤマンション202","place":"Team AIベース（ニューシブヤマンション202）","lat":35.6618,"lon":139.696,"state":"active","id":null},{"event_id":"578536","title":"超高級烏龍茶飲み会〜多様な烏龍茶の世界に触れてみよう〜 by 青山貴講師","url":"http://oolong-tea-yoppie.peatix.com","shortener_url":null,"started_at":"2018-12-11T10:00:00.000+09:00","ended_at":"2018-12-14T08:59:59.000+09:00","limit_number":null,"address":"〒430-0906 静岡県浜松市中区住吉4丁目23−1","place":"浜松市立青少年の家","lat":34.7319,"lon":137.731,"state":"active","id":null},{"event_id":"577046","title":"【小中学生向け】Programming で遊ぼう！キラキラWorkshop in English","url":"http://igsz-ichigojam.peatix.com","shortener_url":null,"started_at":"2018-12-23T13:00:00.000+09:00","ended_at":"2018-12-26T08:59:59.000+09:00","limit_number":null,"address":"150-0002 渋谷区渋谷1-23-18 渋谷ワールドイーストビル4階","place":"igsZ　渋谷校","lat":35.6624,"lon":139.702,"state":"active","id":null},{"event_id":"578508","title":"［Fw:東北Weekly vol.25］東北と台湾をつなげる挑戦！ 仙台と台南の事例から相互交流のこれからを描く","url":"http://peatix.com/event/578508","shortener_url":null,"started_at":"2018-12-13T18:30:00.000+09:00","ended_at":"2018-12-16T08:59:59.000+09:00","limit_number":null,"address":"東京都渋谷区宇田川町17-2","place":"TIME SPACE渋谷","lat":0.0,"lon":0.0,"state":"active","id":null},{"event_id":"576429","title":"CORNELL New Academy #4","url":"http://cornellacademy4.peatix.com","shortener_url":null,"started_at":"2018-12-06T19:00:00.000+09:00","ended_at":"2018-12-09T08:59:59.000+09:00","limit_number":null,"address":"東京都 港区 北青山 3-2-2","place":"DEAN \u0026 DELUCA カフェ青山２F","lat":35.6692,"lon":139.715,"state":"active","id":null},{"event_id":"578766","title":"「統計学が最強の学問である」著者の西内 啓氏推薦!『Excelでできるデータドリブン・マーケティング』出版記念セミナー開催のお知らせ","url":"http://kartzdatadriven.peatix.com","shortener_url":null,"started_at":"2018-12-14T19:00:00.000+09:00","ended_at":"2018-12-17T08:59:59.000+09:00","limit_number":null,"address":"東京都新宿区新宿4-1-6","place":"新宿ミライナタワー　マイナビルーム12F-A","lat":35.6885,"lon":139.703,"state":"active","id":null},{"event_id":"84154","title":"Medicalデー­­タ分析ハッカソン","url":"https://team-ai.doorkeeper.jp/events/84154","shortener_url":"https://goo.gl/vmnFLL","started_at":"2018-12-26T19:30:00.000+09:00","ended_at":"2018-12-26T21:30:00.000+09:00","limit_number":5,"address":"東京都渋谷区宇田川町36-17 ニューシブヤマンション202","place":"Team AIベース（ニューシブヤマンション202）","lat":35.6618,"lon":139.696,"state":"active","id":null},{"event_id":"577742","title":"POP JAM SESSION （女性＆男性ボーカル曲・社会人のバンドサークル） #1","url":"http://popjam20181215.peatix.com","shortener_url":null,"started_at":"2018-12-15T15:00:00.000+09:00","ended_at":"2018-12-18T08:59:59.000+09:00","limit_number":null,"address":"新宿区西新宿7丁目16−7","place":"スタジオノード 新宿店","lat":35.6962,"lon":139.698,"state":"active","id":null},{"event_id":"577744","title":"POP JAM SESSION （女性＆男性ボーカル曲中心・社会人のバンドサークル） vol.40","url":"http://peatix.com/event/577744","shortener_url":null,"started_at":"2018-12-15T15:00:00.000+09:00","ended_at":"2018-12-18T08:59:59.000+09:00","limit_number":null,"address":"新宿区西新宿7丁目16−7","place":"スタジオノード 新宿店","lat":35.6962,"lon":139.698,"state":"active","id":null},{"event_id":"578923","title":"西洋画初心者講座 -テンペラ画- PIGMENT LAB WORKSHOP Tempera Painting for Beginners","url":"http://peatix.com/event/578923","shortener_url":null,"started_at":"2018-12-16T13:00:00.000+09:00","ended_at":"2018-12-19T08:59:59.000+09:00","limit_number":null,"address":"品川区 東品川2丁目5−5 TERRADA Harbor One Bldg. 1F","place":"PIGMENT","lat":35.6213,"lon":139.75,"state":"active","id":null},{"event_id":"579030","title":"プレ・シンギュラリティの到来による　　 AI化社会で生き残るために","url":"http://vrmk1227.peatix.com","shortener_url":null,"started_at":"2018-12-27T18:45:00.000+09:00","ended_at":"2018-12-30T08:59:59.000+09:00","limit_number":null,"address":"渋谷区渋谷2-15-1   渋谷クロスタワー32F(最上階)","place":"渋谷クロスタワー32F（最上階）","lat":35.6588,"lon":139.705,"state":"active","id":null},{"event_id":"579080","title":"【10名限定】ぜったい伝わる、Webライティング。PR視点なら、成果につながる。〜Web・PRライター＆広報・マーケティング担当者のための“コンテンツ力を磨く”オンラインイベント〜","url":"http://al-cpo-03.peatix.com","shortener_url":null,"started_at":"2018-12-17T19:30:00.000+09:00","ended_at":"2018-12-20T08:59:59.000+09:00","limit_number":null,"address":"オンライン","place":"オンライン","lat":0.0,"lon":0.0,"state":"active","id":null},{"event_id":"83389","title":"良いアイデアの作り方","url":"https://swtokyo.doorkeeper.jp/events/83389","shortener_url":null,"started_at":"2018-12-26T19:00:00.000+09:00","ended_at":"2018-12-26T21:00:00.000+09:00","limit_number":10,"address":"","place":"Wesley Center #201","lat":null,"lon":null,"state":"active","id":null},{"event_id":"83394","title":"起業にまつわる5つの原則","url":"https://swtokyo.doorkeeper.jp/events/83394","shortener_url":null,"started_at":"2018-12-27T19:00:00.000+09:00","ended_at":"2018-12-27T21:00:00.000+09:00","limit_number":10,"address":"東京都港区南青山6-10-11","place":"Wesley Center #201","lat":35.6597,"lon":139.716,"state":"active","id":null},{"event_id":"84205","title":"【12/20（木）】『Deep Learning』輪読会#4","url":"https://soleildatadojo.doorkeeper.jp/events/84205","shortener_url":null,"started_at":"2018-12-20T19:30:00.000+09:00","ended_at":"2018-12-20T21:40:00.000+09:00","limit_number":5,"address":"大阪府大阪市北区西天満二丁目5番3号(堂島深川ビル3階)","place":"SCRIBBLE OSAKA LAB（SOL）（大阪メトロ御堂筋線「淀屋橋」駅から徒歩４分）","lat":null,"lon":null,"state":"active","id":null},{"event_id":"579544","title":"ゆるい交流会@Yoppieハウス めっちゃ高い茶気軽に飲もう♪","url":"http://yoppie-tea-party.peatix.com","shortener_url":null,"started_at":"2018-12-11T18:00:00.000+09:00","ended_at":"2018-12-14T08:59:59.000+09:00","limit_number":null,"address":"静岡県浜松市砂山町","place":"Yoppieハウス","lat":34.7014,"lon":137.734,"state":"active","id":null},{"event_id":"579539","title":"英国王室献上レベル100g5万円の味をあなたへ 。","url":"http://rich-woolong-tea.peatix.com","shortener_url":null,"started_at":"2018-12-11T14:00:00.000+09:00","ended_at":"2018-12-14T08:59:59.000+09:00","limit_number":null,"address":"〒436-0079 静岡県掛川市掛川1138−24","place":"掛川城二の丸茶室","lat":0.0,"lon":0.0,"state":"active","id":null},{"event_id":"571069","title":"無料：人数限定：海外・地方で働くx 稼ぐ x 暮らすーボーダレス・ジャパンx 地域商社こゆ財団-特別対談","url":"http://peatix.com/event/571069","shortener_url":null,"started_at":"2018-12-07T20:00:00.000+09:00","ended_at":"2018-12-10T08:59:59.000+09:00","limit_number":null,"address":"新宿区市谷田町2丁目17","place":"株式会社ボーダレス・ジャパン 市ヶ谷オフィス","lat":35.6954,"lon":139.738,"state":"active","id":null},{"event_id":"574511","title":"世界が評価！ Keychain  本格的エンタープライズ・ブロックチェーン #1   Keychain Enterprise Blockchain","url":"http://keychain-japan.peatix.com","shortener_url":null,"started_at":"2018-12-10T15:00:00.000+09:00","ended_at":"2018-12-13T08:59:59.000+09:00","limit_number":null,"address":"中央区日本橋茅場町1丁目8−1","place":"FinGATE KAYABA","lat":35.6801,"lon":139.779,"state":"active","id":null},{"event_id":"576961","title":"SDGs忘年会～アイデアソンで考えるSDGs10年計画～ （朝日新聞社・未来技術推進協会 共催）","url":"http://peatix.com/event/576961","shortener_url":"https://goo.gl/rcHtxM","started_at":"2018-12-19T18:30:00.000+09:00","ended_at":"2018-12-22T08:59:59.000+09:00","limit_number":null,"address":"東京都中央区築地5-3-2 新館15階","place":"朝日新聞社東京本社　レセプションルーム","lat":35.6643,"lon":139.767,"state":"active","id":null},{"event_id":"579307","title":"Yahoo! JAPAN Hack Day 2018 ＜2日目＞ 生配信あり","url":"http://peatix.com/event/579307","shortener_url":"https://goo.gl/d4zmso","started_at":"2018-12-16T12:00:00.000+09:00","ended_at":"2018-12-19T08:59:59.000+09:00","limit_number":null,"address":"千代田区外神田4丁目14−1","place":"秋葉原UDX","lat":35.7005,"lon":139.773,"state":"active","id":null},{"event_id":"579306","title":"Yahoo! JAPAN Hack Day 2018 ＜1日目＞ 生配信あり","url":"http://peatix.com/event/579306","shortener_url":"https://goo.gl/R1e2UE","started_at":"2018-12-15T12:00:00.000+09:00","ended_at":"2018-12-18T08:59:59.000+09:00","limit_number":null,"address":"千代田区外神田4丁目14−1","place":"秋葉原UDX","lat":35.7005,"lon":139.773,"state":"active","id":null},{"event_id":"579902","title":"アトツギ壁打ちミートアップ #8","url":"http://atotsugiu34meetup8.peatix.com","shortener_url":null,"started_at":"2018-12-27T18:30:00.000+09:00","ended_at":"2018-12-30T08:59:59.000+09:00","limit_number":null,"address":"大阪市北区小松原町2−4 大阪富国生命ビル","place":"野村證券（株）梅田支店","lat":34.7023,"lon":135.5,"state":"active","id":null},{"event_id":"579878","title":"ブロックチェーン応用講座　～技術的な課題と対策・Ethereum開発導入編～","url":"http://peatix.com/event/579878","shortener_url":null,"started_at":"2018-12-15T18:30:00.000+09:00","ended_at":"2018-12-18T08:59:59.000+09:00","limit_number":null,"address":"東京都中央区八丁堀2-19-7 庄司ビル301","place":"セキレイ会議室","lat":35.6759,"lon":139.776,"state":"active","id":null},{"event_id":"579225","title":"MyData LINKS Identity 〜 Looking back on 2018 \u0026 Data Sovereignty ～","url":"http://mydata-links-vol1.peatix.com","shortener_url":null,"started_at":"2018-12-14T19:00:00.000+09:00","ended_at":"2018-12-17T08:59:59.000+09:00","limit_number":null,"address":"東京都品川区東五反田2丁目10−2 東五反田スクエア13F","place":"Innovation Space DEJIMA","lat":35.6248,"lon":139.727,"state":"active","id":null},{"event_id":"579139","title":"ADVAN club ACADEMY #1　～写真講座 第１回：プロのモータースポーツ フォトグラファーに学ぶ！自慢の愛車をカッコ良く撮る方法～","url":"http://advan-club-academy-1.peatix.com","shortener_url":null,"started_at":"2018-12-22T10:00:00.000+09:00","ended_at":"2018-12-25T08:59:59.000+09:00","limit_number":null,"address":"平塚市袖ケ浜19−15","place":"横浜ゴム 湘南セミナーハウス","lat":35.3178,"lon":139.348,"state":"active","id":null},{"event_id":"107848","title":"[秋葉原] ムービークリエイトもくもく会 #5","url":"https://weeyble-game.connpass.com/event/107848/","shortener_url":null,"started_at":"2018-12-12T04:00:00.000+09:00","ended_at":"2018-12-12T07:25:00.000+09:00","limit_number":8,"address":"〒101-0041 東京都千代田区 神田須田町２丁目１９−２３ 野村第３ビル４階","place":"コワーキングスペース秋葉原Weeyble","lat":35.6965,"lon":139.772,"state":"active","id":null},{"event_id":"111233","title":"【FirstVR \u0026 Unity勉強会】FirstVRで開発をするための勉強会 Vol.2","url":"https://firstvr.connpass.com/event/111233/","shortener_url":null,"started_at":"2018-12-16T22:00:00.000+09:00","ended_at":"2018-12-17T01:00:00.000+09:00","limit_number":30,"address":"東京都中央区新川1-25-2新川STビル2F","place":"Future Tech Hub","lat":35.6767,"lon":139.784,"state":"active","id":null},{"event_id":"112300","title":"Web Music Developers Meetup #3","url":"https://connpass.com/event/112300/","shortener_url":null,"started_at":"2018-12-22T04:30:00.000+09:00","ended_at":"2018-12-22T07:00:00.000+09:00","limit_number":30,"address":"東京都新宿区西新宿三丁目20番2号 東京オペラシティビル41階","place":"デジタルハーツ","lat":35.683,"lon":139.687,"state":"active","id":null},{"event_id":"112371","title":"fukuoka.ex#17：Elixir実践テクニック公開します②","url":"https://fukuokaex.connpass.com/event/112371/","shortener_url":null,"started_at":"2018-12-15T04:00:00.000+09:00","ended_at":"2018-12-15T06:00:00.000+09:00","limit_number":40,"address":"福岡市中央区天神4-1-7 第3明星ビル6F","place":"株式会社Fusic","lat":33.5935,"lon":130.401,"state":"active","id":null},{"event_id":"112273","title":"Qt 勉強会 @ Nagoya # 23","url":"https://qt-users.connpass.com/event/112273/","shortener_url":null,"started_at":"2018-12-15T22:00:00.000+09:00","ended_at":"2018-12-16T03:00:00.000+09:00","limit_number":10,"address":"愛知県名古屋市西区則武新町2-11-42","place":"トーメー本社フォーラム 1F 会議室","lat":35.1815,"lon":136.879,"state":"active","id":null},{"event_id":"112224","title":"Medicalデー­­­タ分析ハッカソン by Team AI 12/26(水)","url":"https://teamai.connpass.com/event/112224/","shortener_url":"https://goo.gl/khAVWr","started_at":"2018-12-27T04:30:00.000+09:00","ended_at":"2018-12-27T06:30:00.000+09:00","limit_number":16,"address":"","place":"Online","lat":35.6618,"lon":139.696,"state":"active","id":null},{"event_id":"112175","title":"【1時間でdAppsが作れる!?】CoinView wallet SDK 勉強会","url":"https://coinview.connpass.com/event/112175/","shortener_url":null,"started_at":"2018-12-14T23:00:00.000+09:00","ended_at":"2018-12-15T01:00:00.000+09:00","limit_number":null,"address":"東京都港区新橋3丁目","place":"新橋","lat":35.6654,"lon":139.757,"state":"active","id":null},{"event_id":"110943","title":"アイマスハッカソン2018 打ち上げ","url":"https://imas.connpass.com/event/110943/","shortener_url":"https://goo.gl/HiB5XD","started_at":"2018-12-24T05:30:00.000+09:00","ended_at":"2018-12-24T07:00:00.000+09:00","limit_number":null,"address":"〒106-0032  東京都港区六本木4-5-7 studio-D B1","place":"GENKI 六本木","lat":35.6648,"lon":139.733,"state":"active","id":null},{"event_id":"112114","title":"【大阪】「Laravel入門」読書会＋もくもく会 2018/12/18","url":"https://kansai-web-app.connpass.com/event/112114/","shortener_url":null,"started_at":"2018-12-19T04:00:00.000+09:00","ended_at":"2018-12-19T06:30:00.000+09:00","limit_number":15,"address":"大阪市中央区本町４丁目７−７−３０３","place":"KiiiyaHommachi","lat":34.6849,"lon":135.498,"state":"active","id":null},{"event_id":"112059","title":"NASA/宇宙デー­­タ分析ハッカソン by Team AI 12/23(日)","url":"https://teamai.connpass.com/event/112059/","shortener_url":"https://goo.gl/aAwLxF","started_at":"2018-12-23T16:00:00.000+09:00","ended_at":"2018-12-23T18:00:00.000+09:00","limit_number":14,"address":"","place":"Online","lat":35.6618,"lon":139.696,"state":"active","id":null},{"event_id":"112250","title":"オリジナルAutoMLを構築しよう｜MLハッカソン #1","url":"https://ml-for-experts.connpass.com/event/112250/","shortener_url":"https://goo.gl/HTdR1H","started_at":"2018-12-12T05:00:00.000+09:00","ended_at":"2018-12-12T06:30:00.000+09:00","limit_number":5,"address":"千代田区西神田2-7-14 YS西神田ビル2F","place":"水道橋駅周辺","lat":35.6994,"lon":139.756,"state":"active","id":null},{"event_id":"102652","title":"大晦日ハッカソン2018 #大晦日ハッカソン","url":"https://atnd.org/events/102652","shortener_url":"https://goo.gl/edvmTb","started_at":"2018-12-31T00:00:00.000+09:00","ended_at":"2018-12-31T23:59:00.000+09:00","limit_number":null,"address":"","place":"","lat":null,"lon":null,"state":"closed","id":null},{"event_id":"575508","title":"Women Entrepreneur Night vol.8  第8回女性起業家交流会","url":"http://wendecember2018.peatix.com","shortener_url":null,"started_at":"2018-12-15T16:00:00.000+09:00","ended_at":"2018-12-18T08:59:59.000+09:00","limit_number":null,"address":"南大塚T\u0026Tビル, 東京 都 豊島 区 南 大塚 3 丁目 36−7, 3丁目-36-7 南大塚, 豊島区","place":"RYOZAN PARK大塚","lat":35.7306,"lon":139.727,"state":"active","id":null},{"event_id":"84200","title":"ブロックチェーン応用講座　～技術的な課題と対策・Ethereum開発導入編～","url":"https://future-tech-association.doorkeeper.jp/events/84200","shortener_url":null,"started_at":"2018-12-15T18:30:00.000+09:00","ended_at":"2018-12-15T21:30:00.000+09:00","limit_number":3,"address":"東京都中央区八丁堀2-19-7 (庄司ビル301)","place":"セキレイ会議室","lat":null,"lon":null,"state":"active","id":null},{"event_id":"580214","title":"NovelJam Reading Friday 浅草橋 #3_12/14 19:30","url":"http://peatix.com/event/580214","shortener_url":null,"started_at":"2018-12-14T19:30:00.000+09:00","ended_at":"2018-12-17T08:59:59.000+09:00","limit_number":null,"address":"〒111-0053 祥 松 ビル 4F, 1丁目-19-1 浅草橋, 台東区","place":"エディトリー浅草橋","lat":35.6975,"lon":139.786,"state":"active","id":null},{"event_id":"580483","title":"[ 2ND WEEK DECEMBER UNLOCKED ] Tue - 11th DEC: Pizza TASTING SESSION 59.0","url":"http://tues11decpizzabobasession.peatix.com","shortener_url":null,"started_at":"2018-12-11T19:00:00.000+09:00","ended_at":"2018-12-14T08:59:59.000+09:00","limit_number":null,"address":"12, Jalan 21/22, Sea Park, 46300 Petaling Jaya, Selangor, Malaysia","place":"myPizzaLab","lat":3.1105,"lon":101.622,"state":"active","id":null},{"event_id":"580490","title":"[ 2ND WEEK DECEMBER UNLOCKED ] Fri - 14th DEC: Pizza TASTING SESSION 62.0","url":"http://fri14decpizzasession.peatix.com","shortener_url":null,"started_at":"2018-12-14T19:00:00.000+09:00","ended_at":"2018-12-17T08:59:59.000+09:00","limit_number":null,"address":"12, Jalan 21/22, Sea Park, 46300 Petaling Jaya, Selangor, Malaysia","place":"myPizzaLab","lat":3.1105,"lon":101.622,"state":"active","id":null},{"event_id":"580492","title":"[ 2ND WEEK DECEMBER UNLOCKED ] Sat - 15th DEC: Pizza TASTING SESSION 63.0","url":"http://sat15decpizzasession.peatix.com","shortener_url":null,"started_at":"2018-12-15T19:00:00.000+09:00","ended_at":"2018-12-18T08:59:59.000+09:00","limit_number":null,"address":"12, Jalan 21/22, Sea Park, 46300 Petaling Jaya, Selangor, Malaysia","place":"myPizzaLab","lat":3.1105,"lon":101.622,"state":"active","id":null},{"event_id":"580487","title":"[ 2ND WEEK DECEMBER UNLOCKED ] Wed - 12th DEC: Pizza TASTING SESSION 60.0","url":"http://weds12decpizzasession.peatix.com","shortener_url":null,"started_at":"2018-12-12T19:00:00.000+09:00","ended_at":"2018-12-15T08:59:59.000+09:00","limit_number":null,"address":"12, Jalan 21/22, Sea Park, 46300 Petaling Jaya, Selangor, Malaysia","place":"myPizzaLab","lat":3.1105,"lon":101.622,"state":"active","id":null},{"event_id":"580493","title":"[ 2ND WEEK DECEMBER UNLOCKED ] Sun - 16th DEC: Pizza TASTING SESSION 64.0","url":"http://sun16decpizzasession.peatix.com","shortener_url":null,"started_at":"2018-12-16T19:00:00.000+09:00","ended_at":"2018-12-19T08:59:59.000+09:00","limit_number":null,"address":"12, Jalan 21/22, Sea Park, 46300 Petaling Jaya, Selangor, Malaysia","place":"myPizzaLab","lat":3.1105,"lon":101.622,"state":"active","id":null},{"event_id":"573816","title":"新宿区100人カイギ vol.02","url":"http://shinjukuku100ninkaigi02.peatix.com","shortener_url":null,"started_at":"2018-12-18T19:00:00.000+09:00","ended_at":"2018-12-21T08:59:59.000+09:00","limit_number":null,"address":"東京都新宿区高田馬場1丁目28−10 バンフォーレ三慶ビル4階","place":"CASE新宿","lat":0.0,"lon":0.0,"state":"active","id":null},{"event_id":"580422","title":"あなただけに伝えたい！「バリアフリーがなぜ魅力なのか？」～バリア解消がもたらす「売上」「評判」「その他」のワケとは？～","url":"http://peatix.com/event/580422","shortener_url":null,"started_at":"2018-12-22T13:45:00.000+09:00","ended_at":"2018-12-25T08:59:59.000+09:00","limit_number":null,"address":"千代田区神田錦町3丁目21","place":"ちよだプラットフォームスクウェア","lat":35.6914,"lon":139.762,"state":"active","id":null},{"event_id":"580807","title":"ものづくりラボ機材体験会","url":"http://peatix.com/event/580807","shortener_url":null,"started_at":"2018-12-16T15:00:00.000+09:00","ended_at":"2018-12-19T08:59:59.000+09:00","limit_number":null,"address":"群馬県前橋市千代田町2-7-10","place":"前橋市創業センター4Fものづくりラボ","lat":36.3926,"lon":139.069,"state":"active","id":null},{"event_id":"581002","title":"歌舞伎町観察ツアー1216","url":"http://peatix.com/event/581002","shortener_url":null,"started_at":"2018-12-16T19:00:00.000+09:00","ended_at":"2018-12-19T08:59:59.000+09:00","limit_number":null,"address":"歌舞伎町","place":"歌舞伎町","lat":0.0,"lon":0.0,"state":"active","id":null},{"event_id":"581009","title":"歌舞伎町観察ツアー1218","url":"http://peatix.com/event/581009","shortener_url":null,"started_at":"2018-12-18T20:00:00.000+09:00","ended_at":"2018-12-21T08:59:59.000+09:00","limit_number":null,"address":"歌舞伎町","place":"歌舞伎町","lat":0.0,"lon":0.0,"state":"active","id":null},{"event_id":"580970","title":"NEW YEARS EVE SPECIAL PUB CRAWL! (MON) 大晦日 スペシャル！ パブクロール・パーティー！（月）","url":"http://peatix.com/event/580970","shortener_url":null,"started_at":"2018-12-31T19:00:00.000+09:00","ended_at":"2019-01-03T08:59:59.000+09:00","limit_number":null,"address":"港区 六本木3丁目15−23 B1","place":"Bar Milwaukee","lat":35.6624,"lon":139.735,"state":"active","id":null},{"event_id":"576775","title":"Stanford’s Health Hackathon health++報告会","url":"http://healthplusplus-teamjapan.peatix.com","shortener_url":"https://goo.gl/EG9Gpv","started_at":"2018-12-15T17:00:00.000+09:00","ended_at":"2018-12-18T08:59:59.000+09:00","limit_number":null,"address":"7 Chome-3-1 Hongo, Bunkyō","place":"東京大学医学部附属病院分子ライフイノベーションセンター","lat":35.7121,"lon":139.763,"state":"active","id":null},{"event_id":"581186","title":"SDLアプリ・モクモク会＋ハッカソン報告会","url":"http://lab-kadokawa75.peatix.com","shortener_url":"https://goo.gl/Qq9R8J","started_at":"2018-12-20T16:00:00.000+09:00","ended_at":"2018-12-23T08:59:59.000+09:00","limit_number":null,"address":"東京都千代田区富士見1-6-1","place":"富士見ビル","lat":35.6993,"lon":139.747,"state":"active","id":null},{"event_id":"580491","title":"【女性限定】Tech女子のためのX-tech（クロステック）　LTパーティー♪","url":"http://peatix.com/event/580491","shortener_url":null,"started_at":"2018-12-20T19:30:00.000+09:00","ended_at":"2018-12-23T08:59:59.000+09:00","limit_number":null,"address":"東京都中央区銀座7丁目16番12号 G-7ビルディング","place":"富士通クラウドテクノロジーズ株式会社　2階セミナールーム","lat":35.6666,"lon":139.766,"state":"active","id":null},{"event_id":"580489","title":"[ 2ND WEEK DECEMBER UNLOCKED ] Thurs - 13th DEC: Pizza TASTING SESSION 61.0","url":"http://thurs13decpizzasession.peatix.com","shortener_url":null,"started_at":"2018-12-13T19:00:00.000+09:00","ended_at":"2018-12-16T08:59:59.000+09:00","limit_number":null,"address":"12, Jalan 21/22, Sea Park, 46300 Petaling Jaya, Selangor, Malaysia","place":"myPizzaLab","lat":3.1105,"lon":101.622,"state":"active","id":null},{"event_id":"580523","title":"オリジナルアロマスプレーを作り、アロマの蒸留を見学できるイベント","url":"http://aromagift20181216.peatix.com","shortener_url":null,"started_at":"2018-12-16T13:00:00.000+09:00","ended_at":"2018-12-19T08:59:59.000+09:00","limit_number":null,"address":"渋谷区渋谷3丁目21−3","place":"Shibuya Stream","lat":35.6572,"lon":139.703,"state":"active","id":null},{"event_id":"580909","title":"December Doubles Presents: Kavin Jay (One Night Only!)","url":"http://kavinchristmascrack.peatix.com","shortener_url":null,"started_at":"2018-12-14T16:00:00.000+09:00","ended_at":"2018-12-17T08:59:59.000+09:00","limit_number":null,"address":"24A (1st Floor) Lorong Rahim Kajai 14, Taman Tun Dr. Ismail, 60000 Kuala Lumpur","place":"The Crackhouse Comedy Club KL","lat":3.15478,"lon":101.623,"state":"active","id":null},{"event_id":"580914","title":"[SOLD OUT] December Doubles Presents: Dr. Jason Leong (One Night Only!)","url":"http://jasonleongdecember.peatix.com","shortener_url":null,"started_at":"2018-12-15T22:00:00.000+09:00","ended_at":"2018-12-18T08:59:59.000+09:00","limit_number":null,"address":"24A (1st Floor) Lorong Rahim Kajai 14, Taman Tun Dr. Ismail, 60000 Kuala Lumpur","place":"The Crackhouse Comedy Club KL","lat":3.15478,"lon":101.623,"state":"active","id":null},{"event_id":"581912","title":"Gold \u0026 Glam Bollywood NYE Party","url":"http://mclbollywoodnye.peatix.com","shortener_url":null,"started_at":"2018-12-31T23:00:00.000+09:00","ended_at":"2019-01-03T08:59:59.000+09:00","limit_number":null,"address":"#01-201 Diners Club Building, 7500E Beach Road","place":"Magic Carpet Bollywood Club","lat":1.29981,"lon":103.86,"state":"active","id":null},{"event_id":"581272","title":"Market \u0026 Picnic (16 Dec 2018)","url":"http://peatix.com/event/581272","shortener_url":null,"started_at":"2018-12-16T11:00:00.000+09:00","ended_at":"2018-12-19T08:59:59.000+09:00","limit_number":null,"address":"Lot 20, Jalan 3/2, Persiaran Bukit Takun, Templer Heights, Rawang, Selangor","place":"Mari House @ Templer Park","lat":3.30057,"lon":101.638,"state":"active","id":null},{"event_id":"582444","title":"紗ら+【本日のマスター】ドローンバード古橋大地の「ドローンナイト〜大忘年会！」","url":"http://sarasara20181221.peatix.com","shortener_url":null,"started_at":"2018-12-21T18:00:00.000+09:00","ended_at":"2018-12-24T08:59:59.000+09:00","limit_number":null,"address":"調布市深大寺元町1丁目11","place":"紗ら＋（さらさら）","lat":35.6625,"lon":139.548,"state":"active","id":null},{"event_id":"582396","title":"食べて遊んでBackpackFESTA仙台へ行こう！！","url":"http://peatix.com/event/582396","shortener_url":null,"started_at":"2018-12-22T15:00:00.000+09:00","ended_at":"2018-12-25T08:59:59.000+09:00","limit_number":null,"address":"宮城県仙台市青葉区中央1丁目10-10","place":"仙台駅","lat":38.2602,"lon":140.88,"state":"active","id":null},{"event_id":"84449","title":"クラウドファンディングの始め方","url":"https://swtokyo.doorkeeper.jp/events/84449","shortener_url":null,"started_at":"2018-12-28T13:00:00.000+09:00","ended_at":"2018-12-28T16:00:00.000+09:00","limit_number":10,"address":"東京都港区南青山6-10-11","place":"Wesley Center #201","lat":35.6597,"lon":139.716,"state":"active","id":null},{"event_id":"102788","title":"【名古屋】第6回 さぶみっと！ヨクスル in 名古屋【2018年12月20日（木）】","url":"https://atnd.org/events/102788","shortener_url":null,"started_at":"2018-12-20T19:00:00.000+09:00","ended_at":"2018-12-20T21:30:00.000+09:00","limit_number":30,"address":"名古屋市中村区名駅4-5-28 桜通豊田ビル15階","place":" Craft Base","lat":35.1713,"lon":136.887,"state":"closed","id":null},{"event_id":"102781","title":"Alasan Memilih Server IDNPlay Seperti Jampoker Untuk Bermain Poker Online","url":"https://atnd.org/events/102781","shortener_url":null,"started_at":"2018-12-14T05:30:00.000+09:00","ended_at":"2021-12-14T05:00:00.000+09:00","limit_number":null,"address":"jakarta","place":"Jampoker","lat":-6.18049,"lon":106.828,"state":"closed","id":null},{"event_id":"102778","title":"Agen Poker Online Resmi","url":"https://atnd.org/events/102778","shortener_url":null,"started_at":"2018-12-14T04:00:00.000+09:00","ended_at":"2022-12-14T04:00:00.000+09:00","limit_number":null,"address":"jln jambu","place":"Agen Poker Online Resmi","lat":1.33669,"lon":103.787,"state":"closed","id":null},{"event_id":"582466","title":"NovelJam Reading Friday 浅草橋 #4_12/21 19:30","url":"http://peatix.com/event/582466","shortener_url":null,"started_at":"2018-12-21T19:30:00.000+09:00","ended_at":"2018-12-24T08:59:59.000+09:00","limit_number":null,"address":"〒111-0053 祥 松 ビル 4F, 1丁目-19-1 浅草橋, 台東区","place":"エディトリー浅草橋","lat":35.6975,"lon":139.786,"state":"active","id":null},{"event_id":"581508","title":"12/15(土) にほんごナイト@西新宿 / Nihongo Night in NishiShinjuku","url":"http://peatix.com/event/581508","shortener_url":null,"started_at":"2018-12-15T19:00:00.000+09:00","ended_at":"2018-12-18T08:59:59.000+09:00","limit_number":null,"address":"東京都新宿区西新宿8-19-11","place":"KASHIWAGI CAFE ","lat":35.6956,"lon":139.691,"state":"active","id":null},{"event_id":"113099","title":"fukuoka.ex#18：Elixir／Phoenixもくもく会～入門もあるよ（19:00〜）","url":"https://fukuokaex.connpass.com/event/113099/","shortener_url":null,"started_at":"2018-12-22T04:00:00.000+09:00","ended_at":"2018-12-22T06:30:00.000+09:00","limit_number":null,"address":"福岡市中央区天神4-1-7 第3明星ビル6F","place":"株式会社Fusic","lat":33.5935,"lon":130.401,"state":"active","id":null},{"event_id":"113002","title":"ハッタツソン説明会\u0026企画会議@オンライン","url":"https://ledesone.connpass.com/event/113002/","shortener_url":"https://goo.gl/YZTJ8i","started_at":"2018-12-28T21:30:00.000+09:00","ended_at":"2018-12-28T22:30:00.000+09:00","limit_number":null,"address":"","place":"オンライン","lat":null,"lon":null,"state":"active","id":null},{"event_id":"112824","title":"緊急開催！「#9 クリスマスぼっちソン」","url":"https://icovo-ag.connpass.com/event/112824/","shortener_url":null,"started_at":"2018-12-24T18:30:00.000+09:00","ended_at":"2018-12-25T06:30:00.000+09:00","limit_number":null,"address":"東京都文京区本郷3–38–1本郷信徳ビル7階","place":"HashHub","lat":35.7068,"lon":139.762,"state":"active","id":null},{"event_id":"112777","title":"Kamakura Mok Mok Hack 25","url":"https://kamkura-mokmok.connpass.com/event/112777/","shortener_url":null,"started_at":"2018-12-15T11:00:00.000+09:00","ended_at":"2018-12-15T13:00:00.000+09:00","limit_number":7,"address":"神奈川県 鎌倉市由比ガ浜1丁目12-8","place":"HOUSE YUIGAHAMA","lat":35.3202,"lon":139.55,"state":"active","id":null},{"event_id":"112772","title":"オリジナルAutoMLを構築しよう｜MLハッカソン #2","url":"https://ml-for-experts.connpass.com/event/112772/","shortener_url":"https://goo.gl/kXfvCo","started_at":"2018-12-19T05:00:00.000+09:00","ended_at":"2018-12-19T06:30:00.000+09:00","limit_number":8,"address":"千代田区西神田2-7-14 YS西神田ビル2F","place":"水道橋駅周辺","lat":35.6994,"lon":139.756,"state":"active","id":null},{"event_id":"109866","title":"関ジャバ '18 12月度 JJUG CCC来日スピーカーが関西にも [大阪]","url":"https://kanjava.connpass.com/event/109866/","shortener_url":null,"started_at":"2018-12-14T04:00:00.000+09:00","ended_at":"2018-12-14T06:15:00.000+09:00","limit_number":50,"address":"大阪府大阪市北区堂島2-4-27　新藤田ビル 9F","place":"日本オラクル株式会社 関西支社","lat":34.6958,"lon":135.493,"state":"active","id":null},{"event_id":"112621","title":"xR 1Dayハッカソン 年末特別企画！1Day開発イベント！（入門者相談サポートあり〼）","url":"https://xrdevja.connpass.com/event/112621/","shortener_url":"https://goo.gl/xZMRbq","started_at":"2018-12-22T19:00:00.000+09:00","ended_at":"2018-12-23T06:30:00.000+09:00","limit_number":20,"address":"東京都武蔵野市中町1-13-2伊藤ビル３階","place":"永代囲碁塾株式会社(普段は囲碁教室さんのスペースをお借りしています)","lat":35.7038,"lon":139.561,"state":"active","id":null},{"event_id":"581513","title":"12/19(Wed) German Night in Jiyugaoka","url":"http://peatix.com/event/581513","shortener_url":null,"started_at":"2018-12-19T19:00:00.000+09:00","ended_at":"2018-12-22T08:59:59.000+09:00","limit_number":null,"address":"目黒区自由が丘1丁目8−18 ノーブルビル 3F","place":"Irish pub Clann","lat":35.6069,"lon":139.669,"state":"active","id":null},{"event_id":"581515","title":"12/20(Thu) Shinjuku Around 30s Night","url":"http://peatix.com/event/581515","shortener_url":null,"started_at":"2018-12-20T19:00:00.000+09:00","ended_at":"2018-12-23T08:59:59.000+09:00","limit_number":null,"address":"新宿区西新宿8丁目19−11","place":"KASHIWAGI CAFE","lat":0.0,"lon":0.0,"state":"active","id":null},{"event_id":"581517","title":"12/21(Fri) Nihongo Night in Roppongi","url":"http://peatix.com/event/581517","shortener_url":null,"started_at":"2018-12-21T19:00:00.000+09:00","ended_at":"2018-12-24T08:59:59.000+09:00","limit_number":null,"address":"港区六本木5丁目5−3−1 3F 第2レーヌビル","place":"Bar Quest","lat":35.6621,"lon":139.733,"state":"active","id":null},{"event_id":"581528","title":"12/22(Sat) Travel Lovers Meetup in Ebisu","url":"http://peatix.com/event/581528","shortener_url":null,"started_at":"2018-12-22T15:00:00.000+09:00","ended_at":"2018-12-25T08:59:59.000+09:00","limit_number":null,"address":"東京都渋谷区広尾1-15-2 エビストメキチビル 1F","place":"カフェ\u0026デリ オリーブ","lat":35.6485,"lon":139.712,"state":"active","id":null},{"event_id":"581511","title":"12/19(水) ドイツ語ナイト@六本木 / German Night in Jiyugaoka","url":"http://peatix.com/event/581511","shortener_url":null,"started_at":"2018-12-19T19:00:00.000+09:00","ended_at":"2018-12-22T08:59:59.000+09:00","limit_number":null,"address":"目黒区自由が丘1丁目8−18 ノーブルビル 3F","place":"Irish pub Clann","lat":35.6069,"lon":139.669,"state":"active","id":null},{"event_id":"581519","title":"12/21(金) にほんごナイト@六本木 / Nihongo Night at Stylish Bar in Roppongi","url":"http://peatix.com/event/581519","shortener_url":null,"started_at":"2018-12-21T19:00:00.000+09:00","ended_at":"2018-12-24T08:59:59.000+09:00","limit_number":null,"address":"東京都港区六本木5-3-1レーヌ第2ビル3F","place":"BAR QUEST ","lat":35.6621,"lon":139.733,"state":"active","id":null},{"event_id":"581861","title":"Crackhouse Comedy Presents : Mo Sidik (IDN) \u0026 Dilruk Jayasinha (AUS)","url":"http://molanddil.peatix.com","shortener_url":null,"started_at":"2018-12-21T22:00:00.000+09:00","ended_at":"2018-12-24T08:59:59.000+09:00","limit_number":null,"address":"24A (1st Floor) Lorong Rahim Kajai 14, Taman Tun Dr. Ismail, 60000 Kuala Lumpur","place":"The Crackhouse Comedy Club KL","lat":3.15478,"lon":101.623,"state":"active","id":null},{"event_id":"583119","title":"★クリスマス企画★ 誰かに贈りたくなる『X'mas Gift box』 ～クグロフをつくる会～","url":"http://peatix.com/event/583119","shortener_url":null,"started_at":"2018-12-23T11:00:00.000+09:00","ended_at":"2018-12-26T08:59:59.000+09:00","limit_number":null,"address":"足立区千住3丁目16","place":"ブックカフェ センジュ プレイス","lat":35.7527,"lon":139.801,"state":"active","id":null},{"event_id":"580108","title":"12/20 (Thurs.) Tokyo Beer Tour / 東京クラフトビールツアー","url":"http://tokyobeertour1220.peatix.com","shortener_url":null,"started_at":"2018-12-20T17:30:00.000+09:00","ended_at":"2018-12-23T08:59:59.000+09:00","limit_number":null,"address":"Tōkyō-to, Minato-ku, Azabujūban, 1 Chome−11−10","place":"Blu Jam Azabu Juban","lat":0.0,"lon":0.0,"state":"active","id":null},{"event_id":"580388","title":"Tech × Impact × 新産業 ：市場規模40兆円の民間宇宙産業に続く、日本発のXPRIZE的新産業創成","url":"http://xprizemeetup201812.peatix.com","shortener_url":null,"started_at":"2018-12-26T18:30:00.000+09:00","ended_at":"2018-12-29T08:59:59.000+09:00","limit_number":null,"address":"東京都品川区東五反田2-10-2 東五反田スクエア 13F","place":"Innovation Space DEJIMA","lat":0.0,"lon":0.0,"state":"active","id":null},{"event_id":"576256","title":"知らなくて大丈夫？Web制作における著作権講座","url":"http://peatix.com/event/576256","shortener_url":null,"started_at":"2018-12-26T19:00:00.000+09:00","ended_at":"2018-12-29T08:59:59.000+09:00","limit_number":null,"address":"台東区 東上野 3-35-9 本池田ビル7階","place":"WEB塾超現場主義 東京校","lat":35.7114,"lon":139.781,"state":"active","id":null},{"event_id":"576254","title":"知らなくて大丈夫？Web制作における著作権講座","url":"http://peatix.com/event/576254","shortener_url":null,"started_at":"2018-12-18T19:00:00.000+09:00","ended_at":"2018-12-21T08:59:59.000+09:00","limit_number":null,"address":"台東区 東上野 3-35-9 本池田ビル7階","place":"WEB塾超現場主義 東京校","lat":35.7114,"lon":139.781,"state":"active","id":null},{"event_id":"582807","title":"残席わずか:無料:伝わる文章塾-編集歴20年のノウハウをまとめた情報発信術-ローカルライター養成講座","url":"http://peatix.com/event/582807","shortener_url":null,"started_at":"2018-12-18T19:30:00.000+09:00","ended_at":"2018-12-21T08:59:59.000+09:00","limit_number":null,"address":"中央区京橋2丁目2−番1号 京橋エドグラン3階 サウス棟","place":"SENQ（センク）京橋","lat":35.677,"lon":139.77,"state":"active","id":null},{"event_id":"583135","title":"[ 3RD WEEK DECEMBER UNLOCKED ] Weds-19th DEC: Pizza TASTING SESSION 66.0 (TAKEAWAY)","url":"http://wed19decpizzatakeaway.peatix.com","shortener_url":null,"started_at":"2018-12-19T18:00:00.000+09:00","ended_at":"2018-12-22T08:59:59.000+09:00","limit_number":null,"address":"12, Jalan 21/22, Sea Park, 46300 Petaling Jaya, Selangor, Malaysia","place":"myPizzaLab","lat":3.1105,"lon":101.622,"state":"active","id":null},{"event_id":"583142","title":"[ 3RD WEEK DECEMBER UNLOCKED ] Sat-22nd DEC: Pizza TASTING SESSION 69.0 (TAKEAWAY)","url":"http://sat22decpizzatakeaway.peatix.com","shortener_url":null,"started_at":"2018-12-22T18:00:00.000+09:00","ended_at":"2018-12-25T08:59:59.000+09:00","limit_number":null,"address":"12, Jalan 21/22, Sea Park, 46300 Petaling Jaya, Selangor, Malaysia","place":"myPizzaLab","lat":3.1105,"lon":101.622,"state":"active","id":null},{"event_id":"583141","title":"[ 3RD WEEK DECEMBER UNLOCKED ] Fri-21st DEC: Pizza TASTING SESSION 68.0 (TAKEAWAY)","url":"http://fri21decpizzatakeaway.peatix.com","shortener_url":null,"started_at":"2018-12-21T18:00:00.000+09:00","ended_at":"2018-12-24T08:59:59.000+09:00","limit_number":null,"address":"12, Jalan 21/22, Sea Park, 46300 Petaling Jaya, Selangor, Malaysia","place":"myPizzaLab","lat":3.1105,"lon":101.622,"state":"active","id":null},{"event_id":"583143","title":"[ 3RD WEEK DECEMBER UNLOCKED ] Sun-23rd DEC: Pizza TASTING SESSION 70.0 (TAKEAWAY)","url":"http://sun23decpizzatakeaway.peatix.com","shortener_url":null,"started_at":"2018-12-23T18:00:00.000+09:00","ended_at":"2018-12-26T08:59:59.000+09:00","limit_number":null,"address":"12, Jalan 21/22, Sea Park, 46300 Petaling Jaya, Selangor, Malaysia","place":"myPizzaLab","lat":3.1105,"lon":101.622,"state":"active","id":null},{"event_id":"583137","title":"[ 3RD WEEK DECEMBER UNLOCKED ] Thurs-20th DEC: Pizza TASTING SESSION 67.0 (TAKEAWAY)","url":"http://thurs20decpizzatakeaway.peatix.com","shortener_url":null,"started_at":"2018-12-20T18:00:00.000+09:00","ended_at":"2018-12-23T08:59:59.000+09:00","limit_number":null,"address":"12, Jalan 21/22, Sea Park, 46300 Petaling Jaya, Selangor, Malaysia","place":"myPizzaLab","lat":3.1105,"lon":101.622,"state":"active","id":null},{"event_id":"583599","title":"福岡【12/24(月祝)10:00】「レタッチの基礎」に必要な３ステップをマスターして、Photoshopで女性の肌を最高に美しく仕上げるための「レタッチ講座」！〜プロレタッチャー小笠原愛氏による1日濃縮講座〜《初参加大歓迎》","url":"http://peatix.com/event/583599","shortener_url":null,"started_at":"2018-12-24T10:00:00.000+09:00","ended_at":"2018-12-27T08:59:59.000+09:00","limit_number":null,"address":"福岡市中央区今泉1丁目9−12","place":"福岡天狼院","lat":33.5855,"lon":130.4,"state":"active","id":null},{"event_id":"583993","title":"NovelJam Reading Friday 浅草橋 #4_12/24 13:00","url":"http://peatix.com/event/583993","shortener_url":null,"started_at":"2018-12-24T13:00:00.000+09:00","ended_at":"2018-12-27T08:59:59.000+09:00","limit_number":null,"address":"〒111-0053 祥 松 ビル 4F, 1丁目-19-1 浅草橋, 台東区","place":"エディトリー浅草橋","lat":35.6975,"lon":139.786,"state":"active","id":null},{"event_id":"584317","title":"12/24(Mon) Akasaka Drink Meetup","url":"http://peatix.com/event/584317","shortener_url":null,"started_at":"2018-12-24T14:00:00.000+09:00","ended_at":"2018-12-27T08:59:59.000+09:00","limit_number":null,"address":"5階-C, TS共和六番館, 3丁目-21-番14号 赤坂, 港区","place":"FIORE-フィオーレ-赤坂見附店","lat":35.6768,"lon":139.736,"state":"active","id":null},{"event_id":"584331","title":"12/29(Sat) Nihongo Night in Nishi-Shinjuku","url":"http://peatix.com/event/584331","shortener_url":null,"started_at":"2018-12-29T15:00:00.000+09:00","ended_at":"2019-01-01T08:59:59.000+09:00","limit_number":null,"address":"東京都新宿区西新宿8-19-11","place":"KASHIWAGI CAFE  ","lat":35.6956,"lon":139.691,"state":"active","id":null},{"event_id":"584291","title":"12/22(Sat) Drink Meetup in Meguro","url":"http://peatix.com/event/584291","shortener_url":null,"started_at":"2018-12-22T19:00:00.000+09:00","ended_at":"2018-12-25T08:59:59.000+09:00","limit_number":null,"address":"目黒区下目黒1-3-28","place":"The Meguro Tavern","lat":35.6343,"lon":139.713,"state":"active","id":null},{"event_id":"584328","title":"12/28(Fri) Shinjuku Drink Meetup","url":"http://peatix.com/event/584328","shortener_url":null,"started_at":"2018-12-28T19:00:00.000+09:00","ended_at":"2018-12-31T08:59:59.000+09:00","limit_number":null,"address":"東京都新宿区西新宿8-19-11","place":"KASHIWAGI CAFE","lat":35.6956,"lon":139.691,"state":"active","id":null},{"event_id":"584322","title":"12/26(Wed) Russian Night in Roppongi","url":"http://peatix.com/event/584322","shortener_url":null,"started_at":"2018-12-26T19:00:00.000+09:00","ended_at":"2018-12-29T08:59:59.000+09:00","limit_number":null,"address":"東京都港区六本木3−16−33","place":"Hobgoblin Roppongi","lat":35.6623,"lon":139.737,"state":"active","id":null},{"event_id":"584292","title":"12/23(日) 20代の英会話@渋谷 / 20's Social Meetup in Shibuya","url":"http://peatix.com/event/584292","shortener_url":null,"started_at":"2018-12-23T14:00:00.000+09:00","ended_at":"2018-12-26T08:59:59.000+09:00","limit_number":null,"address":"東京都渋谷区道玄坂1-3-11","place":"Hobgoblin Shibuya","lat":35.6583,"lon":139.7,"state":"active","id":null},{"event_id":"584332","title":"12/29(土) にほんごナイト@西新宿 / Nihongo Night in NishiShinjuku","url":"http://peatix.com/event/584332","shortener_url":null,"started_at":"2018-12-29T15:00:00.000+09:00","ended_at":"2019-01-01T08:59:59.000+09:00","limit_number":null,"address":"東京都新宿区西新宿8-19-11","place":"KASHIWAGI CAFE ","lat":35.6956,"lon":139.691,"state":"active","id":null},{"event_id":"584326","title":"12/26(水) ロシア語ナイト@六本木 / Russian Night in Roppongi","url":"http://peatix.com/event/584326","shortener_url":null,"started_at":"2018-12-26T19:00:00.000+09:00","ended_at":"2018-12-29T08:59:59.000+09:00","limit_number":null,"address":"東京都港区六本木3−16−33","place":"Hob goblin at Roppongi","lat":35.6623,"lon":139.737,"state":"active","id":null},{"event_id":"113251","title":"【大阪】最初で最後の平成年越しハッカソン！ 2018/12/31-2019/1/1【初心者参加歓迎】","url":"https://road-to-20xx.connpass.com/event/113251/","shortener_url":"https://goo.gl/C4b2gk","started_at":"2018-12-31T10:00:00.000+09:00","ended_at":"2019-01-01T16:00:00.000+09:00","limit_number":10,"address":"大阪市中央区本町4丁目7-7-303","place":"kiiiya hommachi","lat":34.6849,"lon":135.498,"state":"active","id":null},{"event_id":"111827","title":"CONNECT! 2018 - Kitakyushu Creators Party","url":"https://connect.connpass.com/event/111827/","shortener_url":null,"started_at":"2018-12-22T04:00:00.000+09:00","ended_at":"2018-12-22T07:00:00.000+09:00","limit_number":null,"address":"福岡県北九州市小倉北区 京町2丁目2-19（秘密基地）","place":"秘密基地","lat":33.8865,"lon":130.88,"state":"active","id":null},{"event_id":"111983","title":"【初心者向け】WEB系なんでもLT会 #1","url":"https://anytime-lt.connpass.com/event/111983/","shortener_url":null,"started_at":"2018-12-19T04:00:00.000+09:00","ended_at":"2018-12-19T06:30:00.000+09:00","limit_number":25,"address":"東京都渋谷区代々木１丁目５８−１ 石山ビル4階","place":"株式会社おかん","lat":35.6851,"lon":139.701,"state":"active","id":null},{"event_id":"113367","title":"Kamakura Mok Mok Hack 26","url":"https://kamkura-mokmok.connpass.com/event/113367/","shortener_url":null,"started_at":"2018-12-22T11:00:00.000+09:00","ended_at":"2018-12-22T13:00:00.000+09:00","limit_number":7,"address":"神奈川県 鎌倉市由比ガ浜1丁目12-8","place":"HOUSE YUIGAHAMA","lat":35.3202,"lon":139.55,"state":"active","id":null},{"event_id":"113327","title":"Affective Computing and AI - Special guest from NY","url":"https://teamai.connpass.com/event/113327/","shortener_url":null,"started_at":"2018-12-29T04:00:00.000+09:00","ended_at":"2018-12-29T06:00:00.000+09:00","limit_number":15,"address":"","place":"Online","lat":35.6618,"lon":139.696,"state":"active","id":null},{"event_id":"112790","title":"京都アジャイル勉強会 The忘年会 2018","url":"https://kyoaja.connpass.com/event/112790/","shortener_url":null,"started_at":"2018-12-17T19:00:00.000+09:00","ended_at":"2018-12-17T21:00:00.000+09:00","limit_number":12,"address":"京都府京都市左京区上高野鷺町２６−３ (１Ｆ)","place":"Hanare-IWAKURA CoworkingSpace","lat":35.0617,"lon":135.787,"state":"active","id":null},{"event_id":"584154","title":"休学しNight Vol.2 「就活に不安なあなたに、休学という選択肢」","url":"http://peatix.com/event/584154","shortener_url":null,"started_at":"2018-12-25T19:00:00.000+09:00","ended_at":"2018-12-28T08:59:59.000+09:00","limit_number":null,"address":"中央区 日本橋大伝馬町1丁目7 日本橋ノースプレイス3F","place":"株式会社POL","lat":35.6893,"lon":139.778,"state":"active","id":null},{"event_id":"584357","title":"【実質無料】価値100万円相当のおしゃれな事業用のワードプレスWEBサイトを3時間で作るワークショップ","url":"http://peatix.com/event/584357","shortener_url":null,"started_at":"2018-12-29T11:00:00.000+09:00","ended_at":"2019-01-01T08:59:59.000+09:00","limit_number":null,"address":"東京都新宿区新宿2-9-1宮廷31マンション1001","place":"新宿御苑：宮廷31マンション","lat":35.6894,"lon":139.71,"state":"active","id":null},{"event_id":"584874","title":"Tokyo Christmas Club Party クリスマスナイトクラブ国際交流パーティー Best Nightclub Nightlife International AitaiParty DiA-Tokyo Japan Roppongi Disco Meet Japanese Girls Travelers Tourists meetup Every Friday Saturday public holiday Dance club Aitai Party","url":"http://tokyo-christmas-party-2018-roppongi.peatix.com","shortener_url":null,"started_at":"2018-12-21T23:55:00.000+09:00","ended_at":"2018-12-24T08:59:59.000+09:00","limit_number":null,"address":"Minatoku Roppongi 3-8-15 Tokyo","place":"DiA Tokyo Roppongi","lat":35.6634,"lon":139.734,"state":"active","id":null},{"event_id":"585293","title":"The COMEDY DEATH RACE - Year-End Special!","url":"http://deathracedecember.peatix.com","shortener_url":null,"started_at":"2018-12-27T22:00:00.000+09:00","ended_at":"2018-12-30T08:59:59.000+09:00","limit_number":null,"address":"24A Lorong Rahim Kajai 14, Taman Tun Dr. Ismail, 60000 Kuala Lumpur","place":"Crackhouse Comedy Club Kuala Lumpur","lat":3.15474,"lon":101.623,"state":"active","id":null},{"event_id":"585561","title":"NovelJam Reading Friday 浅草橋 #5_12/28 19:30","url":"http://peatix.com/event/585561","shortener_url":null,"started_at":"2018-12-28T19:30:00.000+09:00","ended_at":"2018-12-31T08:59:59.000+09:00","limit_number":null,"address":"〒111-0053 祥 松 ビル 4F, 1丁目-19-1 浅草橋, 台東区","place":"エディトリー浅草橋","lat":35.6975,"lon":139.786,"state":"active","id":null},{"event_id":"585974","title":"Tokyo Countdown Party 2018-2019 New Year Eve at Roppongi Best Nightclub Nightlife International meetup AitaiParty DiA-Tokyo Japan Roppongi Disco Meet Japanese Girls Travelers Tourists meetup Every Friday Saturday public holiday Dance club Aitai Party","url":"http://tokyo-new-year-party-countdown-dia-aitai.peatix.com","shortener_url":null,"started_at":"2018-12-31T21:30:00.000+09:00","ended_at":"2019-01-03T08:59:59.000+09:00","limit_number":null,"address":"Minatoku Roppongi 3-8-15 Tokyo","place":"DiA Tokyo Roppongi","lat":35.6634,"lon":139.734,"state":"active","id":null},{"event_id":"586124","title":"Tokyo Countdown Party 2019 New Year Eve at Roppongi Best Nightclub Nightlife International meetup AitaiParty DiA-Tokyo Japan Roppongi Disco Meet Japanese Girls Travelers Tourists meetup Every Friday Saturday public holiday Dance club Aitai Party (複製)","url":"http://peatix.com/event/586124","shortener_url":null,"started_at":"2018-12-31T22:05:00.000+09:00","ended_at":"2019-01-03T08:59:59.000+09:00","limit_number":null,"address":"Minatoku Roppongi 3-8-15 Tokyo","place":"DiA Tokyo Roppongi","lat":35.6634,"lon":139.734,"state":"active","id":null},{"event_id":"586265","title":"New Year Eve in Tokyo Countdown Party 2019 at Roppongi Best Nightclub Nightlife International meetup AitaiParty DiA-Tokyo Japan Disco Meet Japanese Girls Travelers Tourists","url":"http://new-year-eve-tokyo-countdown-party-2019.peatix.com","shortener_url":null,"started_at":"2018-12-31T21:45:00.000+09:00","ended_at":"2019-01-03T08:59:59.000+09:00","limit_number":null,"address":"Minatoku Roppongi 3-8-15 Tokyo","place":"DiA Tokyo Roppongi","lat":35.6634,"lon":139.734,"state":"active","id":null},{"event_id":"585617","title":"[ 4th WEEK DECEMBER UNLOCKED ] Sat-29th DEC: Pizza TASTING SESSION 75.0 (TAKEAWAY)","url":"http://sat29decpizzatakeaway.peatix.com","shortener_url":null,"started_at":"2018-12-29T18:00:00.000+09:00","ended_at":"2019-01-01T08:59:59.000+09:00","limit_number":null,"address":"12, Jalan 21/22, Sea Park, 46300 Petaling Jaya, Selangor, Malaysia","place":"myPizzaLab","lat":3.1105,"lon":101.622,"state":"active","id":null},{"event_id":"585618","title":"[ 4th WEEK DECEMBER UNLOCKED ] Sun-30th DEC: Pizza TASTING SESSION 76.0 (TAKEAWAY)","url":"http://sun30decpizzatakeaway.peatix.com","shortener_url":null,"started_at":"2018-12-30T18:00:00.000+09:00","ended_at":"2019-01-02T08:59:59.000+09:00","limit_number":null,"address":"12, Jalan 21/22, Sea Park, 46300 Petaling Jaya, Selangor, Malaysia","place":"myPizzaLab","lat":3.1105,"lon":101.622,"state":"active","id":null},{"event_id":"585615","title":"[ 4th WEEK DECEMBER UNLOCKED ] Fri-28th DEC: Pizza TASTING SESSION 74.0 (TAKEAWAY)","url":"http://fri28decpizzatakeaway.peatix.com","shortener_url":null,"started_at":"2018-12-28T18:00:00.000+09:00","ended_at":"2018-12-31T08:59:59.000+09:00","limit_number":null,"address":"12, Jalan 21/22, Sea Park, 46300 Petaling Jaya, Selangor, Malaysia","place":"myPizzaLab","lat":3.1105,"lon":101.622,"state":"active","id":null},{"event_id":"448952","title":"END OF THE YEAR PUB CRAWL! (SAT) 年末パーティー！（土）","url":"http://peatix.com/event/448952","shortener_url":null,"started_at":"2018-12-29T19:00:00.000+09:00","ended_at":"2019-01-01T08:59:59.000+09:00","limit_number":null,"address":"大阪市中央区東心斎橋2-5-27","place":"The Blarney Stone (B1F)","lat":34.6718,"lon":135.504,"state":"active","id":null},{"event_id":"585541","title":"Fantastic Bits: The Comedy of 2018!","url":"http://fantasticbits.peatix.com","shortener_url":null,"started_at":"2018-12-28T22:00:00.000+09:00","ended_at":"2018-12-31T08:59:59.000+09:00","limit_number":null,"address":"24A (1st Floor) Lorong Rahim Kajai 14, Taman Tun Dr. Ismail, 60000 Kuala Lumpur","place":"The Crackhouse Comedy Club KL","lat":3.15478,"lon":101.623,"state":"active","id":null},{"event_id":"576208","title":"NEW YEARS EVE PUB CRAWL (MON) 大晦日パブクロール・パーティー（月）","url":"http://peatix.com/event/576208","shortener_url":null,"started_at":"2018-12-31T18:30:00.000+09:00","ended_at":"2019-01-03T08:59:59.000+09:00","limit_number":null,"address":"中央区西心斎橋1-9-16 大京心斎橋第2ビル,2FOsaka","place":"Safari bar","lat":34.6729,"lon":135.499,"state":"active","id":null},{"event_id":"103053","title":"国際展示場ハッカソン 冬","url":"https://atnd.org/events/103053","shortener_url":null,"started_at":"2018-12-30T00:00:00.000+09:00","ended_at":"2019-01-01T00:00:00.000+09:00","limit_number":null,"address":"東京都江東区有明3-11-1","place":"東京国際展示場","lat":35.63,"lon":139.794,"state":"closed","id":null},{"event_id":"114552","title":"【大阪】絶対に笑ってはいけないHACK24時 2018/12/31【もくもく会／途中入退場OK】","url":"https://hackers-salon.connpass.com/event/114552/","shortener_url":null,"started_at":"2018-12-31T19:00:00.000+09:00","ended_at":"2019-01-01T01:00:00.000+09:00","limit_number":10,"address":"大阪市中央区本町４丁目７−７ 飛鳥ビル３０２","place":"Kiiiya Hommachi（2020年6月営業終了）","lat":34.6849,"lon":135.498,"state":"active","id":null},{"event_id":"107538","title":"【年末】サーバー構築ハンズオンとかいつもの飲み会の忘年会","url":"https://svrkcho.connpass.com/event/107538/","shortener_url":null,"started_at":"2018-12-29T16:00:00.000+09:00","ended_at":"2018-12-30T00:00:00.000+09:00","limit_number":45,"address":"東京都千代田区神田佐久間町1-14 B1F 村役場","place":"村役場＠秋葉原店","lat":35.6976,"lon":139.776,"state":"active","id":null},{"event_id":"104323","title":"Drupal ONSEN vol.4 in 洞爺湖温泉","url":"https://drupalsapporo.connpass.com/event/104323/","shortener_url":null,"started_at":"2018-12-08T14:00:00.000+09:00","ended_at":"2018-12-08T17:00:00.000+09:00","limit_number":26,"address":"〒049-5721 北海道虻田郡洞爺湖町洞爺湖温泉１４２−１４０","place":"洞爺湖文化センター","lat":42.5643,"lon":140.818,"state":"active","id":null},{"event_id":"110718","title":"IoT縛りの勉強会/SIerIoTLT～楽しいIoT全員集合～vol13@opt【Obniz SP】","url":"https://iotlt.connpass.com/event/110718/","shortener_url":null,"started_at":"2018-12-05T19:00:00.000+09:00","ended_at":"2018-12-05T22:00:00.000+09:00","limit_number":109,"address":"東京都千代田区四番町6　東急番町ビル","place":"opt","lat":35.6892,"lon":139.736,"state":"active","id":null}]