[{"event_id":"39301","title":"GLS セミナー2018「バーチャルリアリティ最前線」","url":"https://connpass.com/event/39301/","shortener_url":null,"started_at":"2018-01-27T22:00:00.000+09:00","ended_at":"2018-01-28T02:00:00.000+09:00","limit_number":40,"address":"仙台市青葉区上杉1-1-2 ドコモ東北ビル","place":"ドコモ東北支社13F","lat":38.2585,"lon":140.877,"state":"active","id":null},{"event_id":"66470","title":"スタートアップの始め方（SW奈良プレイベント）","url":"https://swnara.doorkeeper.jp/events/66470","shortener_url":null,"started_at":"2018-01-06T22:30:00.000+09:00","ended_at":"2018-01-07T02:30:00.000+09:00","limit_number":20,"address":"奈良県奈良市三条本町3-9アモールビル1階","place":"Women’s Future Center（※JR奈良駅 徒歩2分）","lat":34.679,"lon":135.82,"state":"active","id":null},{"event_id":"92326","title":"Webとクルマのハッカソン2018 -次世代自動車におけるWebとクルマの連携アプリ／ビジネスを創発しよう！","url":"https://atnd.org/events/92326","shortener_url":"https://goo.gl/HNAZgd","started_at":"2018-01-27T09:30:00.000+09:00","ended_at":"2018-01-28T19:30:00.000+09:00","limit_number":null,"address":"東京都千代田区飯田橋3丁目8−5","place":"住友不動産飯田橋駅前ビル","lat":35.7019,"lon":139.747,"state":"closed","id":null},{"event_id":"70988","title":"ぼくらの未来創世物語-福岡ロボットアイデアソン-episode.00","url":"https://bgene.connpass.com/event/70988/","shortener_url":"https://goo.gl/RLoQ6T","started_at":"2018-01-12T09:30:00.000+09:00","ended_at":"2018-01-13T22:00:00.000+09:00","limit_number":114,"address":"〒810-0001 福岡県福岡市中央区天神2−13−1","place":"福岡銀行　本店　１０階講堂","lat":33.5913,"lon":130.398,"state":"active","id":null},{"event_id":"67227","title":"【世界初】Startup Weekend Tokyo Ho Chi Minh@SHIFT ASIA","url":"https://swtokyo.doorkeeper.jp/events/67227","shortener_url":null,"started_at":"2018-01-20T03:00:00.000+09:00","ended_at":"2018-01-22T06:00:00.000+09:00","limit_number":30,"address":"L18-14-15, Vincom Dong Khoi, 72 Le Thanh Ton and 45A Ly Tu Trong Street, Ben Nghe Ward, District 1, Ho Chi Minh City, Viet Nam","place":"シフトアジア","lat":10.778,"lon":106.702,"state":"active","id":null},{"event_id":"67515","title":"Global Game Jam 2018 札幌温泉会場","url":"https://ggjsap.doorkeeper.jp/events/67515","shortener_url":"https://goo.gl/zaFFFR","started_at":"2018-01-27T03:00:00.000+09:00","ended_at":"2018-01-29T06:00:00.000+09:00","limit_number":20,"address":"ガトーキングダムサッポロ","place":"ガトーキングダムサッポロ","lat":43.171,"lon":141.356,"state":"active","id":null},{"event_id":"73880","title":"Global Game Jam 2018 Hiroshima","url":"https://hsc.connpass.com/event/73880/","shortener_url":"https://goo.gl/QYpPMg","started_at":"2018-01-26T18:00:00.000+09:00","ended_at":"2018-01-28T20:00:00.000+09:00","limit_number":20,"address":"広島市中区大手町2丁目2‐13","place":"デジタルものづくりスペース　デジハコ（株式会社ワールドエリアネットワークス）ザ・ガーデンプレイス紙屋町 ５F","lat":34.393,"lon":132.456,"state":"active","id":null},{"event_id":"74124","title":"ゆるっとソン Vol.30  - はじめてのハッカソン -","url":"https://hackathon.connpass.com/event/74124/","shortener_url":"https://goo.gl/7FqB8j","started_at":"2018-01-27T10:00:00.000+09:00","ended_at":"2018-01-27T20:00:00.000+09:00","limit_number":35,"address":"神奈川県横浜市 西区みなとみらい3−6−1 みなとみらいセンタービル11F","place":"株式会社アットウェア","lat":35.4576,"lon":139.633,"state":"active","id":null},{"event_id":"74241","title":"Global Game Jam 2018 熊本会場","url":"https://kumauni.connpass.com/event/74241/","shortener_url":"https://goo.gl/wEaS7V","started_at":"2018-01-26T17:00:00.000+09:00","ended_at":"2018-01-28T19:00:00.000+09:00","limit_number":20,"address":"熊本県熊本市中央区鍛冶屋町１７番地ゼログラビル","place":"株式会社 ゼログラフィックス社　ゼログラビル","lat":32.7966,"lon":130.7,"state":"active","id":null},{"event_id":"74062","title":"Unity1週間ゲームジャム Meetup in Tokyo #1","url":"https://unity1week-meetup-in-tokyo.connpass.com/event/74062/","shortener_url":"https://goo.gl/JCJGiF","started_at":"2018-01-13T12:00:00.000+09:00","ended_at":"2018-01-13T15:00:00.000+09:00","limit_number":50,"address":"東京都目黒区中目黒2-10-15　山手Kビル6F","place":"株式会社ORATTA","lat":35.6407,"lon":139.703,"state":"active","id":null},{"event_id":"74320","title":"GGJ 2018 Hiroshima に向けてUnityを勉強しよう！","url":"https://hsc.connpass.com/event/74320/","shortener_url":null,"started_at":"2018-01-13T13:00:00.000+09:00","ended_at":"2018-01-13T19:00:00.000+09:00","limit_number":30,"address":"〒732-0816 広島市南区比治山本町16-35 広島産業文化センター6F 6N4教室","place":"広島情報専門学校","lat":34.3811,"lon":132.469,"state":"active","id":null},{"event_id":"74369","title":"IoT もくもく会 KOIL vol.15","url":"https://kashiwano-ha-geeks.connpass.com/event/74369/","shortener_url":null,"started_at":"2018-01-13T22:00:00.000+09:00","ended_at":"2018-01-14T02:00:00.000+09:00","limit_number":16,"address":"千葉県柏市若柴178 番地4 柏の葉キャンパス148 街区2 ショップ＆オフィス棟６階","place":"KOILスタジオ","lat":35.894,"lon":139.953,"state":"active","id":null},{"event_id":"74426","title":"Global Game Jam 2018 CRI Shibuya","url":"https://effectorhack.connpass.com/event/74426/","shortener_url":"https://goo.gl/UaR5ji","started_at":"2018-01-26T19:00:00.000+09:00","ended_at":"2018-01-28T21:00:00.000+09:00","limit_number":45,"address":"東京都渋谷区渋谷1-7-7(住友不動産青山通ビル13階)","place":"CRI・ミドルウェアC会議室","lat":35.6605,"lon":139.706,"state":"active","id":null},{"event_id":"72958","title":"BPLL #17","url":"https://bpstudy.connpass.com/event/72958/","shortener_url":null,"started_at":"2018-01-16T21:10:00.000+09:00","ended_at":"2018-01-16T22:00:00.000+09:00","limit_number":3,"address":"東京都渋谷区千駄ヶ谷5-32-7-4F","place":"株式会社ビープラウド","lat":35.6864,"lon":139.704,"state":"active","id":null},{"event_id":"74507","title":"1日ゲームジャム","url":"https://sanuki-gamen.connpass.com/event/74507/","shortener_url":"https://goo.gl/Y1JPvp","started_at":"2018-01-06T11:00:00.000+09:00","ended_at":"2018-01-06T18:00:00.000+09:00","limit_number":null,"address":"高松市亀井町10番地3","place":"燈屋","lat":34.3393,"lon":134.049,"state":"active","id":null},{"event_id":"73898","title":"前橋開催！Web×IoT メイカーズチャレンジ 2017 【ハンズオン講習\u0026ハッカソン】","url":"https://webiotmakers.connpass.com/event/73898/","shortener_url":"https://goo.gl/izUZgQ","started_at":"2018-01-20T09:30:00.000+09:00","ended_at":"2018-01-21T18:00:00.000+09:00","limit_number":25,"address":"群馬県前橋市問屋町2-2","place":"前橋問屋センター会館","lat":36.398,"lon":139.039,"state":"active","id":null},{"event_id":"74396","title":"とやまIoTビジネスアイディアソン","url":"https://code4toyama.connpass.com/event/74396/","shortener_url":"https://goo.gl/FeQTsW","started_at":"2018-01-06T13:15:00.000+09:00","ended_at":"2018-01-06T16:30:00.000+09:00","limit_number":100,"address":"富山県富山市新総曲輪４−１８","place":"富山県民会館","lat":36.6954,"lon":137.212,"state":"active","id":null},{"event_id":"93379","title":"Global Game Jam®︎ 2018 at ビサイド","url":"https://atnd.org/events/93379","shortener_url":"https://goo.gl/WQoVC8","started_at":"2018-01-26T17:00:00.000+09:00","ended_at":"2018-01-28T19:00:00.000+09:00","limit_number":24,"address":"東京都立川市曙町1-21-1","place":"株式会社ビサイド","lat":35.6998,"lon":139.407,"state":"closed","id":null},{"event_id":"74277","title":"【2019新卒】 健康ハッカソン ～歩数計アプリを開発せよ～","url":"https://mti.connpass.com/event/74277/","shortener_url":"https://goo.gl/ju4XTg","started_at":"2018-01-19T18:30:00.000+09:00","ended_at":"2018-01-21T06:00:00.000+09:00","limit_number":10,"address":"東京都新宿区西新宿3-20-2(東京オペラシティタワー28階)","place":"株式会社エムティーアイ","lat":35.683,"lon":139.687,"state":"active","id":null},{"event_id":"74704","title":"KAMIARI HACK! #01","url":"https://connpass.com/event/74704/","shortener_url":null,"started_at":"2018-01-20T10:00:00.000+09:00","ended_at":"2018-01-20T18:30:00.000+09:00","limit_number":30,"address":"島根県松江市殿町３６９","place":"サンラポーむらくも","lat":35.4723,"lon":133.054,"state":"active","id":null},{"event_id":"74893","title":"東京大学・本郷キャンパスで開催！LoRaWANによるIoTハンズオンセミナー","url":"https://kashiwanoha.connpass.com/event/74893/","shortener_url":null,"started_at":"2018-01-05T15:00:00.000+09:00","ended_at":"2018-01-05T19:00:00.000+09:00","limit_number":60,"address":"〒113-8656 東京都文京区本郷 7-3-1","place":"東京大学","lat":35.7127,"lon":139.762,"state":"active","id":null},{"event_id":"75224","title":"【サポーターズ勉強会】エンジニアと非エンジニアはどうしたら仲良くなれるか","url":"https://supporterz-seminar.connpass.com/event/75224/","shortener_url":null,"started_at":"2018-01-12T04:45:00.000+09:00","ended_at":"2018-01-12T06:15:00.000+09:00","limit_number":20,"address":"東京都渋谷区道玄坂1-9-5","place":"渋谷スクエアA 11F","lat":35.6573,"lon":139.699,"state":"active","id":null},{"event_id":"74926","title":"AWS勉強会 若手エンジニア大集合 in 札幌","url":"https://classmethod.connpass.com/event/74926/","shortener_url":null,"started_at":"2018-01-17T04:00:00.000+09:00","ended_at":"2018-01-17T06:00:00.000+09:00","limit_number":30,"address":"札幌市中央区北1条東4丁目1番地1　サッポロファクトリー1条館　3階","place":"株式会社インフィニットループ","lat":43.0656,"lon":141.374,"state":"active","id":null},{"event_id":"75274","title":"汎用人工知能(AGI)を創ろう!研究会 by Team AI 1/11(木)","url":"https://teamai.connpass.com/event/75274/","shortener_url":null,"started_at":"2018-01-12T04:00:00.000+09:00","ended_at":"2018-01-12T06:00:00.000+09:00","limit_number":10,"address":"","place":"Online","lat":35.6618,"lon":139.696,"state":"active","id":null},{"event_id":"74715","title":"DCI Tokyo 1","url":"https://dcitokyo.connpass.com/event/74715/","shortener_url":null,"started_at":"2018-01-11T04:30:00.000+09:00","ended_at":"2018-01-11T06:00:00.000+09:00","limit_number":40,"address":"〒106-6134 東京都港区六本木 6-10-1 (六本木ヒルズ森タワー 34階)","place":"UUUM株式会社","lat":35.6606,"lon":139.729,"state":"active","id":null},{"event_id":"74581","title":"【増席】電子デバイスGlobal Game Jam 2018","url":"https://ioio.connpass.com/event/74581/","shortener_url":"https://goo.gl/S3y77T","started_at":"2018-01-26T22:00:00.000+09:00","ended_at":"2018-01-28T20:00:00.000+09:00","limit_number":null,"address":"東京都千代田区 神田東松下町45番地（神田金子ビル 2階）","place":"アスラテック株式会社","lat":35.6944,"lon":139.773,"state":"active","id":null},{"event_id":"75377","title":"AITCシニア技術者勉強会 「一からはじめるIoT ３周目」第1回 Arduinoワークショップ","url":"https://aitc-senior.connpass.com/event/75377/","shortener_url":null,"started_at":"2018-01-20T14:00:00.000+09:00","ended_at":"2018-01-20T18:00:00.000+09:00","limit_number":25,"address":"東京都中央区晴海1-8-10（晴海アイランド トリトンスクエア オフィスタワーＸ 14階）","place":"ウルシステムズ株式会社　会議室","lat":35.6564,"lon":139.782,"state":"active","id":null},{"event_id":"75420","title":"【大阪】#25 JSerもくもく会 1/23【フロントエンド/monaca/ハイブリッド開発】","url":"https://hackers-salon.connpass.com/event/75420/","shortener_url":null,"started_at":"2018-01-24T04:30:00.000+09:00","ended_at":"2018-01-24T07:30:00.000+09:00","limit_number":5,"address":"大阪市中央区本町４丁目７−７ 飛鳥ビル３０２","place":"Kiiiya Hommachi（2020年6月営業終了）","lat":34.6849,"lon":135.498,"state":"active","id":null},{"event_id":"75418","title":"【大阪】#25 JSerもくもく会 1/13【フロントエンド/monaca/ハイブリッド開発】","url":"https://hackers-salon.connpass.com/event/75418/","shortener_url":null,"started_at":"2018-01-13T14:00:00.000+09:00","ended_at":"2018-01-13T17:00:00.000+09:00","limit_number":5,"address":"大阪市中央区本町４丁目７−７ 飛鳥ビル３０２","place":"Kiiiya Hommachi（2020年6月営業終了）","lat":34.6849,"lon":135.498,"state":"active","id":null},{"event_id":"93628","title":"Global Game Jam Fukuoka 2018","url":"https://atnd.org/events/93628","shortener_url":"https://goo.gl/AP9wK1","started_at":"2018-01-27T10:00:00.000+09:00","ended_at":"2018-01-28T18:30:00.000+09:00","limit_number":20,"address":"福岡県福岡市西区本岡744番地","place":"九州大学　伊都キャンパス　情報統括本部　2階　多目的教室（203）","lat":33.5959,"lon":130.22,"state":"closed","id":null},{"event_id":"75627","title":"子ども向けプログラミングクラブ コーダー道場甲府#7","url":"https://coderdojokofu.connpass.com/event/75627/","shortener_url":null,"started_at":"2018-01-28T09:20:00.000+09:00","ended_at":"2018-01-28T11:40:00.000+09:00","limit_number":10,"address":"山梨県甲府市北口２丁目８番１号","place":"山梨県立図書館","lat":35.6685,"lon":138.57,"state":"active","id":null},{"event_id":"74318","title":"第11回　CoderDojo横浜","url":"https://coderdojo-yokohama.connpass.com/event/74318/","shortener_url":null,"started_at":"2018-01-08T10:00:00.000+09:00","ended_at":"2018-01-08T12:00:00.000+09:00","limit_number":null,"address":"神奈川県横浜市神奈川区鶴屋町2-24-2","place":"かながわ県民センター","lat":35.4684,"lon":139.621,"state":"active","id":null},{"event_id":"74844","title":"【学生限定】  最新版RailsでWikiアプリを作ろう！@スタメン OthloEvent#24","url":"https://othlotech.connpass.com/event/74844/","shortener_url":null,"started_at":"2018-01-27T21:45:00.000+09:00","ended_at":"2018-01-28T03:00:00.000+09:00","limit_number":25,"address":"愛知県名古屋市中村区井深町1-1","place":"株式会社スタメン オフィス","lat":35.1812,"lon":136.875,"state":"active","id":null},{"event_id":"75681","title":"NTTドコモ×Code for OSAKA AI活用セミナー＆ミートアップ","url":"https://code4osaka.connpass.com/event/75681/","shortener_url":null,"started_at":"2018-01-31T03:00:00.000+09:00","ended_at":"2018-01-31T06:00:00.000+09:00","limit_number":60,"address":"大阪市北区鶴野町1番5号","place":"関西大学梅田キャンパス KANDAI Me RISE","lat":34.7065,"lon":135.501,"state":"active","id":null},{"event_id":"75672","title":"アーバンデータチャレンジ2017 in 石川 Vol.3 ハッカソン","url":"https://cfk.connpass.com/event/75672/","shortener_url":"https://goo.gl/QrErHN","started_at":"2018-01-21T13:30:00.000+09:00","ended_at":"2018-01-21T17:00:00.000+09:00","limit_number":null,"address":"石川県金沢市武蔵町14番31号","place":"ITビジネスプラザ武蔵","lat":36.5713,"lon":136.655,"state":"active","id":null},{"event_id":"75715","title":"たこ焼き食べつつ未来技術やSDGsやらを語る交流会","url":"https://future-tech-association.connpass.com/event/75715/","shortener_url":null,"started_at":"2018-01-05T19:30:00.000+09:00","ended_at":"2018-01-05T21:30:00.000+09:00","limit_number":30,"address":"東京都千代田区神田神保町1-6 (神保町サンビルディング ３F)","place":"Co Learning Space みらい研究所","lat":35.6962,"lon":139.759,"state":"active","id":null},{"event_id":"93719","title":"正月ハッカソン2018 #正月ハッカソン","url":"https://atnd.org/events/93719","shortener_url":null,"started_at":"2018-01-01T00:00:00.000+09:00","ended_at":"2018-01-02T00:00:00.000+09:00","limit_number":null,"address":"各自","place":"各自","lat":null,"lon":null,"state":"closed","id":null},{"event_id":"75483","title":"GlobalGameJam2018 NAGOYA in 名古屋情報メディア専門学校","url":"https://gamejam-central.connpass.com/event/75483/","shortener_url":"https://goo.gl/BfKQLk","started_at":"2018-01-26T20:00:00.000+09:00","ended_at":"2018-01-28T19:00:00.000+09:00","limit_number":30,"address":"名古屋市熱田区大宝4-19-14","place":"名古屋情報メディア専門学校","lat":35.1271,"lon":136.89,"state":"active","id":null},{"event_id":"75828","title":"Sota講習会 【Vstone Magicを始めよう】 Part 3（有料）","url":"https://sota.connpass.com/event/75828/","shortener_url":null,"started_at":"2018-01-06T23:00:00.000+09:00","ended_at":"2018-01-06T23:50:00.000+09:00","limit_number":4,"address":"東京都千代田区外神田1-9-9 内田ビル4F","place":"ヴイストン ロボットセンター秋葉原店","lat":35.6987,"lon":139.77,"state":"active","id":null},{"event_id":"75878","title":"QuantX説明会","url":"https://connpass.com/event/75878/","shortener_url":null,"started_at":"2018-01-17T04:00:00.000+09:00","ended_at":"2018-01-17T06:00:00.000+09:00","limit_number":20,"address":"東京都渋谷区恵比寿４丁目４−１","place":"株式会社Smart Trade","lat":35.6456,"lon":139.711,"state":"active","id":null},{"event_id":"76040","title":"高知シビックテックハッカソン","url":"https://civictech-kochi.connpass.com/event/76040/","shortener_url":"https://goo.gl/kB5A4u","started_at":"2018-01-20T10:00:00.000+09:00","ended_at":"2018-01-21T18:00:00.000+09:00","limit_number":20,"address":"","place":"","lat":null,"lon":null,"state":"active","id":null},{"event_id":"75300","title":"第3回　PCNひろしま　こども向けプログラミング教室","url":"https://pcn-hiroshima.connpass.com/event/75300/","shortener_url":null,"started_at":"2018-01-27T13:00:00.000+09:00","ended_at":"2018-01-27T16:00:00.000+09:00","limit_number":19,"address":"広島県広島市南区京橋町1−7(広島京橋ビルディング)","place":"fabbit広島駅前","lat":34.3946,"lon":132.473,"state":"active","id":null},{"event_id":"75385","title":"GlobalGameJam2018 NAGOYA in ドラス","url":"https://dorasugj.connpass.com/event/75385/","shortener_url":"https://goo.gl/7FfdFS","started_at":"2018-01-27T05:00:00.000+09:00","ended_at":"2018-01-29T04:00:00.000+09:00","limit_number":12,"address":"名古屋市中区栄2-9-3 伏見第一ビル3F","place":"株式会社ドラス","lat":35.1669,"lon":136.898,"state":"active","id":null},{"event_id":"93768","title":"GlobalGameJam2018 NAGOYA in 名古ゲ部","url":"https://atnd.org/events/93768","shortener_url":"https://goo.gl/183NDx","started_at":"2018-01-26T20:00:00.000+09:00","ended_at":"2018-01-28T19:00:00.000+09:00","limit_number":13,"address":"名古屋市中区丸の内3-5-34(セントラルコーポ 503号室)","place":"名古屋ゲーム制作部","lat":35.1774,"lon":136.906,"state":"closed","id":null},{"event_id":"75971","title":"【GlobalGameJam2018 in Osaka】バンタンゲームアカデミー大阪会場","url":"https://connpass.com/event/75971/","shortener_url":"https://goo.gl/AUNDey","started_at":"2018-01-26T18:30:00.000+09:00","ended_at":"2018-01-28T20:30:00.000+09:00","limit_number":60,"address":"大阪市中央区西心斎橋2丁目2-12 NLCクリスタグランドビル心斎橋 ４階","place":"【新館】バンタンゲームアカデミー大阪校","lat":34.6706,"lon":135.5,"state":"active","id":null},{"event_id":"68308","title":"柏 Night 〜東京でkashiwaを轟かせ @六本木","url":"https://swkashiwa.doorkeeper.jp/events/68308","shortener_url":null,"started_at":"2018-01-14T04:00:00.000+09:00","ended_at":"2018-01-14T06:00:00.000+09:00","limit_number":60,"address":"〒106-0046 東京都 港区 元麻布3-1-35 VORT元麻布 B2","place":"hitomedia “the P@rk”","lat":35.658,"lon":139.728,"state":"active","id":null},{"event_id":"68387","title":"WikipediaTown 沼津 #7","url":"https://0168e91711e4c480d710c70399.doorkeeper.jp/events/68387","shortener_url":null,"started_at":"2018-01-08T18:30:00.000+09:00","ended_at":"2018-01-09T01:30:00.000+09:00","limit_number":10,"address":"静岡県沼津市三枚橋町９−１","place":"沼津市市立図書館","lat":35.144,"lon":138.786,"state":"active","id":null},{"event_id":"68456","title":"Global Game Jam Sapporo 2018 札幌会場","url":"https://ggjsap.doorkeeper.jp/events/68456","shortener_url":"https://goo.gl/SD4GQC","started_at":"2018-01-27T02:00:00.000+09:00","ended_at":"2018-01-29T06:00:00.000+09:00","limit_number":140,"address":"〒065-0015 北海道札幌市東区北15条東6丁目3−1","place":"吉田学園情報ビジネス専門学校","lat":43.0803,"lon":141.362,"state":"active","id":null},{"event_id":"68582","title":"Startup Weekend Tokyoコミュニティーナイト","url":"https://swtokyo.doorkeeper.jp/events/68582","shortener_url":null,"started_at":"2018-01-27T03:30:00.000+09:00","ended_at":"2018-01-27T06:00:00.000+09:00","limit_number":70,"address":"東京都千代田区丸の内2-1-1 明治安田生命ビル TOKYO創業ステーション１F ","place":"Startup Hub Tokyo","lat":35.6911,"lon":139.764,"state":"active","id":null},{"event_id":"69061","title":"スタートアップの始め方（※SW大阪プレイベント）","url":"https://swosaka.doorkeeper.jp/events/69061","shortener_url":null,"started_at":"2018-01-13T22:00:00.000+09:00","ended_at":"2018-01-14T02:00:00.000+09:00","limit_number":10,"address":"大阪府大阪市北区鶴野町1-5","place":"Startup Cafe Osaka 2F","lat":34.7063,"lon":135.501,"state":"active","id":null},{"event_id":"69025","title":"Global GameJam 2018 in 沖縄","url":"https://igda-ryukyus.doorkeeper.jp/events/69025","shortener_url":"https://goo.gl/5cCRNf","started_at":"2018-01-27T02:30:00.000+09:00","ended_at":"2018-01-29T06:00:00.000+09:00","limit_number":60,"address":"沖縄県中頭郡西原町千原1 本部管理棟事務局","place":"琉球大学工学部 新棟508実験室","lat":26.2476,"lon":127.765,"state":"active","id":null},{"event_id":"69197","title":"スタートアップ座談会（SW神戸プレイベント）","url":"https://swkobe.doorkeeper.jp/events/69197","shortener_url":null,"started_at":"2018-01-07T20:00:00.000+09:00","ended_at":"2018-01-07T21:30:00.000+09:00","limit_number":10,"address":"大阪府大阪市北区鶴野町1-5","place":"StartupCafeOsaka2F","lat":34.7063,"lon":135.501,"state":"active","id":null},{"event_id":"68863","title":"本当に伝わるプレゼンの作り方","url":"https://swkashiwa.doorkeeper.jp/events/68863","shortener_url":null,"started_at":"2018-01-13T22:00:00.000+09:00","ended_at":"2018-01-14T01:00:00.000+09:00","limit_number":30,"address":"東京都港区南青山6-10-11 ","place":"ウェスレーセンター","lat":35.6597,"lon":139.716,"state":"active","id":null},{"event_id":"69239","title":"SWTokyo Fintech PRE ＠bit\u0026innovation 2018 January 27","url":"https://swtokyo.doorkeeper.jp/events/69239","shortener_url":"https://goo.gl/r4dWdN","started_at":"2018-01-27T19:00:00.000+09:00","ended_at":"2018-01-28T03:30:00.000+09:00","limit_number":60,"address":"西新宿三井ビル 23F ( 東京都新宿区西新宿6丁目24-1 )","place":"bit＆innovation","lat":35.6951,"lon":139.689,"state":"active","id":null},{"event_id":"93796","title":"第46回よちよちAndroid名古屋支部オフライン開発ミーティング","url":"https://atnd.org/events/93796","shortener_url":null,"started_at":"2018-01-14T09:00:00.000+09:00","ended_at":"2018-01-14T12:00:00.000+09:00","limit_number":null,"address":"名古屋市中区栄三丁目18番1号 ナディアパーク デザインセンタービル6階","place":"名古屋市市民活動推進センター","lat":35.1654,"lon":136.905,"state":"closed","id":null},{"event_id":"72062","title":"Sphinx + 翻訳 Hack-a-thon 開発合宿","url":"https://sphinxjp.connpass.com/event/72062/","shortener_url":"https://goo.gl/B9GFGN","started_at":"2018-01-07T13:00:00.000+09:00","ended_at":"2018-01-08T18:00:00.000+09:00","limit_number":null,"address":"埼玉県比企郡嵐山町菅谷728","place":"国立女性教育会館","lat":36.0355,"lon":139.326,"state":"active","id":null},{"event_id":"67892","title":"第4回 実践的IT教育シンポジウム rePiT 2018 in 岡山","url":"https://repit.connpass.com/event/67892/","shortener_url":null,"started_at":"2018-01-24T11:00:00.000+09:00","ended_at":"2018-01-24T19:30:00.000+09:00","limit_number":null,"address":"岡山市北区津島中1丁目1番1号","place":"岡山大学 津島キャンパス（一般教育棟B棟 B33号室）","lat":34.6868,"lon":133.919,"state":"active","id":null},{"event_id":"72804","title":"【2周年・合宿】集まれSwift好き！Swift愛好会 vol26","url":"https://love-swift.connpass.com/event/72804/","shortener_url":"https://goo.gl/2pjpA4","started_at":"2018-01-20T12:00:00.000+09:00","ended_at":"2018-01-21T15:00:00.000+09:00","limit_number":38,"address":"千葉県香取郡東庄町笹川い６２４","place":"土善旅館","lat":35.845,"lon":140.662,"state":"active","id":null},{"event_id":"74025","title":"第9回LOCAL学生部総大会","url":"https://connpass.com/event/74025/","shortener_url":null,"started_at":"2018-01-05T10:00:00.000+09:00","ended_at":"2018-01-06T17:00:00.000+09:00","limit_number":null,"address":"札幌市中央区北1条東4丁目1番地1 サッポロファクトリー1条館　3階","place":"株式会社インフィニットループ 会議室","lat":43.0656,"lon":141.374,"state":"active","id":null},{"event_id":"68129","title":"1/27(土)~28(日)festivo はじめてのプログラミング Camp@東京【学生12,000円、一般15,000円】～戦うスキルを身につける15時間！プログラミング概要からPHP/SQL集中合宿！～","url":"https://festivo.doorkeeper.jp/events/68129","shortener_url":"https://goo.gl/WQmabx","started_at":"2018-01-27T19:00:00.000+09:00","ended_at":"2018-01-29T04:00:00.000+09:00","limit_number":10,"address":"東京都練馬区豊玉北3-15-17","place":"起業家シェアハウス x-garden セミナールーム","lat":35.7329,"lon":139.661,"state":"active","id":null},{"event_id":"68130","title":"1/13(土)~14(日)festivo ホームページ作成（WordPress） Camp@東京【学生15,000円、一般20,000円】～戦うスキルを身につける15時間！WordPress集中合宿！～","url":"https://festivo.doorkeeper.jp/events/68130","shortener_url":"https://goo.gl/upnqvS","started_at":"2018-01-13T19:30:00.000+09:00","ended_at":"2018-01-15T03:30:00.000+09:00","limit_number":10,"address":"東京都練馬区豊玉北3-15-17","place":"起業家シェアハウス x-garden セミナールーム","lat":35.7329,"lon":139.661,"state":"active","id":null},{"event_id":"76511","title":"Raspberry Jam Tokyo #009 - AIY Project meetup","url":"https://raspberrypi.connpass.com/event/76511/","shortener_url":"https://goo.gl/nMks8Z","started_at":"2018-01-17T19:00:00.000+09:00","ended_at":"2018-01-17T21:00:00.000+09:00","limit_number":60,"address":"東京都港区六本木6-10-1（六本木ヒルズ森タワー）","place":"Google 東京オフィス","lat":35.6604,"lon":139.729,"state":"active","id":null},{"event_id":"76524","title":"【増枠】UX JAM 23 -新年会スペシャル-","url":"https://uxmilk.connpass.com/event/76524/","shortener_url":"https://goo.gl/q5t3Sy","started_at":"2018-01-25T19:30:00.000+09:00","ended_at":"2018-01-25T22:00:00.000+09:00","limit_number":150,"address":"東京都品川区大崎一丁目11番2号 (ゲートシティ大崎イーストタワー5F)","place":"オイシックスドット大地株式会社","lat":35.6187,"lon":139.732,"state":"active","id":null},{"event_id":"76494","title":"【大阪】Microsoft HoloLensハッカソン フォローアップハンズオン","url":"https://osaka-driven-dev.connpass.com/event/76494/","shortener_url":"https://goo.gl/T8cijh","started_at":"2018-01-31T04:00:00.000+09:00","ended_at":"2018-01-31T06:00:00.000+09:00","limit_number":8,"address":"大阪市中央区本町4丁目7-7-303","place":"Kiiiya Hommachi","lat":34.6849,"lon":135.498,"state":"active","id":null},{"event_id":"76183","title":"【大阪】Deep Learning Hackers' Salon 1/20【もくもく会・質問会】","url":"https://hackers-salon.connpass.com/event/76183/","shortener_url":null,"started_at":"2018-01-20T22:30:00.000+09:00","ended_at":"2018-01-21T04:30:00.000+09:00","limit_number":8,"address":"大阪市中央区本町４丁目７−７ 飛鳥ビル３０２","place":"Kiiiya Hommachi（2020年6月営業終了）","lat":34.6849,"lon":135.498,"state":"active","id":null},{"event_id":"75727","title":"オープンCAE構造-流体関東合同勉強会＠東京2018","url":"https://opencae-kanto.connpass.com/event/75727/","shortener_url":null,"started_at":"2018-01-20T19:00:00.000+09:00","ended_at":"2018-01-21T02:30:00.000+09:00","limit_number":50,"address":"東京都文京区白山5-28-20","place":"東洋大学白山キャンパス","lat":35.7236,"lon":139.75,"state":"active","id":null},{"event_id":"75492","title":"Global Game Jam 2018 in 岡山","url":"https://okauni.connpass.com/event/75492/","shortener_url":"https://goo.gl/rKskga","started_at":"2018-01-26T17:00:00.000+09:00","ended_at":"2018-01-28T20:00:00.000+09:00","limit_number":85,"address":"岡山県岡山市北区奥田西町5-5","place":"吉備国際大学 岡山キャンパス 本館2階大教室","lat":34.6442,"lon":133.917,"state":"active","id":null},{"event_id":"76442","title":"ブロックチェーンハッカソン by Team AI 1/29(月)","url":"https://teamai.connpass.com/event/76442/","shortener_url":"https://goo.gl/wDxFZ7","started_at":"2018-01-30T04:00:00.000+09:00","ended_at":"2018-01-30T06:00:00.000+09:00","limit_number":10,"address":"","place":"Online","lat":35.6618,"lon":139.696,"state":"active","id":null},{"event_id":"76435","title":"量子コンピュータハッカソン by Team AI 1/22(月)","url":"https://teamai.connpass.com/event/76435/","shortener_url":"https://goo.gl/jfEHgz","started_at":"2018-01-23T04:00:00.000+09:00","ended_at":"2018-01-23T06:00:00.000+09:00","limit_number":10,"address":"","place":"Online","lat":35.6618,"lon":139.696,"state":"active","id":null},{"event_id":"76432","title":"FinTechデー­­タ分析ハッカソン by Team AI 1/19(金)","url":"https://teamai.connpass.com/event/76432/","shortener_url":"https://goo.gl/zSBXNj","started_at":"2018-01-20T04:00:00.000+09:00","ended_at":"2018-01-20T06:00:00.000+09:00","limit_number":10,"address":"","place":"Online","lat":35.6618,"lon":139.696,"state":"active","id":null},{"event_id":"76369","title":"【迫る！GGJ】オトナのUnity入門@未来会議室（２回目）","url":"https://otona.connpass.com/event/76369/","shortener_url":null,"started_at":"2018-01-24T19:00:00.000+09:00","ended_at":"2018-01-24T21:00:00.000+09:00","limit_number":25,"address":"熊本県熊本市 中央区下通１丁目１２−２７","place":"未来会議室","lat":32.7998,"lon":130.708,"state":"active","id":null},{"event_id":"76367","title":"南島原ITナイト@東京Vol.4 ～「南島原ローカルITサービス創発塾」開催報告会","url":"https://connpass.com/event/76367/","shortener_url":null,"started_at":"2018-01-16T19:30:00.000+09:00","ended_at":"2018-01-16T21:00:00.000+09:00","limit_number":40,"address":"東京都千代田区丸の内2-5-1 (丸の内二丁目ビル6F 611区)","place":"TIP*S（ティップス・中小企業基盤整備機構）","lat":35.68,"lon":139.763,"state":"active","id":null},{"event_id":"76185","title":"【大阪】Deep Learning Hackers' Salon 1/28【もくもく会・質問会】","url":"https://hackers-salon.connpass.com/event/76185/","shortener_url":"https://goo.gl/8AxSzw","started_at":"2018-01-28T22:30:00.000+09:00","ended_at":"2018-01-29T04:30:00.000+09:00","limit_number":5,"address":"大阪市中央区本町４丁目７−７ 飛鳥ビル３０２","place":"Kiiiya Hommachi（2020年6月営業終了）","lat":34.6849,"lon":135.498,"state":"active","id":null},{"event_id":"76142","title":"IHANet meeting 18 @広島合宿","url":"https://ihanet.connpass.com/event/76142/","shortener_url":null,"started_at":"2018-01-27T16:00:00.000+09:00","ended_at":"2018-01-28T10:00:00.000+09:00","limit_number":9,"address":"広島市南区京橋町10-15","place":"京橋旅館","lat":34.3938,"lon":132.472,"state":"active","id":null},{"event_id":"76126","title":"Sota講習会 【Vstone Magicを始めよう】 Part 3（有料）","url":"https://sota.connpass.com/event/76126/","shortener_url":null,"started_at":"2018-01-13T23:00:00.000+09:00","ended_at":"2018-01-13T23:50:00.000+09:00","limit_number":4,"address":"東京都千代田区外神田1-9-9 内田ビル4F","place":"ヴイストン ロボットセンター秋葉原店","lat":35.6987,"lon":139.77,"state":"active","id":null},{"event_id":"76679","title":"【大阪】Microsoft HoloLens体験会 2018/01/30【MR/複合現実】","url":"https://osaka-driven-dev.connpass.com/event/76679/","shortener_url":"https://goo.gl/1dHzb7","started_at":"2018-01-31T03:00:00.000+09:00","ended_at":"2018-01-31T04:00:00.000+09:00","limit_number":4,"address":"大阪市中央区本町4丁目7-7-303","place":"Kiiiya Hommachi","lat":34.6849,"lon":135.498,"state":"active","id":null},{"event_id":"93918","title":"第294回 よちよちAndroid オフライン開発ミーティング in 大崎","url":"https://atnd.org/events/93918","shortener_url":null,"started_at":"2018-01-14T10:00:00.000+09:00","ended_at":"2018-01-14T12:00:00.000+09:00","limit_number":null,"address":"東京都品川区大崎1-11-1","place":"ゲートシティ大崎B1アトリウムフリー座席","lat":35.6194,"lon":139.731,"state":"closed","id":null},{"event_id":"76773","title":"【未来技術推進協会】アイデアソン 『SDGs×未来技術』","url":"https://connpass.com/event/76773/","shortener_url":"https://goo.gl/1xQVNR","started_at":"2018-01-30T19:00:00.000+09:00","ended_at":"2018-01-30T22:00:00.000+09:00","limit_number":30,"address":"東京都品川区東五反田２丁目１０－２ 東五反田スクエア13階","place":"Innovation Space DEJIMA","lat":35.6248,"lon":139.727,"state":"active","id":null},{"event_id":"76616","title":"第4回 福岡×人工知能×「育て方」","url":"https://techjin.connpass.com/event/76616/","shortener_url":null,"started_at":"2018-01-27T04:00:00.000+09:00","ended_at":"2018-01-27T06:00:00.000+09:00","limit_number":24,"address":"福岡県福岡市中央区天神3-4-3 (大隈ビル8F)","place":"TechJIN 8Fスペース","lat":33.592,"lon":130.396,"state":"active","id":null},{"event_id":"76628","title":"【大阪】1/28 HoloLensハッカソン フォローアップハンズオン - Face APIで分析編","url":"https://osaka-driven-dev.connpass.com/event/76628/","shortener_url":"https://goo.gl/ECEGLe","started_at":"2018-01-28T19:00:00.000+09:00","ended_at":"2018-01-28T21:00:00.000+09:00","limit_number":8,"address":"大阪市中央区本町4丁目7-7-303","place":"Kiiiya Hommachi","lat":34.6849,"lon":135.498,"state":"active","id":null},{"event_id":"76806","title":"Dart Meetup Tokyo #3","url":"https://dartisans-jp.connpass.com/event/76806/","shortener_url":"https://goo.gl/2bQGB5","started_at":"2018-01-27T21:00:00.000+09:00","ended_at":"2018-01-28T03:00:00.000+09:00","limit_number":10,"address":"東京都渋谷区恵比寿1-18-14 恵比寿ファーストスクエア10F","place":"株式会社ユーザベース","lat":35.6475,"lon":139.715,"state":"active","id":null},{"event_id":"76793","title":"[秋葉原] 第15回 ゆるふわIoT電子工作入門","url":"https://weeyble-iot.connpass.com/event/76793/","shortener_url":null,"started_at":"2018-01-21T22:00:00.000+09:00","ended_at":"2018-01-22T03:00:00.000+09:00","limit_number":8,"address":"東京都千代田区神田須田町２丁目１９−２３ (野村第３ビル ４階)","place":"コワーキングスペース秋葉原Weeyble","lat":35.6966,"lon":139.772,"state":"active","id":null},{"event_id":"76974","title":"【サポーターズ勉強会】画像認識AI入門（初心者向け）","url":"https://supporterz-seminar.connpass.com/event/76974/","shortener_url":null,"started_at":"2018-01-30T19:45:00.000+09:00","ended_at":"2018-01-30T21:15:00.000+09:00","limit_number":20,"address":"東京都渋谷区道玄坂1-9-5","place":"渋谷スクエアA 11F","lat":35.6573,"lon":139.699,"state":"active","id":null},{"event_id":"331599","title":"Global Game Jam 2018 京都府精華町","url":"http://peatix.com/event/331599","shortener_url":"https://goo.gl/B4GrtP","started_at":"2018-01-27T19:00:00.000+09:00","ended_at":"2018-01-30T08:59:59.000+09:00","limit_number":null,"address":"京都府相楽郡精華町光台1丁目7番地","place":"けいはんなプラザ","lat":34.7447,"lon":135.765,"state":"active","id":null},{"event_id":"334812","title":"Global Game Jam 2018 ふくしま","url":"http://ggjfks18.peatix.com","shortener_url":"https://goo.gl/tjU3KP","started_at":"2018-01-27T02:00:00.000+09:00","ended_at":"2018-01-29T08:59:59.000+09:00","limit_number":null,"address":"福島県郡山市方八町2-4-15","place":"WiZ 国際情報工科自動車大学校","lat":37.3943,"lon":140.391,"state":"active","id":null},{"event_id":"331766","title":"Global Game Jam Sendai 2018","url":"http://peatix.com/event/331766","shortener_url":"https://goo.gl/hWYCS6","started_at":"2018-01-27T02:00:00.000+09:00","ended_at":"2018-01-29T08:59:59.000+09:00","limit_number":null,"address":"宮城県仙台市青葉区本町2-11-10","place":"専門学校デジタルアーツ仙台","lat":38.2651,"lon":140.876,"state":"active","id":null},{"event_id":"333533","title":"【IDEATHON】スマートライフを考えよう","url":"http://peatix.com/event/333533","shortener_url":"https://goo.gl/1SUZk5","started_at":"2018-01-27T03:30:00.000+09:00","ended_at":"2018-01-29T08:59:59.000+09:00","limit_number":null,"address":"〒150-0001東京都渋谷区神宮前4−6−9ランドロイドギャラリー","place":"ランドロイドギャラリー","lat":35.6685,"lon":139.712,"state":"active","id":null},{"event_id":"338302","title":"EXTRAD meetup Tokyo - ワークショップ＆アイデアソン","url":"http://peatix.com/event/338302","shortener_url":"https://goo.gl/XMKJmf","started_at":"2018-01-27T01:30:00.000+09:00","ended_at":"2018-01-29T08:59:59.000+09:00","limit_number":null,"address":"東京都千代田区霞が関 1-4-1日土地ビル２F","place":"SENQ霞が関","lat":35.6709,"lon":139.75,"state":"active","id":null},{"event_id":"334266","title":"ANA航空券の特典も！実現化にこだわった、新しいカタチのアイデアソン！","url":"http://anaideason0127.peatix.com","shortener_url":"https://goo.gl/4QnJAz","started_at":"2018-01-27T22:00:00.000+09:00","ended_at":"2018-01-30T08:59:59.000+09:00","limit_number":null,"address":"大阪府大阪市北区鶴野町1-5","place":"関西大学梅田キャンパス8階","lat":34.7065,"lon":135.501,"state":"active","id":null},{"event_id":"335202","title":"農業分野の事業創造 1day Ideathon ～福島の農家×東京の叡智～","url":"http://peatix.com/event/335202","shortener_url":"https://goo.gl/PVBtvv","started_at":"2018-01-27T19:00:00.000+09:00","ended_at":"2018-01-30T08:59:59.000+09:00","limit_number":null,"address":"東京都千代田区霞が関一丁目4番1号 日土地ビル2F","place":"SENQ霞が関","lat":35.6709,"lon":139.75,"state":"active","id":null},{"event_id":"337504","title":"実現化にこだわった、新しいカタチのアイデアソン！「IT'S ON BOARD」プレイベント ","url":"http://anaideasonpre0119.peatix.com","shortener_url":"https://goo.gl/qJNEKj","started_at":"2018-01-20T04:00:00.000+09:00","ended_at":"2018-01-22T08:59:59.000+09:00","limit_number":null,"address":"大阪府大阪市北区鶴野町1-5 日本","place":"関西大学梅田キャンパス８Ｆ","lat":34.7065,"lon":135.501,"state":"active","id":null},{"event_id":"336339","title":"【参加無料】「にいがたライフスタイルカフェ2017VOL.5-期間限定移住-」","url":"http://2017lifestylecafe05.peatix.com","shortener_url":null,"started_at":"2018-01-24T04:00:00.000+09:00","ended_at":"2018-01-26T08:59:59.000+09:00","limit_number":null,"address":"東京都千代田区神田駿河台3-1-1　大雅ビル6F","place":"レンタルキッチンスペースPatiaパティア新御茶ノ水店","lat":35.6957,"lon":139.765,"state":"active","id":null},{"event_id":"336537","title":"H³ 第九回：ヘルスケアビッグデータ入門","url":"http://hhh9.peatix.com","shortener_url":null,"started_at":"2018-01-21T23:00:00.000+09:00","ended_at":"2018-01-24T08:59:59.000+09:00","limit_number":null,"address":"東京都中央区日本橋本町2-3-11","place":" 日本橋ライフサイエンスビル","lat":35.6877,"lon":139.776,"state":"active","id":null},{"event_id":"329259","title":"カードゲームと質問づくりQFTで遊ぶ、学ぶ『持続可能な開発目標SDGs』ハテナソン IN 京都","url":"http://peatix.com/event/329259","shortener_url":null,"started_at":"2018-01-20T03:15:00.000+09:00","ended_at":"2018-01-22T08:59:59.000+09:00","limit_number":null,"address":"ひと・まち交流館 京都 第２会議室","place":"ひと・まち交流館 京都 第３会議室","lat":34.9932,"lon":135.765,"state":"active","id":null},{"event_id":"294644","title":"地域の魅力をみんなで磨くアイデアソンイベント「さぶみっと！ヨクスル in 大阪」【2018年1月25日(木)開催】","url":"http://peatix.com/event/294644","shortener_url":"https://goo.gl/RfnBzm","started_at":"2018-01-26T04:00:00.000+09:00","ended_at":"2018-01-28T08:59:59.000+09:00","limit_number":null,"address":"大阪市中央区備後町3-6-2 大雅ビル3F","place":"中央会計セミナールーム","lat":34.6849,"lon":135.501,"state":"active","id":null},{"event_id":"341589","title":"PSLE 3 Hours Hands-on Jam Packed Workshop for Parent \u0026 Child! (PM SESSION)","url":"http://peatix.com/event/341589","shortener_url":"https://goo.gl/QAEAeR","started_at":"2018-01-28T00:00:00.000+09:00","ended_at":"2018-01-30T08:59:59.000+09:00","limit_number":null,"address":"TBA, Singapore","place":"TBC","lat":1.3006,"lon":103.855,"state":"active","id":null},{"event_id":"341593","title":"PSLE 3 Hours Hands-On Jam Packed Workshop for Parent \u0026 Child! (AM SESSION)","url":"http://peatix.com/event/341593","shortener_url":"https://goo.gl/zEHGvt","started_at":"2018-01-27T19:30:00.000+09:00","ended_at":"2018-01-30T08:59:59.000+09:00","limit_number":null,"address":"TBA, Singapore","place":"TBA","lat":1.3006,"lon":103.855,"state":"active","id":null},{"event_id":"304932","title":"1/27(土)~28(日)festivo はじめてのプログラミング Camp@東京【学生12,000円、一般15,000円】～戦うスキルを身につける15時間！プログラミング概要からPHP/SQL集中合宿！～","url":"http://peatix.com/event/304932","shortener_url":"https://goo.gl/ZewXtg","started_at":"2018-01-27T19:00:00.000+09:00","ended_at":"2018-01-30T08:59:59.000+09:00","limit_number":null,"address":"東京都練馬区豊玉北3-15-17","place":"起業家シェアハウス x-garden セミナールーム","lat":35.7329,"lon":139.661,"state":"active","id":null},{"event_id":"322642","title":"学修をデザインする勉強会 （仙台）","url":"http://peatix.com/event/322642","shortener_url":null,"started_at":"2018-01-27T22:30:00.000+09:00","ended_at":"2018-01-30T08:59:59.000+09:00","limit_number":null,"address":"宮城県仙台市 青葉区仙台市青葉区国分町３丁目１０−３０ 2f ","place":"jam","lat":38.267,"lon":140.869,"state":"active","id":null},{"event_id":"335626","title":"テープと接着剤でつくる！光る飾り瓶 はんだのない電子工作ワークショップ","url":"http://peatix.com/event/335626","shortener_url":null,"started_at":"2018-01-20T22:00:00.000+09:00","ended_at":"2018-01-23T08:59:59.000+09:00","limit_number":null,"address":"東京都港区赤坂1丁目12−32 アーク森ビル","place":"TechShop Tokyo","lat":35.6671,"lon":139.74,"state":"active","id":null},{"event_id":"331763","title":"鷺巣詩郎プレゼンツ「ピープロ復活祭！！」","url":"http://peatix.com/event/331763","shortener_url":null,"started_at":"2018-01-20T04:30:00.000+09:00","ended_at":"2018-01-22T08:59:59.000+09:00","limit_number":null,"address":"〒150-0002 東京都 渋谷区 渋谷1-23-16 cocoti SHIBUYA（渋谷 ココチ）4階 03-6427","place":"渋谷 東京カルチャーカルチャー（渋谷ココチ4階・渋谷駅徒歩4分)","lat":35.6621,"lon":139.703,"state":"active","id":null},{"event_id":"337807","title":"Let's chat about service design practice in Singapore","url":"http://peatix.com/event/337807","shortener_url":null,"started_at":"2018-01-19T05:30:00.000+09:00","ended_at":"2018-01-21T08:59:59.000+09:00","limit_number":null,"address":"Singapore","place":"Lowercase Cafe ","lat":1.35208,"lon":103.82,"state":"active","id":null},{"event_id":"327808","title":"【原宿 × オリジナルマスタードをみんなで作ろう】お持ち帰りのマイマスタードを作りながらマスタード料理食べよう・原宿","url":"http://peatix.com/event/327808","shortener_url":null,"started_at":"2018-01-29T03:30:00.000+09:00","ended_at":"2018-01-31T08:59:59.000+09:00","limit_number":null,"address":"原宿駅","place":"Keikoさんの食卓","lat":35.6702,"lon":139.703,"state":"active","id":null},{"event_id":"331301","title":"IchigoJamプログラミングスクール＜Hana道場＞1月27日","url":"http://peatix.com/event/331301","shortener_url":"https://goo.gl/LjYtRg","started_at":"2018-01-27T23:00:00.000+09:00","ended_at":"2018-01-30T08:59:59.000+09:00","limit_number":null,"address":"福井県鯖江市旭町1-6-6","place":"Hana道場","lat":35.9447,"lon":136.187,"state":"active","id":null},{"event_id":"339129","title":"Chiba Cross Point 〜なりわい×まち〜","url":"http://peatix.com/event/339129","shortener_url":null,"started_at":"2018-01-29T03:00:00.000+09:00","ended_at":"2018-01-31T08:59:59.000+09:00","limit_number":null,"address":"千葉県 千葉市中央区 新千葉 1-4-2 ウェストリオ2 　3F","place":"Agreen","lat":35.6134,"lon":140.112,"state":"active","id":null},{"event_id":"338588","title":"IP SMART 2018: CREATE","url":"http://peatix.com/event/338588","shortener_url":null,"started_at":"2018-01-25T20:00:00.000+09:00","ended_at":"2018-01-28T08:59:59.000+09:00","limit_number":null,"address":"Lvl 2, CIMB Leadership Academy, No 3, Jalan Medini Utara 1, Medini Iskandar, 79200 Iskandar Puteri, Johor","place":"Iskandar Space, CIMB Afiniti Medini","lat":1.42636,"lon":103.634,"state":"active","id":null},{"event_id":"338702","title":"ちょっと未来の暮らしをつくろう 〜毎日を便利に楽しくするスマートアイテムをプロトタイピングする〜","url":"http://peatix.com/event/338702","shortener_url":"https://goo.gl/4r4czh","started_at":"2018-01-27T19:00:00.000+09:00","ended_at":"2018-01-30T08:59:59.000+09:00","limit_number":null,"address":"東京都港区赤坂1丁目12−32 アーク森ビル","place":"TechShop Tokyo","lat":35.6671,"lon":139.74,"state":"active","id":null},{"event_id":"333401","title":"【満席のため受付終了】ピョンチャン五輪 直前企画 小塚崇彦さんと語る「日本のフィギュアスケート躍進の舞台裏・冬季五輪ならではの魅力」2018/1/16(火)19:00-20:30 遊学堂（ビジネスエアポート東京）","url":"http://peatix.com/event/333401","shortener_url":null,"started_at":"2018-01-17T04:00:00.000+09:00","ended_at":"2018-01-19T08:59:59.000+09:00","limit_number":null,"address":"東京都千代田区丸の内１－１－３　日本生命丸の内ガーデンタワー３階　ビジネスエアポート東京「遊学堂」","place":" 「遊学堂」ビジネスエアポート東京","lat":35.6849,"lon":139.762,"state":"active","id":null},{"event_id":"339416","title":" 映画『日本一幸せな従業員をつくる』上映会","url":"http://peatix.com/event/339416","shortener_url":null,"started_at":"2018-01-28T03:05:00.000+09:00","ended_at":"2018-01-30T08:59:59.000+09:00","limit_number":null,"address":"仙台市青葉区中央1-3-1　AER6階","place":"仙台市　中小企業活性化センター　セミナールーム１−A（アエル6階）","lat":38.2626,"lon":140.881,"state":"active","id":null},{"event_id":"330060","title":"八時間耐久作品制作会 in 大阪 #6","url":"http://peatix.com/event/330060","shortener_url":null,"started_at":"2018-01-20T19:00:00.000+09:00","ended_at":"2018-01-23T08:59:59.000+09:00","limit_number":null,"address":"大阪市北区中之島3-3-3　 中之島三井ビルディング10F","place":" 株式会社Razest","lat":34.6932,"lon":135.494,"state":"active","id":null},{"event_id":"336394","title":"Sound Provider #2","url":"http://peatix.com/event/336394","shortener_url":null,"started_at":"2018-01-27T04:30:00.000+09:00","ended_at":"2018-01-29T08:59:59.000+09:00","limit_number":null,"address":"東京都渋谷区神南1丁目23-13 B2","place":"渋谷 PLUG IN STUDIO","lat":35.6602,"lon":139.701,"state":"active","id":null},{"event_id":"331535","title":"映画『タシちゃんと僧侶』上映トークイベント（1.25東京）","url":"http://tashi.peatix.com","shortener_url":null,"started_at":"2018-01-26T04:00:00.000+09:00","ended_at":"2018-01-28T08:59:59.000+09:00","limit_number":null,"address":"東京都豊島区西巣鴨1丁目1−7","place":"シネマハウス大塚","lat":35.7358,"lon":139.73,"state":"active","id":null},{"event_id":"321042","title":"対話文化の醸成を志す人々のためのリトリートワークショップ","url":"http://peatix.com/event/321042","shortener_url":null,"started_at":"2018-01-20T22:00:00.000+09:00","ended_at":"2018-01-23T08:59:59.000+09:00","limit_number":null,"address":"山梨県山梨市牧丘町倉科7190","place":"保健農園ホテルフフ山梨","lat":35.7584,"lon":138.686,"state":"active","id":null},{"event_id":"338403","title":"渋谷区100人カイギ vol.o2","url":"http://shibuyaku100ninkaigi02.peatix.com","shortener_url":null,"started_at":"2018-01-25T04:00:00.000+09:00","ended_at":"2018-01-27T08:59:59.000+09:00","limit_number":null,"address":"東京都渋谷区道玄坂1-22-7　道玄坂ピア10F","place":"株式会社ロフトワーク","lat":35.6561,"lon":139.696,"state":"active","id":null},{"event_id":"334577","title":"777企画塾＠京都 Season3「Rule発想のCreative Planning」","url":"http://peatix.com/event/334577","shortener_url":null,"started_at":"2018-01-20T20:30:00.000+09:00","ended_at":"2018-01-23T08:59:59.000+09:00","limit_number":null,"address":"京都府京都市下京区本塩竈町554","place":"MTRL KYOTO","lat":34.9952,"lon":135.764,"state":"active","id":null},{"event_id":"336217","title":"ストレスを解消し、創造力を活かす！“働きやすさ”をつくる「はじめてのマインドフルネス」｜あすよみ","url":"http://asuyomi20180124.peatix.com","shortener_url":null,"started_at":"2018-01-25T04:00:00.000+09:00","ended_at":"2018-01-27T08:59:59.000+09:00","limit_number":null,"address":"東京都大田区新蒲田1-17-25","place":"FUJITSU Knowledge Integration Base PLY（富士通ソリューションスクエア2階）","lat":35.5581,"lon":139.713,"state":"active","id":null},{"event_id":"334875","title":"【20名限定】デザインシンカーへの道　ーDesign Thinking Experience｜起業プラザひょうご","url":"http://kigyoplaza-designthinking.peatix.com","shortener_url":null,"started_at":"2018-01-24T04:00:00.000+09:00","ended_at":"2018-01-26T08:59:59.000+09:00","limit_number":null,"address":"兵庫県神戸市中央区雲井通5-3-1 サンパル6F","place":"起業プラザひょうご","lat":34.6955,"lon":135.197,"state":"active","id":null},{"event_id":"324973","title":"1/24(Wed) Shinjuku Spanish Night /Free Entrance for Spanish Native Speakers","url":"http://peatix.com/event/324973","shortener_url":null,"started_at":"2018-01-25T04:00:00.000+09:00","ended_at":"2018-01-27T08:59:59.000+09:00","limit_number":null,"address":"東京都新宿区西新宿8-19-11","place":"KASHIWAGI CAFE","lat":35.692,"lon":139.686,"state":"active","id":null},{"event_id":"324978","title":"1/27(Sat) Akasaka Nihongo Night / FREE Entrance for Non-Japanese","url":"http://peatix.com/event/324978","shortener_url":null,"started_at":"2018-01-28T04:00:00.000+09:00","ended_at":"2018-01-30T08:59:59.000+09:00","limit_number":null,"address":"東京都港区赤坂2-13-19","place":"AKASAKA HOBGOBLIN","lat":35.6727,"lon":139.738,"state":"active","id":null},{"event_id":"325286","title":"1/26(Fri) Roppongi Drink Meetup / FREE Entrance for Non-Japanese","url":"http://peatix.com/event/325286","shortener_url":null,"started_at":"2018-01-27T04:00:00.000+09:00","ended_at":"2018-01-29T08:59:59.000+09:00","limit_number":null,"address":"東京都港区六本木7-13-8 日本","place":" GLAMOUR Tokyo Bar","lat":35.6639,"lon":139.73,"state":"active","id":null},{"event_id":"336947","title":"ビジネス書著者による「逆算手帳」プランニングセミナー（土曜午後）＠東京桜新町","url":"http://peatix.com/event/336947","shortener_url":null,"started_at":"2018-01-21T00:00:00.000+09:00","ended_at":"2018-01-23T08:59:59.000+09:00","limit_number":null,"address":"東京都世田谷区用賀2-11-10 けやきアパートメント201","place":"木村税務会計事務所","lat":35.6296,"lon":139.639,"state":"active","id":null},{"event_id":"324965","title":"1/20(Sat) 20s Social Meetup / FREE Entry for Non-Japanese","url":"http://peatix.com/event/324965","shortener_url":null,"started_at":"2018-01-21T00:00:00.000+09:00","ended_at":"2018-01-23T08:59:59.000+09:00","limit_number":null,"address":"東京都新宿区西新宿8-19-11","place":"KASHIWAGI CAFE","lat":35.692,"lon":139.686,"state":"active","id":null},{"event_id":"324981","title":"1/28(Sun) Nihongo Meetup in Roppongi / FREE Entry for Non-Japanese ","url":"http://peatix.com/event/324981","shortener_url":null,"started_at":"2018-01-28T23:00:00.000+09:00","ended_at":"2018-01-31T08:59:59.000+09:00","limit_number":null,"address":"東京都港区六本木3−16−33  ","place":"Hobgoblin Roppongi","lat":35.6623,"lon":139.737,"state":"active","id":null},{"event_id":"324982","title":"1/28(Sun) Drink Meetup in Meguro / FREE Entrance for Non-Japanese","url":"http://peatix.com/event/324982","shortener_url":null,"started_at":"2018-01-29T03:00:00.000+09:00","ended_at":"2018-01-31T08:59:59.000+09:00","limit_number":null,"address":"目黒区下目黒1-3-28","place":"The Meguro Tavern","lat":35.6343,"lon":139.713,"state":"active","id":null},{"event_id":"324975","title":"1/25(Thu) Around 30's Night in Roppongi / FREE Entry for Non-Japanese ","url":"http://peatix.com/event/324975","shortener_url":null,"started_at":"2018-01-26T04:00:00.000+09:00","ended_at":"2018-01-28T08:59:59.000+09:00","limit_number":null,"address":"東京都港区六本木3−16−33  ","place":"Hobgoblin Roppongi","lat":35.6623,"lon":139.737,"state":"active","id":null},{"event_id":"336951","title":"ビジネス書著者による「逆算手帳」ガントチャート活用セミナー＠東京桜新町（月曜夜）","url":"http://peatix.com/event/336951","shortener_url":null,"started_at":"2018-01-23T04:30:00.000+09:00","ended_at":"2018-01-25T08:59:59.000+09:00","limit_number":null,"address":"東京都世田谷区用賀2-11-10 けやきアパートメント201","place":"木村税務会計事務所","lat":35.6296,"lon":139.639,"state":"active","id":null},{"event_id":"324964","title":"1/19(Fri) Nihongo Night in Nishi-Shinjuku / FREE Entrance for Non-Japanese","url":"http://peatix.com/event/324964","shortener_url":null,"started_at":"2018-01-20T04:00:00.000+09:00","ended_at":"2018-01-22T08:59:59.000+09:00","limit_number":null,"address":"東京都新宿区西新宿8-19-11  ","place":"KASHIWAGI CAFE  ","lat":35.6956,"lon":139.691,"state":"active","id":null},{"event_id":"324969","title":"1/20(Sat) Drink Meetup in Jiyugaoka / FREE Entrance for Non-Japanese","url":"http://peatix.com/event/324969","shortener_url":null,"started_at":"2018-01-21T04:00:00.000+09:00","ended_at":"2018-01-23T08:59:59.000+09:00","limit_number":null,"address":"東京都目黒区自由が丘1丁目8-18","place":"Clann","lat":35.6069,"lon":139.669,"state":"active","id":null},{"event_id":"324971","title":"1/21(Sun) Nihongo Meetup in Asakusa / FREE Entrance for Non-Japanese","url":"http://peatix.com/event/324971","shortener_url":null,"started_at":"2018-01-21T23:00:00.000+09:00","ended_at":"2018-01-24T08:59:59.000+09:00","limit_number":null,"address":"東京都台東区西浅草2-2-2","place":"CAMPION ALE ","lat":35.712,"lon":139.791,"state":"active","id":null},{"event_id":"338159","title":"Live 10 Meetup hosted by Ableton Meetup Tokyo","url":"http://peatix.com/event/338159","shortener_url":null,"started_at":"2018-01-22T01:00:00.000+09:00","ended_at":"2018-01-24T08:59:59.000+09:00","limit_number":null,"address":"東京都渋谷区道玄坂2-10-12 新大宗ビル4号館 B2F","place":"Contact","lat":35.6585,"lon":139.698,"state":"active","id":null},{"event_id":"337146","title":"【残り3席です: 1/27(土) 第二次締切】 ハーバード社会起業大会スタディプログラム2018","url":"http://peatix.com/event/337146","shortener_url":null,"started_at":"2018-01-28T05:00:00.000+09:00","ended_at":"2018-01-30T08:59:59.000+09:00","limit_number":null,"address":"ハーバードビジネススクール \u0026 ケネディスクール","place":"ハーバードビジネススクール \u0026 ハーバードケネディスクール","lat":0.0,"lon":0.0,"state":"active","id":null},{"event_id":"335610","title":"半田付け体験とテスター・オシロスコープ入門【01/18(木)開催】","url":"http://dmmmake180118hand.peatix.com","shortener_url":null,"started_at":"2018-01-18T20:00:00.000+09:00","ended_at":"2018-01-21T08:59:59.000+09:00","limit_number":null,"address":"東京都千代田区神田練塀町3　富士ソフト秋葉原ビル　10F　DMM.make AKIBA Studio","place":"DMM.make AKIBA 10F Studio","lat":35.7008,"lon":139.774,"state":"active","id":null},{"event_id":"338447","title":"ちょっと変わった旅話　【旅トークvol.7】ゲスト:シャンティ国際ボランティア会　鈴木晶子さん","url":"http://tabitalk.peatix.com","shortener_url":null,"started_at":"2018-01-22T01:00:00.000+09:00","ended_at":"2018-01-24T08:59:59.000+09:00","limit_number":null,"address":"東京都渋谷区渋谷3-29-17 ホテルメッツ渋谷　３Ｆ","place":"渋谷","lat":35.6558,"lon":139.704,"state":"active","id":null},{"event_id":"339106","title":"歌舞伎町観察ツアー01.19","url":"http://peatix.com/event/339106","shortener_url":null,"started_at":"2018-01-20T05:00:00.000+09:00","ended_at":"2018-01-22T08:59:59.000+09:00","limit_number":null,"address":"歌舞伎町","place":"歌舞伎町","lat":0.0,"lon":0.0,"state":"active","id":null},{"event_id":"328965","title":"【無料セミナー】「技術力」×「人間力」の可視化による組織戦略分析","url":"http://peatix.com/event/328965","shortener_url":null,"started_at":"2018-01-20T00:00:00.000+09:00","ended_at":"2018-01-22T08:59:59.000+09:00","limit_number":null,"address":"東京都港区芝公園1-8-4 （TOACビルディング）","place":"芝大門塾（東芝OAコンサルタント）","lat":35.6575,"lon":139.752,"state":"active","id":null},{"event_id":"341081","title":"Singapore Pub Crawl - Ladies Night","url":"http://ladiesnight.peatix.com","shortener_url":null,"started_at":"2018-01-25T05:00:00.000+09:00","ended_at":"2018-01-27T08:59:59.000+09:00","limit_number":null,"address":"Kings \u0026 Barrels Eu Tong Sen Street Singapore","place":"Kings \u0026 Barrels @ Clarke Quay Central","lat":1.28568,"lon":103.851,"state":"active","id":null},{"event_id":"337827","title":"Comedy Rojak, a bi-lingual Comedy Night | 9pm ","url":"http://peatix.com/event/337827","shortener_url":null,"started_at":"2018-01-26T07:00:00.000+09:00","ended_at":"2018-01-28T08:59:59.000+09:00","limit_number":null,"address":"24A Lorong Rahim Kajai 14, Taman Tun Dr. Ismail, 60000 Kuala Lumpur","place":"Crackhouse Comedy Club Kuala Lumpur","lat":3.15474,"lon":101.623,"state":"active","id":null},{"event_id":"339108","title":"歌舞伎町観察ツアー01.27","url":"http://peatix.com/event/339108","shortener_url":null,"started_at":"2018-01-28T05:00:00.000+09:00","ended_at":"2018-01-30T08:59:59.000+09:00","limit_number":null,"address":"歌舞伎町","place":"歌舞伎町","lat":0.0,"lon":0.0,"state":"active","id":null},{"event_id":"341069","title":"$5 Pub Crawl - Ladies Night","url":"http://ladiesnight2018.peatix.com","shortener_url":null,"started_at":"2018-01-18T05:30:00.000+09:00","ended_at":"2018-01-20T08:59:59.000+09:00","limit_number":null,"address":"Kings \u0026 Barrels Eu Tong Sen Street Singapore","place":"Kings \u0026 Barrels @ Clarke Quay Central","lat":1.28568,"lon":103.851,"state":"active","id":null},{"event_id":"341083","title":"$5 Pub Crawl - Friday/Saturday","url":"http://sgpubcrawl2018.peatix.com","shortener_url":null,"started_at":"2018-01-20T05:30:00.000+09:00","ended_at":"2018-01-22T08:59:59.000+09:00","limit_number":null,"address":"Fat Pigeon Statue beside UOB Plaza,80 Raffles Place, Singapore 048624","place":"Fat Pigeon Statue beside UOB Plaza,Boat Quay ","lat":1.28568,"lon":103.851,"state":"active","id":null},{"event_id":"335618","title":"FRISK風ヘッドフォンアンプをつくろう【01/21(日)開催】","url":"http://dmmmake1801frsk.peatix.com","shortener_url":null,"started_at":"2018-01-21T20:00:00.000+09:00","ended_at":"2018-01-24T08:59:59.000+09:00","limit_number":null,"address":"東京都千代田区神田練塀町3　富士ソフト秋葉原ビル　10F　DMM.make AKIBA Studio","place":"DMM.make AKIBA 10F Studio","lat":35.7008,"lon":139.774,"state":"active","id":null},{"event_id":"337262","title":"23歳から37歳『ちょっと大人のアニコンin浜松』2018年1月21日(日) 14:00-16:30","url":"http://peatix.com/event/337262","shortener_url":null,"started_at":"2018-01-21T23:00:00.000+09:00","ended_at":"2018-01-24T08:59:59.000+09:00","limit_number":null,"address":"静岡県浜松市中区肴町３１８‐２７ ","place":" 地中海料理　セルフィッシュ","lat":34.7062,"lon":137.729,"state":"active","id":null},{"event_id":"333385","title":"24歳から38歳『ちょっと大人のアニコンin水戸』2018年1月21日(日) 15:00-17:30","url":"http://peatix.com/event/333385","shortener_url":null,"started_at":"2018-01-22T00:00:00.000+09:00","ended_at":"2018-01-24T08:59:59.000+09:00","limit_number":null,"address":"茨城県水戸市宮町１-7-31　エクセルみなみ6F","place":"イタリアンバイキング「パパゲーノ水戸」","lat":36.3701,"lon":140.477,"state":"active","id":null},{"event_id":"335659","title":"23歳から37歳限定『ちょっと大人のアニコンin宇都宮』2018年1月21日(日) 14:00-16:30","url":"http://peatix.com/event/335659","shortener_url":null,"started_at":"2018-01-21T23:00:00.000+09:00","ended_at":"2018-01-24T08:59:59.000+09:00","limit_number":null,"address":"栃木県宇都宮市東 宿郷２丁目４−１ ホテルマイステイズ宇都宮 1階　","place":"魚民 宇都宮東口駅前店　","lat":36.5582,"lon":139.901,"state":"active","id":null},{"event_id":"324959","title":"1/17(Wed) French Night in Shinjuku  / Nuit française à Shinjuku","url":"http://peatix.com/event/324959","shortener_url":null,"started_at":"2018-01-18T04:00:00.000+09:00","ended_at":"2018-01-20T08:59:59.000+09:00","limit_number":null,"address":"東京都新宿区西新宿8-19-11","place":"KASHIWAGI CAFE","lat":35.692,"lon":139.686,"state":"active","id":null},{"event_id":"324923","title":"1/19(金) にほんごナイト@西新宿 / Nihongo Night in NishiShinjuku ","url":"http://peatix.com/event/324923","shortener_url":null,"started_at":"2018-01-20T04:00:00.000+09:00","ended_at":"2018-01-22T08:59:59.000+09:00","limit_number":null,"address":"東京都新宿区西新宿8-19-11 ","place":"KASHIWAGI CAFE ","lat":35.6956,"lon":139.691,"state":"active","id":null},{"event_id":"341469","title":"Sunset Vibes @ 1-Altitude","url":"http://sunsetvibes.peatix.com","shortener_url":null,"started_at":"2018-01-28T00:00:00.000+09:00","ended_at":"2018-01-30T08:59:59.000+09:00","limit_number":null,"address":"1 Raffles Place, 048616","place":"1-Altitude","lat":1.28436,"lon":103.851,"state":"active","id":null},{"event_id":"324927","title":"1/27(土)  にほんごナイト@赤坂 / Nihongo Night at Bar in Akasaka ","url":"http://peatix.com/event/324927","shortener_url":null,"started_at":"2018-01-28T04:00:00.000+09:00","ended_at":"2018-01-30T08:59:59.000+09:00","limit_number":null,"address":"東京都港区赤坂2-13-19 ","place":"AKASAKA HOBGOBLIN  ","lat":35.6727,"lon":139.738,"state":"active","id":null},{"event_id":"335614","title":"レーザーカッターで作るUSBで灯せる行燈(あんどん)【01/20(土)開催】","url":"http://dmmmake1801andon.peatix.com","shortener_url":null,"started_at":"2018-01-21T00:00:00.000+09:00","ended_at":"2018-01-23T08:59:59.000+09:00","limit_number":null,"address":"東京都千代田区神田練塀町3　富士ソフト秋葉原ビル　10F　DMM.make AKIBA Studio","place":"DMM.make AKIBA 10F Studio","lat":35.7008,"lon":139.774,"state":"active","id":null},{"event_id":"324925","title":"1/21(日) にほんご交流会@浅草 / Nihongo Meetup in Asakusa ","url":"http://peatix.com/event/324925","shortener_url":null,"started_at":"2018-01-21T23:00:00.000+09:00","ended_at":"2018-01-24T08:59:59.000+09:00","limit_number":null,"address":"東京都台東区西浅草2-2-2","place":"カンピオンエール ","lat":35.712,"lon":139.791,"state":"active","id":null},{"event_id":"324907","title":"1/20(土) 20代の異文化交流会@西新宿 / 20's Social Meetup in Nishi-Shinjuku","url":"http://peatix.com/event/324907","shortener_url":null,"started_at":"2018-01-21T00:00:00.000+09:00","ended_at":"2018-01-23T08:59:59.000+09:00","limit_number":null,"address":"東京都新宿区西新宿8-19-11 ","place":"KASHIWAGI CAFE ","lat":35.6954,"lon":139.691,"state":"active","id":null},{"event_id":"340763","title":"Crackhouse Presents : SUDARSAN RAMAMURTHY (INDIA)","url":"http://crackhousesudarsan.peatix.com","shortener_url":null,"started_at":"2018-01-27T07:00:00.000+09:00","ended_at":"2018-01-29T08:59:59.000+09:00","limit_number":null,"address":"24A (1st Floor) Lorong Rahim Kajai 14, Taman Tun Dr. Ismail, 60000 Kuala Lumpur","place":"The Crackhouse Comedy Club KL","lat":3.15478,"lon":101.623,"state":"active","id":null},{"event_id":"335684","title":"1月24日（水）ライフスタイルとお金「漢方を活用しよう！美容とお金」 @銀座","url":"http://peatix.com/event/335684","shortener_url":null,"started_at":"2018-01-25T04:00:00.000+09:00","ended_at":"2018-01-27T08:59:59.000+09:00","limit_number":null,"address":"東京都中央区銀座五丁目8番1号","place":"丸福珈琲店　銀座喫茶室","lat":35.6709,"lon":139.765,"state":"active","id":null},{"event_id":"329922","title":"Comedy Masala ft. NIK COPPIN (UK)","url":"http://nikkcoppin.peatix.com","shortener_url":null,"started_at":"2018-01-17T06:00:00.000+09:00","ended_at":"2018-01-19T08:59:59.000+09:00","limit_number":null,"address":"","place":"HERO'S, 69 Circular Road, Singapore 049423","lat":1.28641,"lon":103.849,"state":"active","id":null},{"event_id":"336511","title":"COLABOピッチイベント　Vol4","url":"http://peatix.com/event/336511","shortener_url":null,"started_at":"2018-01-18T23:30:00.000+09:00","ended_at":"2018-01-21T08:59:59.000+09:00","limit_number":null,"address":"東京都渋谷区桜丘町20-4 ネクシィーズ スクエアビル","place":"東京都渋谷区桜丘町20-4 ネクシィーズ スクエアビル","lat":35.6548,"lon":139.701,"state":"active","id":null},{"event_id":"334053","title":"1/25（木）アロマ香るガントチャート活用セミナーin神戸","url":"http://peatix.com/event/334053","shortener_url":null,"started_at":"2018-01-25T18:30:00.000+09:00","ended_at":"2018-01-28T08:59:59.000+09:00","limit_number":null,"address":"兵庫県神戸市中央区三宮町1-9-1 三宮センタープラザ東館6階","place":"スペースアルファ三宮","lat":34.6917,"lon":135.192,"state":"active","id":null},{"event_id":"339856","title":"トークセッション「国を超え、同じ市民として生きる」","url":"http://peatix.com/event/339856","shortener_url":null,"started_at":"2018-01-20T22:30:00.000+09:00","ended_at":"2018-01-23T08:59:59.000+09:00","limit_number":null,"address":"愛知県名古屋市中村区平池町4丁目60-7","place":"JICA中部　なごや地球ひろば","lat":0.0,"lon":0.0,"state":"active","id":null},{"event_id":"339738","title":"【開始時間変更!!20時スタート】ギャップのあるツンデレ日本酒を飲もう！！","url":"http://potluck.peatix.com","shortener_url":null,"started_at":"2018-01-25T05:00:00.000+09:00","ended_at":"2018-01-27T08:59:59.000+09:00","limit_number":null,"address":"東京都渋谷区東3-25-3 ライオンズプラザ恵比寿 1F","place":"恵比寿キッチン","lat":35.6486,"lon":139.71,"state":"active","id":null},{"event_id":"329924","title":"Comedy Masala ft. TURNER SPARKS (USA)","url":"http://turnersparks.peatix.com","shortener_url":null,"started_at":"2018-01-31T06:00:00.000+09:00","ended_at":"2018-02-02T08:59:59.000+09:00","limit_number":null,"address":"69 Circular Road, Boat Quay, Singapore 049423","place":"HERO'S, 69 Circular Road, Singapore 049423","lat":1.28641,"lon":103.849,"state":"active","id":null},{"event_id":"339563","title":"ビジネス書著者による「逆算手帳」デイリー・ウィークリー活用セミナー in 東京桜新町","url":"http://peatix.com/event/339563","shortener_url":null,"started_at":"2018-01-28T00:00:00.000+09:00","ended_at":"2018-01-30T08:59:59.000+09:00","limit_number":null,"address":"東京都世田谷区用賀2-11-10けやきアパートメント201","place":"木村税務会計事務所","lat":35.6296,"lon":139.639,"state":"active","id":null},{"event_id":"339886","title":"ミニワークショップ「シリアの刺繍でくるみボタンづくり」1・28","url":"http://peatix.com/event/339886","shortener_url":null,"started_at":"2018-01-28T20:00:00.000+09:00","ended_at":"2018-01-31T08:59:59.000+09:00","limit_number":null,"address":"愛知県名古屋市中村区平池町4丁目60-7","place":"JICA中部　なごや地球ひろば","lat":0.0,"lon":0.0,"state":"active","id":null},{"event_id":"332626","title":"「まちを知る」からまちづくりへ【第4回 横浜アクションフォーラム】","url":"http://action-forum-oppama.peatix.com","shortener_url":null,"started_at":"2018-01-20T04:00:00.000+09:00","ended_at":"2018-01-22T08:59:59.000+09:00","limit_number":null,"address":"神奈川県横浜市中区山下町９４番地","place":"中華街パーキング会議室","lat":35.4443,"lon":139.646,"state":"active","id":null},{"event_id":"340765","title":"Crackhouse Double Feature! DWAYNE PERKINS (USA) \u0026 NIK COPPIN (UK)","url":"http://crackhousenikdwayne.peatix.com","shortener_url":null,"started_at":"2018-01-20T07:00:00.000+09:00","ended_at":"2018-01-22T08:59:59.000+09:00","limit_number":null,"address":"24A (1st Floor) Lorong Rahim Kajai 14, Taman Tun Dr. Ismail, 60000 Kuala Lumpur","place":"The Crackhouse Comedy Club KL","lat":3.15478,"lon":101.623,"state":"active","id":null},{"event_id":"329923","title":"World's Oldest Female Stand-Up Comedian | Comedy Masala ft. LYNN RUTH MILLER (USA)","url":"http://lynnruthmiller.peatix.com","shortener_url":null,"started_at":"2018-01-24T06:00:00.000+09:00","ended_at":"2018-01-26T08:59:59.000+09:00","limit_number":null,"address":"69 Circular Road, Boat Quay, Singapore 049423","place":"HERO'S, 69 Circular Road, Singapore 049423","lat":1.28641,"lon":103.849,"state":"active","id":null},{"event_id":"324905","title":"1/24(水) スパニッシュナイト@西新宿 / Spanish Night in Nishi-Shinjuku","url":"http://peatix.com/event/324905","shortener_url":null,"started_at":"2018-01-25T04:00:00.000+09:00","ended_at":"2018-01-27T08:59:59.000+09:00","limit_number":null,"address":"東京都新宿区西新宿8-19-11","place":"KASHIWAGI CAFE","lat":35.692,"lon":139.686,"state":"active","id":null},{"event_id":"324901","title":"1/17(水) フレンチナイト@新宿 / French Night in Shinjuku","url":"http://peatix.com/event/324901","shortener_url":null,"started_at":"2018-01-18T04:00:00.000+09:00","ended_at":"2018-01-20T08:59:59.000+09:00","limit_number":null,"address":"東京都新宿区西新宿8-19-11 ","place":"KASHIWAGI CAFE ","lat":35.6956,"lon":139.691,"state":"active","id":null},{"event_id":"332932","title":"プランニングセミナーin神戸 ","url":"http://peatix.com/event/332932","shortener_url":null,"started_at":"2018-01-19T21:30:00.000+09:00","ended_at":"2018-01-22T08:59:59.000+09:00","limit_number":null,"address":"兵庫県神戸市中央区三宮町1-9-1三宮センタープラザ東館6階","place":"スペースアルファ三宮","lat":34.6917,"lon":135.192,"state":"active","id":null},{"event_id":"331607","title":"1/27～28財田町移住促進ツアー（定員：5名）","url":"http://peatix.com/event/331607","shortener_url":null,"started_at":"2018-01-27T20:00:00.000+09:00","ended_at":"2018-01-30T08:59:59.000+09:00","limit_number":null,"address":"香川県三豊市財田町","place":"香川県三豊市財田町","lat":34.1201,"lon":133.779,"state":"active","id":null},{"event_id":"330180","title":"【3days】超初心者のためのWebサイト制作～html,css,レスポンシブ～","url":"http://peatix.com/event/330180","shortener_url":null,"started_at":"2018-01-15T22:00:00.000+09:00","ended_at":"2018-01-18T08:59:59.000+09:00","limit_number":null,"address":"東京都渋谷区恵比寿西1-7-7EBSビル7F","place":"株式会社フェローズ　東京本社　7Fセミナー室","lat":35.6476,"lon":139.709,"state":"active","id":null},{"event_id":"341428","title":"まずはアロマでリラックス 逆算手帳ビジョン作成ワークショップin神戸","url":"http://peatix.com/event/341428","shortener_url":null,"started_at":"2018-01-20T00:30:00.000+09:00","ended_at":"2018-01-22T08:59:59.000+09:00","limit_number":null,"address":"兵庫県神戸市中央区三宮町1-9-1三宮センタープラザ東館6階","place":"スペースアルファ三宮","lat":34.6917,"lon":135.192,"state":"active","id":null},{"event_id":"333604","title":"【限定6名】英語でのスピーチを２ヶ月で徹底的に学ぶ！英語でロジカルに話せる自分になろう『Logical Speaking』〜自己紹介から本格プレゼンまで〜","url":"http://peatix.com/event/333604","shortener_url":null,"started_at":"2018-01-18T04:00:00.000+09:00","ended_at":"2018-01-20T08:59:59.000+09:00","limit_number":null,"address":"東京都港区元麻布3-1-35 地下2階","place":"六本木 The P@rk","lat":35.658,"lon":139.728,"state":"active","id":null},{"event_id":"333743","title":"レセプションパーティーで楽しく国際交流♪エリートたちの英語学習方の違いはこれ！1日たった20分で身に着くLINE動画型英会話","url":"http://peatix.com/event/333743","shortener_url":null,"started_at":"2018-01-27T05:00:00.000+09:00","ended_at":"2018-01-29T08:59:59.000+09:00","limit_number":null,"address":"東京都千代田区神田錦町3-21","place":"ちよだプラットフォームスクウェア402号室","lat":35.6915,"lon":139.762,"state":"active","id":null},{"event_id":"337297","title":"『元祖アニコンin名古屋 Vol.32』2018年1月28日(日) 14:00-16:30","url":"http://peatix.com/event/337297","shortener_url":null,"started_at":"2018-01-28T23:00:00.000+09:00","ended_at":"2018-01-31T08:59:59.000+09:00","limit_number":null,"address":"愛知県名古屋市中村区名駅３丁目１８−９ ミズノビル","place":"凛花 ‐rinka‐","lat":35.1727,"lon":136.887,"state":"active","id":null},{"event_id":"337304","title":"25歳から35歳限定「第86回 アラサーコンin金沢」2018年1月27日(土) 19:30-22:00","url":"http://peatix.com/event/337304","shortener_url":null,"started_at":"2018-01-28T04:30:00.000+09:00","ended_at":"2018-01-30T08:59:59.000+09:00","limit_number":null,"address":"石川県金沢市香林坊１‐１‐１　香林坊大和8F ","place":"ザ・ダイニング　","lat":36.563,"lon":136.654,"state":"active","id":null},{"event_id":"324765","title":"DISCO Pub  Crawl! (SAT) ディスコ・パーティー（土）","url":"http://peatix.com/event/324765","shortener_url":null,"started_at":"2018-01-21T04:00:00.000+09:00","ended_at":"2018-01-23T08:59:59.000+09:00","limit_number":null,"address":"大阪市中央区東心斎橋2-5-27","place":"The Blarney Stone (B1F)","lat":34.6718,"lon":135.504,"state":"active","id":null},{"event_id":"324766","title":"AUSTRALIA DAY Pub Crawl! (SAT) オーストラリア・デイ パーティー（土）","url":"http://peatix.com/event/324766","shortener_url":null,"started_at":"2018-01-28T04:00:00.000+09:00","ended_at":"2018-01-30T08:59:59.000+09:00","limit_number":null,"address":"大阪市中央区東心斎橋2-5-27","place":"The Blarney Stone (B1F)","lat":34.6718,"lon":135.504,"state":"active","id":null},{"event_id":"332602","title":"#04 UML Tokyo","url":"http://04uml.peatix.com","shortener_url":null,"started_at":"2018-01-21T02:00:00.000+09:00","ended_at":"2018-01-23T08:59:59.000+09:00","limit_number":null,"address":"東京都千代田区神田駿河台4-6","place":"デジタルハリウッド大学大学院／御茶ノ水ソラシティ アカデミア 3F","lat":35.6986,"lon":139.767,"state":"active","id":null},{"event_id":"340357","title":"なぜ、みんなで本を読むとあなたの悩みが解決するのか？ソーシャル・リーディング120％活用ブックパーティー＠渋谷","url":"http://peatix.com/event/340357","shortener_url":null,"started_at":"2018-01-28T19:00:00.000+09:00","ended_at":"2018-01-31T08:59:59.000+09:00","limit_number":null,"address":"日本、〒150-0002 東京都渋谷区渋谷２丁目９−８ 日 総 第 25 ビル","place":"スターバックスコーヒー 渋谷2丁目店","lat":0.0,"lon":0.0,"state":"active","id":null},{"event_id":"337739","title":"知らなきゃソン！西郷どん！〜『南洲翁遺訓』〜【大人の教養大学】#6","url":"http://peatix.com/event/337739","shortener_url":null,"started_at":"2018-01-28T22:20:00.000+09:00","ended_at":"2018-01-31T08:59:59.000+09:00","limit_number":null,"address":"東京都新宿区北新宿3-20-2　","place":"北新宿生涯学習館　学習室A","lat":35.703,"lon":139.689,"state":"active","id":null},{"event_id":"337291","title":"23歳から37歳限定『ちょっと大人のアニコンin金沢』2018年1月28日(日) 14:00-16:30","url":"http://peatix.com/event/337291","shortener_url":null,"started_at":"2018-01-28T23:00:00.000+09:00","ended_at":"2018-01-31T08:59:59.000+09:00","limit_number":null,"address":"金沢東急向かい「香林坊大和」8F　※金沢駅東口バスプール7・8・9番乗り場からバス「香林坊」下車","place":"「ブッフェレストラン ザ・ダイニング　香林坊大和店」","lat":36.5624,"lon":136.653,"state":"active","id":null},{"event_id":"341615","title":"【秘めフォト部関西 1/19(金)】自分史上最高にSEXYな1枚を撮る「秘めフォト部」！新しく「SEXY」な自分を見つけて明日に自信を持つための女性限定フォトサービス！《女性限定／10名様限定／初めての方大歓迎》","url":"http://peatix.com/event/341615","shortener_url":null,"started_at":"2018-01-20T04:30:00.000+09:00","ended_at":"2018-01-22T08:59:59.000+09:00","limit_number":null,"address":"京都府京都市東山区博多町112−5","place":"京都天狼院","lat":35.0017,"lon":135.773,"state":"active","id":null},{"event_id":"329961","title":"A Novel Idea","url":"http://a-novel-idea.peatix.com","shortener_url":null,"started_at":"2018-01-20T05:30:00.000+09:00","ended_at":"2018-01-22T08:59:59.000+09:00","limit_number":null,"address":"1 Old Parliament Lane, Singapore 179429","place":"The Arts House, Play Den","lat":1.28868,"lon":103.851,"state":"active","id":null},{"event_id":"335773","title":"Fieldtrip to Kamakura","url":"http://peatix.com/event/335773","shortener_url":null,"started_at":"2018-01-29T22:00:00.000+09:00","ended_at":"2018-02-01T08:59:59.000+09:00","limit_number":null,"address":"12-32, Onarimachi, Kamakura-shi, Kanagawa, 248-0012 Japan","place":"Dandelion Chocolate Kamakura Store","lat":35.3195,"lon":139.55,"state":"active","id":null},{"event_id":"324383","title":"AUSTRALIA DAY Pub Crawl! (SAT) オーストラリア・デイ パーティー（土）","url":"http://peatix.com/event/324383","shortener_url":null,"started_at":"2018-01-28T04:00:00.000+09:00","ended_at":"2018-01-30T08:59:59.000+09:00","limit_number":null,"address":"東京都港区六本木3-14-9 ユア六本木2F","place":"Bar Propaganda (2F)","lat":35.6623,"lon":139.735,"state":"active","id":null},{"event_id":"324380","title":"Pep Rally Pub Crawl! (FRI) ペップラリー・パーティー（金）","url":"http://peatix.com/event/324380","shortener_url":null,"started_at":"2018-01-20T04:00:00.000+09:00","ended_at":"2018-01-22T08:59:59.000+09:00","limit_number":null,"address":"東京都港区六本木3-14-9 ユア六本木2F","place":"Bar Propaganda (2F)","lat":35.6623,"lon":139.735,"state":"active","id":null},{"event_id":"324381","title":"Pep Rally Pub Crawl! (SAT) ペップラリー・パーティー（土）LAST CLUB:ALIFE","url":"http://peatix.com/event/324381","shortener_url":null,"started_at":"2018-01-21T04:00:00.000+09:00","ended_at":"2018-01-23T08:59:59.000+09:00","limit_number":null,"address":"東京都港区六本木3-14-9 ユア六本木2F","place":"Bar Propaganda (2F)","lat":35.6623,"lon":139.735,"state":"active","id":null},{"event_id":"338904","title":"Semester Welcome Party: An All-White Affair","url":"http://welcomeparty2018.peatix.com","shortener_url":null,"started_at":"2018-01-19T08:00:00.000+09:00","ended_at":"2018-01-21T08:59:59.000+09:00","limit_number":null,"address":"3C River Valley Road, The Cannery, 179022","place":"Zouk","lat":1.29102,"lon":103.846,"state":"active","id":null},{"event_id":"334572","title":"【参加無料】企業変革実行セミナー　働き方改革を一時的な取り組みにしない方法とは（3回シリーズ）","url":"http://peatix.com/event/334572","shortener_url":null,"started_at":"2018-01-25T04:00:00.000+09:00","ended_at":"2018-01-27T08:59:59.000+09:00","limit_number":null,"address":"東京都中央区 八重洲1丁目3−7 八重洲ファーストフィナンシャルビル 2F・3F","place":"ベルサール八重洲　3F　ルーム5（JR東京駅、地下鉄日本橋駅）","lat":35.6829,"lon":139.772,"state":"active","id":null},{"event_id":"336049","title":"#2〜Google認定フォトグラファーによるパノラマ写真制作講座〜 認定フォトグラファーの取得で、全国的な代理店展開を広げよう！","url":"http://peatix.com/event/336049","shortener_url":null,"started_at":"2018-01-27T03:00:00.000+09:00","ended_at":"2018-01-29T08:59:59.000+09:00","limit_number":null,"address":"\t東京都中央区八重洲1-7-7 第2山本ビル4F","place":"東京駅＜ローズ会議室＞","lat":35.6809,"lon":139.771,"state":"active","id":null},{"event_id":"324382","title":"AUSTRALIA DAY Pub Crawl! (FRI) オーストラリア・デイ パーティー（金）","url":"http://peatix.com/event/324382","shortener_url":null,"started_at":"2018-01-27T04:00:00.000+09:00","ended_at":"2018-01-29T08:59:59.000+09:00","limit_number":null,"address":"東京都港区六本木3-14-9 ユア六本木2F","place":"Bar Propaganda (2F)","lat":35.6623,"lon":139.735,"state":"active","id":null},{"event_id":"330959","title":"第6回富山ブロックチェーン研究会講演会 [Meetup]","url":"http://peatix.com/event/330959","shortener_url":null,"started_at":"2018-01-27T01:00:00.000+09:00","ended_at":"2018-01-29T08:59:59.000+09:00","limit_number":null,"address":"富山県富山市牛島新町5番5号","place":"タワー111　21階会議室","lat":36.7033,"lon":137.216,"state":"active","id":null},{"event_id":"337286","title":"男女30歳以上限定「恋STORYコンin青森」2018年1月27日(土) 19:00-21:30","url":"http://peatix.com/event/337286","shortener_url":null,"started_at":"2018-01-28T04:00:00.000+09:00","ended_at":"2018-01-30T08:59:59.000+09:00","limit_number":null,"address":"青森県青森市新町１丁目１−１８ ","place":"山内農場 青森駅前店","lat":40.8282,"lon":140.736,"state":"active","id":null},{"event_id":"322749","title":"1月26日(金)19:00～★ 六本木 オーストラリアンバーでGaitomo国際交流パーティー","url":"http://peatix.com/event/322749","shortener_url":null,"started_at":"2018-01-27T04:00:00.000+09:00","ended_at":"2018-01-29T08:59:59.000+09:00","limit_number":null,"address":"東京都港区六本木5-3-1 レーヌ第2ビル3F ","place":"六本木 Bar Quest ","lat":35.6621,"lon":139.733,"state":"active","id":null},{"event_id":"335829","title":"25歳から35歳限定「アラサーコンin鶴岡」2018年1月27日(土) 19:30-22:00","url":"http://peatix.com/event/335829","shortener_url":null,"started_at":"2018-01-28T04:30:00.000+09:00","ended_at":"2018-01-30T08:59:59.000+09:00","limit_number":null,"address":"山形県鶴岡市末広町２-４１　YS鶴岡駅前ビル １Ｆ ","place":"千年の宴　鶴岡駅前店","lat":38.7397,"lon":139.838,"state":"active","id":null},{"event_id":"335778","title":"「20代限定コンin山形」2018年1月27日(土) 19:00-21:30","url":"http://peatix.com/event/335778","shortener_url":null,"started_at":"2018-01-28T04:00:00.000+09:00","ended_at":"2018-01-30T08:59:59.000+09:00","limit_number":null,"address":"山形県山形市香澄町１－１５－２８ホテルニュー最上屋　","place":"魚民 山形駅前店","lat":38.2497,"lon":140.329,"state":"active","id":null},{"event_id":"337060","title":"「社会人男子コンin青森」2018年1月28日(日) 14:00-16:30","url":"http://peatix.com/event/337060","shortener_url":null,"started_at":"2018-01-28T23:00:00.000+09:00","ended_at":"2018-01-31T08:59:59.000+09:00","limit_number":null,"address":"青森県青森市新町１－１－１８　青森マルサビル　１Ｆ","place":"魚民　青森駅前店","lat":40.8281,"lon":140.736,"state":"active","id":null},{"event_id":"336954","title":"30歳から45歳「大人の新年会コンin福島」2018年1月20日(土) 19:00-21:30","url":"http://peatix.com/event/336954","shortener_url":null,"started_at":"2018-01-21T04:00:00.000+09:00","ended_at":"2018-01-23T08:59:59.000+09:00","limit_number":null,"address":"福島市栄町11-30 ゼビオビルB1","place":"笑笑 福島東口駅前店","lat":37.754,"lon":140.463,"state":"active","id":null},{"event_id":"335677","title":"「男女30歳以上限定 恋STORYコンinいわき」2018年1月21日(日) 14:30-17:00","url":"http://peatix.com/event/335677","shortener_url":null,"started_at":"2018-01-21T23:30:00.000+09:00","ended_at":"2018-01-24T08:59:59.000+09:00","limit_number":null,"address":"福島県いわき市平字白銀町6－1","place":"居酒屋 「三代目」鳥メロ いわき駅前店","lat":37.0574,"lon":140.894,"state":"active","id":null},{"event_id":"335723","title":"「安定男子コンin山形」2018年1月21日(日) 14:00-16:30","url":"http://peatix.com/event/335723","shortener_url":null,"started_at":"2018-01-21T23:00:00.000+09:00","ended_at":"2018-01-24T08:59:59.000+09:00","limit_number":null,"address":"山形県山形市香澄町１－１５－２８　ホテルニュー最上屋　","place":"魚民　山形駅前店","lat":38.2497,"lon":140.329,"state":"active","id":null},{"event_id":"327286","title":"1月28日(日)18:00～★ 六本木【独身限定】駅近セレブラウンジでGaitomo国際交流パーティー","url":"http://peatix.com/event/327286","shortener_url":null,"started_at":"2018-01-29T03:00:00.000+09:00","ended_at":"2018-01-31T08:59:59.000+09:00","limit_number":null,"address":"東京都港区六本木4-10-10 正直屋ビルB1 ","place":"六本木 balance(バランス) ","lat":35.6638,"lon":139.732,"state":"active","id":null},{"event_id":"333391","title":"男女30歳以上限定「恋STORYパーティーinつくば」2018年1月27日(土) 19:30-22:00","url":"http://peatix.com/event/333391","shortener_url":null,"started_at":"2018-01-28T04:30:00.000+09:00","ended_at":"2018-01-30T08:59:59.000+09:00","limit_number":null,"address":"茨城県つくば市吾妻１-5-3　ＭＯＧ2階","place":"笑笑　つくばクレオスクエアＭＯＧ店 ","lat":36.0817,"lon":140.111,"state":"active","id":null},{"event_id":"333396","title":"男女35歳から45歳「社会人サークルin水戸」2018年1月28日(日) 15:00-17:30","url":"http://peatix.com/event/333396","shortener_url":null,"started_at":"2018-01-29T00:00:00.000+09:00","ended_at":"2018-01-31T08:59:59.000+09:00","limit_number":null,"address":"茨城県水戸市宮町１-7-31　エクセルみなみ6F","place":"イタリアンバイキング「パパゲーノ水戸」","lat":36.3701,"lon":140.477,"state":"active","id":null},{"event_id":"337064","title":"男女20代限定「20代限定コンin弘前」2018年1月28日(日) 14:00-16:30","url":"http://peatix.com/event/337064","shortener_url":null,"started_at":"2018-01-28T23:00:00.000+09:00","ended_at":"2018-01-31T08:59:59.000+09:00","limit_number":null,"address":"弘前市大字駅前町7-5 おおまち共同パーク 1F","place":"笑笑 弘前駅前店","lat":40.5981,"lon":140.482,"state":"active","id":null},{"event_id":"326409","title":"1月18日(木)19:00～★ 中目黒 焼き立てピッツァをお仕事帰りに平日Gaitomo国際交流パーティー","url":"http://peatix.com/event/326409","shortener_url":null,"started_at":"2018-01-19T04:00:00.000+09:00","ended_at":"2018-01-21T08:59:59.000+09:00","limit_number":null,"address":"東京都目黒区青葉台1-27-12 ","place":"ピッツァ フォルノ カフェ 中目黒店","lat":35.6478,"lon":139.694,"state":"active","id":null},{"event_id":"337189","title":"「30代限定コンin太田」2018年1月28日(日) 14:00-16:30","url":"http://peatix.com/event/337189","shortener_url":null,"started_at":"2018-01-28T23:00:00.000+09:00","ended_at":"2018-01-31T08:59:59.000+09:00","limit_number":null,"address":" 群馬県太田市飯田町1389-2 武藤ビル2F","place":"白木屋　太田南口駅前店","lat":36.2932,"lon":139.379,"state":"active","id":null},{"event_id":"335690","title":"25歳から35歳限定「アラサーコンin小山」2018年1月20日(土) 19:30-22:00","url":"http://peatix.com/event/335690","shortener_url":null,"started_at":"2018-01-21T04:30:00.000+09:00","ended_at":"2018-01-23T08:59:59.000+09:00","limit_number":null,"address":"小山市駅東通り1-4-7 柿木ビル2F","place":"笑笑 小山東口駅前店","lat":36.3108,"lon":139.807,"state":"active","id":null},{"event_id":"335664","title":"「男女30歳以上限定 恋STORYコンin郡山」2018年1月20日(土) 19:30-22:00","url":"http://peatix.com/event/335664","shortener_url":null,"started_at":"2018-01-21T04:30:00.000+09:00","ended_at":"2018-01-23T08:59:59.000+09:00","limit_number":null,"address":"郡山市中町10-10 メルフ郡山ビルB1","place":"魚民 郡山中町店","lat":37.3979,"lon":140.384,"state":"active","id":null},{"event_id":"335669","title":"「安定男子コンin郡山」2018年1月21日(日) 14:00-16:30","url":"http://peatix.com/event/335669","shortener_url":null,"started_at":"2018-01-21T23:00:00.000+09:00","ended_at":"2018-01-24T08:59:59.000+09:00","limit_number":null,"address":"福島県郡山市駅前２丁目３−７　","place":"わらわら　郡山駅前店 ","lat":37.3984,"lon":140.387,"state":"active","id":null},{"event_id":"333393","title":"「おとなの年の差パーティーin水戸」2018年1月27日(土) 19:00-21:30","url":"http://peatix.com/event/333393","shortener_url":null,"started_at":"2018-01-28T04:00:00.000+09:00","ended_at":"2018-01-30T08:59:59.000+09:00","limit_number":null,"address":"茨城県水戸市宮町１-7-31　エクセルみなみ6F","place":"イタリアンバイキング「パパゲーノ水戸」","lat":36.3701,"lon":140.477,"state":"active","id":null},{"event_id":"337174","title":"「公務員or国家資格男子コンin宇都宮」2018年1月27日 (土) 19:00-21:30","url":"http://peatix.com/event/337174","shortener_url":null,"started_at":"2018-01-28T04:00:00.000+09:00","ended_at":"2018-01-30T08:59:59.000+09:00","limit_number":null,"address":"栃木県宇都宮市駅前通り１丁目５−２","place":"白木屋 ＪＲ宇都宮西口駅前店　","lat":36.5597,"lon":139.897,"state":"active","id":null},{"event_id":"335813","title":"「安定男子コンin鶴岡」2018年1月20日(土) 19:30-22:00","url":"http://peatix.com/event/335813","shortener_url":null,"started_at":"2018-01-21T04:30:00.000+09:00","ended_at":"2018-01-23T08:59:59.000+09:00","limit_number":null,"address":"山形県鶴岡市末広町２-４１　YS鶴岡駅前ビル １Ｆ ","place":"千年の宴　鶴岡駅前店","lat":38.7397,"lon":139.838,"state":"active","id":null},{"event_id":"337256","title":"「安定男子コンin茅ヶ崎」2018年1月21日(日) 14:00-16:30","url":"http://peatix.com/event/337256","shortener_url":null,"started_at":"2018-01-21T23:00:00.000+09:00","ended_at":"2018-01-24T08:59:59.000+09:00","limit_number":null,"address":"神奈川県茅ヶ崎市新栄町1-2 川上ビル4階","place":"山内農場　茅ヶ崎北口駅前店","lat":35.3304,"lon":139.405,"state":"active","id":null},{"event_id":"326956","title":"1月21日(日)18:00～★ 麻布十番 シャンデリアの下でノンスモーカーだけのGaitomo国際交流パーティー","url":"http://peatix.com/event/326956","shortener_url":null,"started_at":"2018-01-22T03:00:00.000+09:00","ended_at":"2018-01-24T08:59:59.000+09:00","limit_number":null,"address":"東京都港区麻布十番1-9-2 ユニマット麻布十番ビル7F ","place":"麻布十番 SPUTNIK LOUNGE","lat":35.6564,"lon":139.735,"state":"active","id":null},{"event_id":"326420","title":"1月20日(土)19:00～★ 広尾 食文化で世界を繋ぐ小さな大使館レストランでGaitomo国際交流パーティー","url":"http://peatix.com/event/326420","shortener_url":null,"started_at":"2018-01-21T04:00:00.000+09:00","ended_at":"2018-01-23T08:59:59.000+09:00","limit_number":null,"address":"東京都港区南麻布4-2-42 クオリア南麻布1F ","place":"広尾 天現寺大使館","lat":35.6481,"lon":139.723,"state":"active","id":null},{"event_id":"335781","title":"25歳から35歳限定「アラサーコンin山形」2018年1月28日(日) 14:00-16:30","url":"http://peatix.com/event/335781","shortener_url":null,"started_at":"2018-01-28T23:00:00.000+09:00","ended_at":"2018-01-31T08:59:59.000+09:00","limit_number":null,"address":"山形県山形市香澄町１－１５－２８　ホテルニュー最上屋　","place":"魚民　山形駅前店 ","lat":38.2497,"lon":140.329,"state":"active","id":null},{"event_id":"332959","title":"男女30歳以上限定「恋STORYパーティーin水戸」2018年1月20日(土) 19:00-21:30","url":"http://peatix.com/event/332959","shortener_url":null,"started_at":"2018-01-21T04:00:00.000+09:00","ended_at":"2018-01-23T08:59:59.000+09:00","limit_number":null,"address":"茨城県水戸市宮町１-7-31　エクセルみなみ6F","place":"イタリアンバイキング「パパゲーノ水戸」","lat":36.3701,"lon":140.477,"state":"active","id":null},{"event_id":"336901","title":"「第32回 公務員or国家資格男子コンin郡山」2018年1月28日 (日) 14:00-16:30","url":"http://peatix.com/event/336901","shortener_url":null,"started_at":"2018-01-28T23:00:00.000+09:00","ended_at":"2018-01-31T08:59:59.000+09:00","limit_number":null,"address":"福島県郡山市駅前２-3-7 エリート３０ビル5F","place":"わらわら 郡山駅前店 ","lat":37.3984,"lon":140.387,"state":"active","id":null},{"event_id":"336920","title":"「公務員or国家資格男子コンinいわき」2018年1月28日 (日) 14:30-17:00","url":"http://peatix.com/event/336920","shortener_url":null,"started_at":"2018-01-28T23:30:00.000+09:00","ended_at":"2018-01-31T08:59:59.000+09:00","limit_number":null,"address":"福島県いわき市平字白銀町6－1","place":"「三代目」鳥メロ ","lat":37.0571,"lon":140.893,"state":"active","id":null},{"event_id":"337036","title":"25歳から35歳限定「アラサーコンin福島」2018年1月27日(土) 19:00-21:30","url":"http://peatix.com/event/337036","shortener_url":null,"started_at":"2018-01-28T04:00:00.000+09:00","ended_at":"2018-01-30T08:59:59.000+09:00","limit_number":null,"address":"福島市栄町11-30ゼビオビルB1","place":"笑笑 福島東口駅前","lat":37.754,"lon":140.463,"state":"active","id":null},{"event_id":"337221","title":"25歳から35歳限定「アラサーコンin高崎」2018年1月27日(土) 19:30-22:00","url":"http://peatix.com/event/337221","shortener_url":null,"started_at":"2018-01-28T04:30:00.000+09:00","ended_at":"2018-01-30T08:59:59.000+09:00","limit_number":null,"address":"群馬県高崎市 鶴見町3-1西口サウスパークビル 1階","place":"千年の宴高崎西口店　","lat":36.3208,"lon":139.012,"state":"active","id":null},{"event_id":"337067","title":"「社会人男子コンin福島」2018年1月28日(日) 14:00-16:30","url":"http://peatix.com/event/337067","shortener_url":null,"started_at":"2018-01-28T23:00:00.000+09:00","ended_at":"2018-01-31T08:59:59.000+09:00","limit_number":null,"address":"福島市栄町6-1エスタビルB1","place":"福福屋  福島駅東口店","lat":37.7542,"lon":140.461,"state":"active","id":null},{"event_id":"337182","title":"「30代限定コンin小山」2018年1月28日(日) 15:00-17:30","url":"http://peatix.com/event/337182","shortener_url":null,"started_at":"2018-01-29T00:00:00.000+09:00","ended_at":"2018-01-31T08:59:59.000+09:00","limit_number":null,"address":"小山市駅東通り1-4-7 柿木ビル2F","place":"笑笑　小山東口駅前店","lat":36.3108,"lon":139.807,"state":"active","id":null},{"event_id":"337409","title":"25歳から35歳「アラサー新年会コンin盛岡」2018年1月20日(土) 19:00-21:30","url":"http://peatix.com/event/337409","shortener_url":null,"started_at":"2018-01-21T04:00:00.000+09:00","ended_at":"2018-01-23T08:59:59.000+09:00","limit_number":null,"address":"盛岡市菜園2-4-23","place":"琥haku （コハク）","lat":39.7019,"lon":141.147,"state":"active","id":null},{"event_id":"336968","title":"23歳から37歳限定『ちょっと大人のアニコンin福島』2018年1月21日(日) 14:00-16:30","url":"http://peatix.com/event/336968","shortener_url":null,"started_at":"2018-01-21T23:00:00.000+09:00","ended_at":"2018-01-24T08:59:59.000+09:00","limit_number":null,"address":"福島市栄町7-25 斉藤胃腸科ビル2F","place":"魚民 福島東口駅前店","lat":37.7544,"lon":140.462,"state":"active","id":null},{"event_id":"337240","title":"25歳から40歳「ちょっと大人の新年会コンin金沢」2018年1月21日(日) 14:00-16:30","url":"http://peatix.com/event/337240","shortener_url":null,"started_at":"2018-01-21T23:00:00.000+09:00","ended_at":"2018-01-24T08:59:59.000+09:00","limit_number":null,"address":"石川県金沢市片町１-7-23　金劇パシオンＢ1Ｆ","place":"「魚民 片町店」","lat":36.5591,"lon":136.652,"state":"active","id":null},{"event_id":"336932","title":"23歳から37歳「ちょっと大人のアニコンin青森」2018年1月21日(日) 14:00-16:30","url":"http://peatix.com/event/336932","shortener_url":null,"started_at":"2018-01-21T23:00:00.000+09:00","ended_at":"2018-01-24T08:59:59.000+09:00","limit_number":null,"address":"青森県青森市新町１－１－１８　青森マルサビル　１Ｆ","place":"魚民　青森駅前","lat":40.8281,"lon":140.736,"state":"active","id":null},{"event_id":"335840","title":"男女30歳以上限定「恋STORYコンin酒田」2018年1月28日(日) 14:00-16:30","url":"http://peatix.com/event/335840","shortener_url":null,"started_at":"2018-01-28T23:00:00.000+09:00","ended_at":"2018-01-31T08:59:59.000+09:00","limit_number":null,"address":"山形県酒田市幸町 2−1−12 ホテル・アルファーワン酒田 1階 ","place":"魚民 酒田駅前店 ","lat":38.9227,"lon":139.845,"state":"active","id":null},{"event_id":"332962","title":"男女35歳から45歳「社会人サークルinつくば」2018年1月21日(日) 14:00-16:30","url":"http://peatix.com/event/332962","shortener_url":null,"started_at":"2018-01-21T23:00:00.000+09:00","ended_at":"2018-01-24T08:59:59.000+09:00","limit_number":null,"address":"茨城県つくば市吾妻１丁目６−1　","place":"月の宴 つくばクレオスクエアＭＯＧ店","lat":36.0818,"lon":140.111,"state":"active","id":null},{"event_id":"335721","title":"男女30歳以上限定「恋STORYコンin山形」2018年1月20日(土) 19:00-21:30","url":"http://peatix.com/event/335721","shortener_url":null,"started_at":"2018-01-21T04:00:00.000+09:00","ended_at":"2018-01-23T08:59:59.000+09:00","limit_number":null,"address":"山形県山形市香澄町１－１５－２８　ホテルニュー最上屋　","place":"魚民　山形駅前店","lat":38.2497,"lon":140.329,"state":"active","id":null},{"event_id":"329584","title":"1月19日(金)19:00～★ 表参道 駅近螺旋階段が素敵な上質な空間でGaitomo国際交流パーティー","url":"http://peatix.com/event/329584","shortener_url":null,"started_at":"2018-01-20T04:00:00.000+09:00","ended_at":"2018-01-22T08:59:59.000+09:00","limit_number":null,"address":"東京都港区南青山5-10-1 B1 ","place":"エラグ青山 ","lat":35.6628,"lon":139.711,"state":"active","id":null},{"event_id":"326960","title":"1月24日(水)19:00～★ 恵比寿 仕事帰りにロマンチックカフェで平日Gaitomo国際交流パーティー","url":"http://peatix.com/event/326960","shortener_url":null,"started_at":"2018-01-25T04:00:00.000+09:00","ended_at":"2018-01-27T08:59:59.000+09:00","limit_number":null,"address":"東京都渋谷区恵比寿1-18-14 恵比寿ファーストスクエア1F ","place":"恵比寿 dot. Eatery and Bar","lat":35.6475,"lon":139.715,"state":"active","id":null},{"event_id":"327191","title":"1月27日(土)19:00～★ 神谷町 外国人オーナーのアイリッシュパブでGaitomo国際交流パーティー","url":"http://peatix.com/event/327191","shortener_url":null,"started_at":"2018-01-28T04:00:00.000+09:00","ended_at":"2018-01-30T08:59:59.000+09:00","limit_number":null,"address":"東京都港区虎ノ門3-18-21 久永ビル2F ","place":"神谷町 Mulligans(モーリガンズ) ","lat":35.6636,"lon":139.746,"state":"active","id":null},{"event_id":"336894","title":"25歳から35歳限定「アラサーコンin郡山」2018年1月27日(土) 19:30-22:00","url":"http://peatix.com/event/336894","shortener_url":null,"started_at":"2018-01-28T04:30:00.000+09:00","ended_at":"2018-01-30T08:59:59.000+09:00","limit_number":null,"address":"郡山市中町10-10 メルフ郡山ビルB1","place":"魚民 郡山中町店","lat":37.3979,"lon":140.384,"state":"active","id":null},{"event_id":"337070","title":"男女20代限定「安定男子コンin盛岡」2018年1月28日(日) 14:00-16:30","url":"http://peatix.com/event/337070","shortener_url":null,"started_at":"2018-01-28T23:00:00.000+09:00","ended_at":"2018-01-31T08:59:59.000+09:00","limit_number":null,"address":"盛岡市菜園2-4-23 バーセル菜園 5F","place":"琥haku （コハク）","lat":39.7019,"lon":141.147,"state":"active","id":null},{"event_id":"337328","title":"「安定男子限定PARTY in小田原」2018年1月28日(日) 14:00-16:30","url":"http://peatix.com/event/337328","shortener_url":null,"started_at":"2018-01-28T23:00:00.000+09:00","ended_at":"2018-01-31T08:59:59.000+09:00","limit_number":null,"address":"小田原市栄町1-2-1 小田原駅前ビル3F","place":"魚民 小田原東口駅前店","lat":35.2552,"lon":139.157,"state":"active","id":null},{"event_id":"335702","title":"「おとなの年の差コンin高崎」2018年1月20日(土) 19:30-22:00","url":"http://peatix.com/event/335702","shortener_url":null,"started_at":"2018-01-21T04:30:00.000+09:00","ended_at":"2018-01-23T08:59:59.000+09:00","limit_number":null,"address":"高崎駅","place":"魚民　高崎西口駅前店","lat":36.3221,"lon":139.013,"state":"active","id":null},{"event_id":"337227","title":"「安定男子コンin金沢」2018年1月20日(土) 19:30-22:00","url":"http://peatix.com/event/337227","shortener_url":null,"started_at":"2018-01-21T04:30:00.000+09:00","ended_at":"2018-01-23T08:59:59.000+09:00","limit_number":null,"address":"石川県金沢市片町１-7-23　金劇パシオンＢ1Ｆ ","place":"魚民片町店","lat":36.5592,"lon":136.652,"state":"active","id":null},{"event_id":"335827","title":"「20代限定コンin酒田」2018年1月21日(日) 14:00-16:30","url":"http://peatix.com/event/335827","shortener_url":null,"started_at":"2018-01-21T23:00:00.000+09:00","ended_at":"2018-01-24T08:59:59.000+09:00","limit_number":null,"address":"酒田駅","place":"魚民 酒田駅前店","lat":38.9227,"lon":139.845,"state":"active","id":null},{"event_id":"336940","title":"23歳から37歳「ちょっと大人のアニコンin盛岡」2018年1月21日(日) 14:00-16:30","url":"http://peatix.com/event/336940","shortener_url":null,"started_at":"2018-01-21T23:00:00.000+09:00","ended_at":"2018-01-24T08:59:59.000+09:00","limit_number":null,"address":"盛岡市菜園2-4-23 バーセル菜園 5F","place":"琥haku （コハク）","lat":39.7019,"lon":141.147,"state":"active","id":null},{"event_id":"337272","title":"「安定男子コンin甲府」2018年1月21日(日) 14:00-16:30","url":"http://peatix.com/event/337272","shortener_url":null,"started_at":"2018-01-21T23:00:00.000+09:00","ended_at":"2018-01-24T08:59:59.000+09:00","limit_number":null,"address":"山梨県甲府市中央1-6-6 丸忠ビル2F　","place":"魚民　甲府岡島百貨店前店　","lat":35.6607,"lon":138.57,"state":"active","id":null},{"event_id":"335982","title":"ZafuPJ認定≪禅ボディマインドマネジメント基礎講座≫第1回　仰向け、就寝編","url":"http://peatix.com/event/335982","shortener_url":null,"started_at":"2018-01-25T04:30:00.000+09:00","ended_at":"2018-01-27T08:59:59.000+09:00","limit_number":null,"address":"東京都文京区根津1-14-3　根津交流館","place":"根津交流館","lat":35.7183,"lon":139.763,"state":"active","id":null},{"event_id":"331782","title":"【edoARTworkshop】和のこころを結ぶ 水引アート体験 ～ピンブローチを作ろう～","url":"http://edoart0124.peatix.com","shortener_url":null,"started_at":"2018-01-24T19:15:00.000+09:00","ended_at":"2018-01-27T08:59:59.000+09:00","limit_number":null,"address":"東京都台東区西浅草2-6-2","place":"かっぱ橋道具街 はし藤 ２F","lat":35.7127,"lon":139.789,"state":"active","id":null},{"event_id":"329787","title":"1月31日（水）「専門家と行く」展示会の歩き方　～ギフトショー春2018 LIFE×DESIGNを歩く～","url":"http://peatix.com/event/329787","shortener_url":null,"started_at":"2018-01-31T22:00:00.000+09:00","ended_at":"2018-02-03T08:59:59.000+09:00","limit_number":null,"address":"東京都江東区有明3-11-1","place":"東京ビッグサイト","lat":35.63,"lon":139.794,"state":"active","id":null},{"event_id":"325881","title":"女性起業家のためのビジネスプラン発表会 『LED関西』","url":"http://peatix.com/event/325881","shortener_url":null,"started_at":"2018-01-24T23:00:00.000+09:00","ended_at":"2018-01-27T08:59:59.000+09:00","limit_number":null,"address":"〒530-0011 大阪府大阪市北区大深町３−１ 大阪市北区大深町3-1 グランフロント大阪 北館 B2F","place":"グランフロント大阪 ナレッジキャピタルコングレコンベンションセンター","lat":34.7059,"lon":135.494,"state":"active","id":null},{"event_id":"335347","title":"「初婚限定男女☆婚活パーティー山形」2年以内の結婚が理想男女　2018年1月27日(土) 14:00-15:30  ","url":"http://peatix.com/event/335347","shortener_url":null,"started_at":"2018-01-27T23:00:00.000+09:00","ended_at":"2018-01-30T08:59:59.000+09:00","limit_number":null,"address":"山形市香澄町2ー9ー45","place":"山形市民会館(１階)","lat":38.2487,"lon":140.333,"state":"active","id":null},{"event_id":"335346","title":"30歳～39歳まで「同世代☆婚活パーティー山形」2018年1月20日(土) 14:00-15:30 ","url":"http://peatix.com/event/335346","shortener_url":null,"started_at":"2018-01-20T23:00:00.000+09:00","ended_at":"2018-01-23T08:59:59.000+09:00","limit_number":null,"address":"山形県山形市香澄町2ー9ー45","place":"山形市民会館(１階)","lat":38.2487,"lon":140.333,"state":"active","id":null},{"event_id":"76944","title":"Webの未来を語ろう 2018 VR編","url":"https://html5x.connpass.com/event/76944/","shortener_url":null,"started_at":"2018-01-26T04:30:00.000+09:00","ended_at":"2018-01-26T06:00:00.000+09:00","limit_number":25,"address":"東京都港区芝浦３丁目４−１","place":"NTTコミュニケーションズ株式会社 (401/402会議室)","lat":35.6437,"lon":139.745,"state":"active","id":null},{"event_id":"77142","title":"スクラム道関西 第99回定例会(オープン・ジャム)","url":"https://scrumdo-kansai.connpass.com/event/77142/","shortener_url":"https://goo.gl/kBmuP6","started_at":"2018-01-24T19:00:00.000+09:00","ended_at":"2018-01-24T21:00:00.000+09:00","limit_number":20,"address":"大阪市淀川区西中島5丁目14-10 (新大阪トヨタビル4階)","place":"株式会社リアズ","lat":34.7312,"lon":135.499,"state":"active","id":null},{"event_id":"94165","title":"第295回 よちよちAndroid オフライン開発ミーティング in 大崎","url":"https://atnd.org/events/94165","shortener_url":null,"started_at":"2018-01-21T10:00:00.000+09:00","ended_at":"2018-01-21T12:00:00.000+09:00","limit_number":null,"address":"東京都品川区大崎1-11-1","place":"ゲートシティ大崎B1アトリウムフリー座席","lat":35.6194,"lon":139.731,"state":"closed","id":null},{"event_id":"94137","title":"第47回よちよちAndroid名古屋支部オフライン開発ミーティング","url":"https://atnd.org/events/94137","shortener_url":null,"started_at":"2018-01-21T09:00:00.000+09:00","ended_at":"2018-01-21T12:00:00.000+09:00","limit_number":null,"address":"名古屋市中区栄三丁目18番1号 ナディアパーク デザインセンタービル6階","place":"名古屋市市民活動推進センター","lat":35.1654,"lon":136.905,"state":"closed","id":null},{"event_id":"342951","title":"二次募集【WEB講座】OD Network Japan : 2017年次大会 ","url":"http://peatix.com/event/342951","shortener_url":null,"started_at":"2018-01-25T09:00:00.000+09:00","ended_at":"2018-01-28T08:59:59.000+09:00","limit_number":null,"address":"兵庫県神戸市中央区三宮町1-9-1　三宮センタープラザー東館6階","place":"WEB講座（スペースアルファ三宮にて収録）","lat":34.6917,"lon":135.192,"state":"active","id":null},{"event_id":"343045","title":"「社会人男子コンin山形」2018年1月21日(日) 14:00-16:30","url":"http://peatix.com/event/343045","shortener_url":null,"started_at":"2018-01-21T23:00:00.000+09:00","ended_at":"2018-01-24T08:59:59.000+09:00","limit_number":null,"address":"山形県山形市香澄町１－１５－２８　ホテルニュー最上屋 　","place":"魚民　山形駅前店 ","lat":38.2497,"lon":140.329,"state":"active","id":null},{"event_id":"343454","title":"覚醒映画『くう』DVD上映会 \u0026 シェア会 with クリスタルボウル","url":"http://peatix.com/event/343454","shortener_url":null,"started_at":"2018-01-28T03:30:00.000+09:00","ended_at":"2018-01-30T08:59:59.000+09:00","limit_number":null,"address":"日本、〒206-0011 東京都多摩市関戸４丁目７２","place":"多摩市役所 関戸公民館","lat":0.0,"lon":0.0,"state":"active","id":null},{"event_id":"342180","title":"THE AI 2018〜今のAIを語る大規模カンファレンス@六本木アカデミーヒルズ","url":"http://peatix.com/event/342180","shortener_url":null,"started_at":"2018-01-31T19:00:00.000+09:00","ended_at":"2018-02-03T08:59:59.000+09:00","limit_number":null,"address":"東京都港区六本木6丁目10","place":"六本木アカデミーヒルズ 49F","lat":35.6604,"lon":139.729,"state":"active","id":null},{"event_id":"77428","title":"Sota講習会 【Vstone Magicを始めよう】 Part 3（有料）","url":"https://sota.connpass.com/event/77428/","shortener_url":"https://goo.gl/Aj6RA6","started_at":"2018-01-27T23:30:00.000+09:00","ended_at":"2018-01-28T00:20:00.000+09:00","limit_number":4,"address":"東京都千代田区外神田1-9-9 内田ビル4F","place":"ヴイストン ロボットセンター秋葉原店","lat":35.6987,"lon":139.77,"state":"active","id":null},{"event_id":"77826","title":"PPUG HUB #3 - 2018年もよろしくお願いします！","url":"https://ppug.connpass.com/event/77826/","shortener_url":null,"started_at":"2018-01-31T04:00:00.000+09:00","ended_at":"2018-01-31T08:00:00.000+09:00","limit_number":25,"address":"東京都渋谷区宇田川町30-4 新岩崎ビル３Ｆ","place":"THE Aldgate","lat":35.6608,"lon":139.698,"state":"active","id":null},{"event_id":"75697","title":"第11回 Cogbot勉強会！ ～ 行こうぜ、Cogbot の向うへ2018","url":"https://cogbot.connpass.com/event/75697/","shortener_url":null,"started_at":"2018-01-24T04:00:00.000+09:00","ended_at":"2018-01-24T06:30:00.000+09:00","limit_number":110,"address":"東京都港区港南 2-16-3 (品川グランドセントラルタワー 31階)","place":"日本マイクロソフト株式会社","lat":35.6266,"lon":139.741,"state":"active","id":null},{"event_id":"94263","title":"第296回 よちよちAndroid オフライン開発ミーティング in 大崎","url":"https://atnd.org/events/94263","shortener_url":null,"started_at":"2018-01-28T10:00:00.000+09:00","ended_at":"2018-01-28T12:00:00.000+09:00","limit_number":null,"address":"東京都品川区大崎1-11-1","place":"ゲートシティ大崎B1アトリウムフリー座席","lat":35.6194,"lon":139.731,"state":"closed","id":null},{"event_id":"94262","title":"第48回よちよちAndroid名古屋支部オフライン開発ミーティング","url":"https://atnd.org/events/94262","shortener_url":null,"started_at":"2018-01-28T09:00:00.000+09:00","ended_at":"2018-01-28T12:00:00.000+09:00","limit_number":null,"address":"名古屋市中区栄三丁目18番1号 ナディアパーク デザインセンタービル6階","place":"名古屋市市民活動推進センター","lat":35.1654,"lon":136.905,"state":"closed","id":null},{"event_id":"345437","title":"【1/31 13:00~】IoTモノづくりベンチャー向けモノづくり研修 第5回SHARP IoT. make Bootcamp supported by さくらインターネット 説明会","url":"http://sharp01311300.peatix.com","shortener_url":null,"started_at":"2018-01-31T22:00:00.000+09:00","ended_at":"2018-02-03T08:59:59.000+09:00","limit_number":null,"address":"東京都千代田区神田練塀町 富士ソフトビル","place":"DMM.make AKIBA 12F @MR3","lat":35.7003,"lon":139.774,"state":"active","id":null},{"event_id":"344408","title":"「ジョブ理論（クレイトン M クリステンセン著）」読書会","url":"http://job-to-be-done180126.peatix.com","shortener_url":null,"started_at":"2018-01-27T03:00:00.000+09:00","ended_at":"2018-01-29T08:59:59.000+09:00","limit_number":null,"address":"東京都千代田区紀尾井町1−2 紀尾井タワー","place":"Yahoo! LODGE","lat":35.6795,"lon":139.737,"state":"active","id":null},{"event_id":"344386","title":"【1/27 東京】タイ好きがタイ料理食べながらタイ話で盛り上がる会","url":"http://peatix.com/event/344386","shortener_url":null,"started_at":"2018-01-27T22:00:00.000+09:00","ended_at":"2018-01-30T08:59:59.000+09:00","limit_number":null,"address":"東京都渋谷区代々木１丁目３６−６ 901","place":"TABIPPO代々木オフィス","lat":35.6837,"lon":139.701,"state":"active","id":null},{"event_id":"344372","title":"【お母さんのための22時のオンラインCafe】HSCってどういう子？才能を見つけるってどうやったらいい？","url":"http://peatix.com/event/344372","shortener_url":null,"started_at":"2018-01-30T07:00:00.000+09:00","ended_at":"2018-02-01T08:59:59.000+09:00","limit_number":null,"address":"オンライン","place":"オンライン（ご自宅で参加できます）","lat":0.0,"lon":0.0,"state":"active","id":null},{"event_id":"343758","title":"Live English Standup Comedy Show in Asakusa 英語コメディーショウ＠浅草 vol18","url":"http://peatix.com/event/343758","shortener_url":null,"started_at":"2018-01-28T05:00:00.000+09:00","ended_at":"2018-01-30T08:59:59.000+09:00","limit_number":null,"address":"東京都墨田区東駒形　2-20-10","place":"浅草スマイルバー","lat":0.0,"lon":0.0,"state":"active","id":null},{"event_id":"69432","title":"ブロックチェーンハッカソン","url":"https://team-ai.doorkeeper.jp/events/69432","shortener_url":"https://goo.gl/yL5ZhP","started_at":"2018-01-30T04:00:00.000+09:00","ended_at":"2018-01-30T06:00:00.000+09:00","limit_number":5,"address":"東京都渋谷区宇田川町37−7 アットパーク渋谷宇田川町駐車場","place":"Team AIベース（ニューシブヤマンション202）","lat":35.6618,"lon":139.696,"state":"active","id":null},{"event_id":"69535","title":"Global Game Jam Sapporo 2018 懇親会","url":"https://ggjsap.doorkeeper.jp/events/69535","shortener_url":"https://goo.gl/teB65G","started_at":"2018-01-29T06:00:00.000+09:00","ended_at":"2018-01-29T08:00:00.000+09:00","limit_number":40,"address":"北海道札幌市中央区南3条西2-1-5 ホテルリーネルすすきの 2F","place":"ディップ料理専門レストラン 札幌 すすきの Dip \u0026 Merry","lat":43.0547,"lon":141.356,"state":"active","id":null},{"event_id":"69667","title":"【未来技術推進協会】アイデアソン 『SDGs×未来技術』","url":"https://future-tech-association.doorkeeper.jp/events/69667","shortener_url":"https://goo.gl/TgnNPV","started_at":"2018-01-31T04:00:00.000+09:00","ended_at":"2018-01-31T07:00:00.000+09:00","limit_number":30,"address":"東京都品川区東五反田2丁目10-2 東五反田スクエア13階","place":"DEJIMA（デジマ）","lat":35.6248,"lon":139.727,"state":"active","id":null},{"event_id":"338211","title":"#28 教科書にない実践知が学べる！  昭和大総診流 研修医基礎講座（全3回）","url":"http://antaa28.peatix.com","shortener_url":null,"started_at":"2018-01-28T02:00:00.000+09:00","ended_at":"2018-01-30T08:59:59.000+09:00","limit_number":null,"address":"〒113-0033 東京都文京区本郷2丁目35番地17号503号室","place":"イシテラス","lat":35.7068,"lon":139.758,"state":"active","id":null}]