[{"event_id":"330884","title":"「第8回 臨床研究のてらこ屋～あなたの未来を変える臨床研究」","url":"http://terakoya2018.peatix.com","shortener_url":"https://goo.gl/E6ixr8","started_at":"2018-06-10T09:30:00.000+09:00","ended_at":"2018-06-12T23:59:59.000+09:00","limit_number":null,"address":"東京都中央区日本橋本町2-3-11日本橋ライフサイエンスビルディング","place":"日本橋ライフサイエンスビルディング","lat":35.6877,"lon":139.776,"state":"active","id":null},{"event_id":"356086","title":"【OTOMANA】特別な日を美しく魅せる 水引で作る髪飾り","url":"http://denmira0604.peatix.com","shortener_url":null,"started_at":"2018-06-04T18:00:00.000+09:00","ended_at":"2018-06-06T23:59:59.000+09:00","limit_number":null,"address":"〒160-0022 東京都新宿区新宿3丁目15−17","place":"新宿伊勢丹会館OTOMANA","lat":35.6925,"lon":139.704,"state":"active","id":null},{"event_id":"048bb5dc7347ea45385a1e26862a7d06","title":"SPAJAM2018 東京B予選","url":"https://spajam.jp/entry/tokyo-b/","shortener_url":"https://goo.gl/QCjpmA","started_at":"2018-06-02T09:30:00.000+09:00","ended_at":"2018-06-03T17:00:00.000+09:00","limit_number":60,"address":"〒150-6011 東京都渋谷区恵比寿4-20-3","place":"恵比寿ガーデンプレイスタワー11階 (株)コロプラ","lat":35.6423,"lon":139.713,"state":"active","id":null},{"event_id":"8c5e190b35dd9c1d089039206d7ebbe5","title":"SPAJAM2018 東京C予選","url":"https://spajam.jp/entry/tokyo-c/","shortener_url":"https://goo.gl/khSh8g","started_at":"2018-06-08T09:30:00.000+09:00","ended_at":"2018-06-09T17:00:00.000+09:00","limit_number":60,"address":"未定","place":"未定","lat":35.6977,"lon":139.787,"state":"active","id":null},{"event_id":"c2b8566aebf5a131ccfa90e60b6ead49","title":"SPAJAM2018 東京D予選","url":"https://spajam.jp/entry/tokyo-d/","shortener_url":"https://goo.gl/9FFV2U","started_at":"2018-06-16T09:30:00.000+09:00","ended_at":"2018-06-17T17:00:00.000+09:00","limit_number":60,"address":"〒104-8441 東京都中央区築地1-13-1","place":"銀座松竹スクエア 13F (株)ドワンゴ","lat":35.6682,"lon":139.77,"state":"active","id":null},{"event_id":"39459b628e552a2e6963638a45adf464","title":"SPAJAM2018 大阪予選","url":"https://spajam.jp/entry/osaka/","shortener_url":"https://goo.gl/8nDV8x","started_at":"2018-06-16T09:30:00.000+09:00","ended_at":"2018-06-17T17:00:00.000+09:00","limit_number":60,"address":"〒530-0014 大阪府大阪市北区鶴野町1番5号","place":"関西大学梅田キャンパス KANDAI MeRISE","lat":34.7063,"lon":135.501,"state":"active","id":null},{"event_id":"360552","title":"6/17(日)festivo SEO Camp@東京【9,000円】～SEOの全体像をつかむ！基礎概要から内部対策、キーワードやコンテンツの作り方など、実践スキルを学ぶ7時間！～","url":"http://peatix.com/event/360552","shortener_url":"https://goo.gl/b9JR9g","started_at":"2018-06-17T10:30:00.000+09:00","ended_at":"2018-06-19T23:59:59.000+09:00","limit_number":null,"address":"東京都新宿区高田馬場1-28-10 三慶ビル4F","place":"CASE Shinjuku（ケイスシンジュク）","lat":35.7122,"lon":139.705,"state":"active","id":null},{"event_id":"364551","title":"3h-workshop for start-ups: Introduction to Product Development","url":"http://peatix.com/event/364551","shortener_url":null,"started_at":"2018-06-08T10:00:00.000+09:00","ended_at":"2018-06-10T23:59:59.000+09:00","limit_number":null,"address":"Singapore","place":"Singapore","lat":1.35538,"lon":103.868,"state":"active","id":null},{"event_id":"365572","title":"（福岡）6/9(土)~10(日)festivo ホームページ作成（WordPress） Camp【学生15,000円、一般20,000円】～戦うスキルを身につける15時間！WordPress集中合宿！～","url":"http://peatix.com/event/365572","shortener_url":"https://goo.gl/ennv2F","started_at":"2018-06-09T10:30:00.000+09:00","ended_at":"2018-06-11T23:59:59.000+09:00","limit_number":null,"address":"福岡県福岡市博多区博多駅東1-12-17 オフィスニューガイア博多駅前3F","place":"スタートアップカフェ Bases福岡・博多店（ベイシズ）","lat":33.591,"lon":130.423,"state":"active","id":null},{"event_id":"363397","title":"CHINATOWN CROSSINGS","url":"http://chinatowncrossings.peatix.com","shortener_url":null,"started_at":"2018-06-22T20:30:00.000+09:00","ended_at":"2018-06-24T23:59:59.000+09:00","limit_number":null,"address":"48 Pagoda St, Singapore 059207","place":"Chinatown, Singapore","lat":1.28351,"lon":103.844,"state":"active","id":null},{"event_id":"362492","title":"第4回コミュニティカレッジ・バックステージ（CCB）2018","url":"http://ccb2018.peatix.com","shortener_url":null,"started_at":"2018-06-02T10:00:00.000+09:00","ended_at":"2018-06-04T23:59:59.000+09:00","limit_number":null,"address":"塩尻市大門一番町12−2","place":"市民交流センターえんぱーく","lat":36.1121,"lon":137.953,"state":"active","id":null},{"event_id":"368371","title":"IN東京 【沖縄子ども食堂チャリティイベント6/30】","url":"http://okimani098events6.peatix.com","shortener_url":null,"started_at":"2018-06-30T20:00:00.000+09:00","ended_at":"2018-07-02T23:59:59.000+09:00","limit_number":null,"address":"東京都江東区扇橋2-12-5","place":"沖縄居酒屋「ちゃ〜がんじゅ〜」","lat":35.6838,"lon":139.816,"state":"active","id":null},{"event_id":"345624","title":"梅田宏明 + Somatic Field Project『1–resonance』U-25割引チケット","url":"http://peatix.com/event/345624","shortener_url":null,"started_at":"2018-06-30T15:00:00.000+09:00","ended_at":"2018-07-02T23:59:59.000+09:00","limit_number":null,"address":"東京都豊島区東池袋4-5-2 ライズアリーナビル 2F","place":"あうるすぽっと（豊島区立舞台芸術交流センター）","lat":35.7272,"lon":139.719,"state":"active","id":null},{"event_id":"72771","title":"Startup Weekend Nagoya 未来 @ KPMG名古屋事務所","url":"https://swnagoya.doorkeeper.jp/events/72771","shortener_url":"https://goo.gl/oDyxJ1","started_at":"2018-06-15T18:00:00.000+09:00","ended_at":"2018-06-17T21:00:00.000+09:00","limit_number":120,"address":"愛知県名古屋市中村区名駅3丁目28−12","place":"KPMGあずさ監査法人 名古屋事務所（大名古屋ビルヂング）","lat":35.1721,"lon":136.885,"state":"active","id":null},{"event_id":"366498","title":"[Show #1] - Comedy Masala @ Hero's ft. MIKE VECCHIONE (USA) | seen on NBC, JAY LENO, Tonight Show starring JIMMY FALLON, Gotham Comedy Live \u0026 CONAN","url":"http://mikevecchioneheros.peatix.com","shortener_url":null,"started_at":"2018-06-12T21:00:00.000+09:00","ended_at":"2018-06-14T23:59:59.000+09:00","limit_number":null,"address":"69 Circular Road, Boat Quay, Singapore 049423","place":"HERO'S, 69 Circular Road, Singapore 049423","lat":1.28641,"lon":103.849,"state":"active","id":null},{"event_id":"366461","title":"[Show #2] - Comedy Masala @ Kilo Lounge ft. MIKE VECCHIONE (USA) | as seen on NBC, JAY LENO, Comedy Central, CONAN \u0026 'Last Comic Standing'","url":"http://mikevecchione.peatix.com","shortener_url":null,"started_at":"2018-06-13T21:30:00.000+09:00","ended_at":"2018-06-15T23:59:59.000+09:00","limit_number":null,"address":"21 Tanjong Pagar Road, #01-02/04, S088444","place":"Kilo Lounge","lat":1.27947,"lon":103.844,"state":"active","id":null},{"event_id":"371308","title":"「コミュニティ経済と地域通貨・仮想通貨 、そして未来のお金」クラス","url":"http://peatix.com/event/371308","shortener_url":null,"started_at":"2018-06-02T17:00:00.000+09:00","ended_at":"2018-06-04T23:59:59.000+09:00","limit_number":null,"address":"東京都渋谷区神宮前2-19-5","place":"greenz harajuku","lat":35.6733,"lon":139.71,"state":"active","id":null},{"event_id":"368871","title":"Comedy Masala ft. TOMMY DASSALO (AUS) | as seen on ABC,  'Just for Laughs Montreal', The Comedy Channel Australia \u0026 Melbourne International Comedy Festival","url":"http://tommyd.peatix.com","shortener_url":null,"started_at":"2018-06-05T21:00:00.000+09:00","ended_at":"2018-06-07T23:59:59.000+09:00","limit_number":null,"address":"69 Circular Road, Boat Quay, Singapore 049423","place":"HERO'S, 69 Circular Road, Singapore 049423","lat":1.28641,"lon":103.849,"state":"active","id":null},{"event_id":"84264","title":"アジャイル開発チュートリアル付き！ 『アジャイルチームキャンプ』説明会＠九州工業大学","url":"https://aiit-enpit.connpass.com/event/84264/","shortener_url":null,"started_at":"2018-06-02T02:00:00.000+09:00","ended_at":"2018-06-02T08:00:00.000+09:00","limit_number":null,"address":"北九州市戸畑区仙水町1番1号","place":"九州工業大学工学部 戸畑キャンパス インタラクティブ学習棟 MILAiS","lat":33.8941,"lon":130.839,"state":"active","id":null},{"event_id":"371529","title":"6/7(Thu) Backpackers Night in Roppongi / FREE Entry for Non-Japanese","url":"http://peatix.com/event/371529","shortener_url":null,"started_at":"2018-06-07T19:00:00.000+09:00","ended_at":"2018-06-09T23:59:59.000+09:00","limit_number":null,"address":"東京都港区六本木3−16−33","place":"Hobgoblin Roppongi","lat":35.6623,"lon":139.737,"state":"active","id":null},{"event_id":"373005","title":"【Incubate School 第2期】 Vol.4 VC資金調達のためのピッチブック入門＜Sansan,cybozu,Gamewith等の創業期から支援するVCによる連続講座シリーズ＞","url":"http://incubateschool2-4.peatix.com","shortener_url":null,"started_at":"2018-06-05T19:00:00.000+09:00","ended_at":"2018-06-07T23:59:59.000+09:00","limit_number":null,"address":"〒107-0061 東京都港区北青山2丁目9−5","place":"Mistletoe","lat":35.6721,"lon":139.717,"state":"active","id":null},{"event_id":"367492","title":"CIVIC TECH FORUM 2018  - 集え、全国のシビックテックプレイヤー!","url":"http://ctf2018.peatix.com","shortener_url":null,"started_at":"2018-06-02T10:30:00.000+09:00","ended_at":"2018-06-04T23:59:59.000+09:00","limit_number":null,"address":"東京都港区六本木 6-10-1","place":"Google Japan (六本木オフィス)","lat":35.6604,"lon":139.729,"state":"active","id":null},{"event_id":"73269","title":"6/17(日)festivo SEO Camp@東京【9,000円】～SEOの全体像をつかむ！基礎概要から内部対策、キーワードやコンテンツの作り方など、実践スキルを学ぶ7時間！～","url":"https://festivo.doorkeeper.jp/events/73269","shortener_url":"https://goo.gl/p3Tr71","started_at":"2018-06-17T10:30:00.000+09:00","ended_at":"2018-06-17T18:30:00.000+09:00","limit_number":12,"address":"東京都新宿区高田馬場1-28-10 三慶ビル4F","place":"CASE Shinjuku（ケイスシンジュク）","lat":35.7121,"lon":139.705,"state":"active","id":null},{"event_id":"373831","title":"朝活〈寄り道ミニセミナー〉イデコに加入したら知っておきたいこと （飲み物付）","url":"http://tsumitate-plaza-yaesu0615m.peatix.com","shortener_url":null,"started_at":"2018-06-15T07:30:00.000+09:00","ended_at":"2018-06-17T23:59:59.000+09:00","limit_number":null,"address":"東京都中央区八重洲2-1","place":"つみたてプラザやえす(八重洲地下街北１号)","lat":35.6799,"lon":139.77,"state":"active","id":null},{"event_id":"373905","title":"昼活〈寄り道ミニセミナー〉イデコに加入したら知っておきたいこと （飲み物付）","url":"http://tsumitate-plaza-yaesu0615l.peatix.com","shortener_url":null,"started_at":"2018-06-15T12:15:00.000+09:00","ended_at":"2018-06-17T23:59:59.000+09:00","limit_number":null,"address":"東京都中央区八重洲2-1","place":"つみたてプラザやえす(八重洲地下街北１号)","lat":35.6799,"lon":139.77,"state":"active","id":null},{"event_id":"373948","title":"朝活〈寄り道ミニセミナー〉イデコに加入したら知っておきたいこと （飲み物付）","url":"http://tsumitate-plaza-yaesu0621m.peatix.com","shortener_url":null,"started_at":"2018-06-21T07:30:00.000+09:00","ended_at":"2018-06-23T23:59:59.000+09:00","limit_number":null,"address":"東京都中央区八重洲2-1","place":"つみたてプラザやえす(八重洲地下街北１号)","lat":35.6799,"lon":139.77,"state":"active","id":null},{"event_id":"373974","title":"夜活〈寄り道ミニセミナー〉イデコに加入したら知っておきたいこと （飲み物付）","url":"http://tsumitate-plaza-yaesu0521d.peatix.com","shortener_url":null,"started_at":"2018-06-21T20:00:00.000+09:00","ended_at":"2018-06-23T23:59:59.000+09:00","limit_number":null,"address":"東京都中央区八重洲2-1","place":"つみたてプラザやえす(八重洲地下街北１号)","lat":35.6799,"lon":139.77,"state":"active","id":null},{"event_id":"373972","title":"昼活〈寄り道ミニセミナー〉イデコに加入したら知っておきたいこと （飲み物付）","url":"http://tsumitate-plaza-yaesu0621l.peatix.com","shortener_url":null,"started_at":"2018-06-21T12:15:00.000+09:00","ended_at":"2018-06-23T23:59:59.000+09:00","limit_number":null,"address":"東京都中央区八重洲2-1","place":"つみたてプラザやえす(八重洲地下街北１号)","lat":35.6799,"lon":139.77,"state":"active","id":null},{"event_id":"373942","title":"夜活〈寄り道ミニセミナー〉イデコに加入したら知っておきたいこと （飲み物付）","url":"http://tsumitate-plaza-yaesu0615d.peatix.com","shortener_url":null,"started_at":"2018-06-15T20:00:00.000+09:00","ended_at":"2018-06-17T23:59:59.000+09:00","limit_number":null,"address":"東京都中央区八重洲2-1","place":"つみたてプラザやえす(八重洲地下街北１号)","lat":35.6799,"lon":139.77,"state":"active","id":null},{"event_id":"370781","title":"会社説明会という名のゲームクリエイターセミナーIN福岡2018","url":"http://peatix.com/event/370781","shortener_url":null,"started_at":"2018-06-02T12:00:00.000+09:00","ended_at":"2018-06-04T23:59:59.000+09:00","limit_number":null,"address":"福岡県福岡市中央区天神1丁目4番地2号","place":"エルガーラホール 大ホール","lat":33.5888,"lon":130.402,"state":"active","id":null},{"event_id":"374223","title":"Atomy Success Academy JUNE 23 - Early Bird Registration","url":"http://sa2018-06.peatix.com","shortener_url":null,"started_at":"2018-06-23T10:00:00.000+09:00","ended_at":"2018-06-25T23:59:59.000+09:00","limit_number":null,"address":"5 Coleman St, Singapore 179805","place":"Peninsula Excelsior Hotel, Singapore","lat":1.29202,"lon":103.85,"state":"active","id":null},{"event_id":"371950","title":"6月19日(火)19:30～◆ 表参道 平日飲み放題+10品フルコースビュッフェのGaitomo国際交流パーティー","url":"http://peatix.com/event/371950","shortener_url":null,"started_at":"2018-06-19T19:30:00.000+09:00","ended_at":"2018-06-21T23:59:59.000+09:00","limit_number":null,"address":"東京都渋谷区神宮前5-46-15","place":"シャルール表参道","lat":35.6641,"lon":139.708,"state":"active","id":null},{"event_id":"375109","title":"6月10日(日)18:00～★ 青山【シングル限定】優雅なセレブラウンジでGaitomo国際交流パーティー","url":"http://peatix.com/event/375109","shortener_url":null,"started_at":"2018-06-10T18:00:00.000+09:00","ended_at":"2018-06-12T23:59:59.000+09:00","limit_number":null,"address":"東京都港区北青山3-2-5","place":"青山 Aoyama Lounge","lat":35.6689,"lon":139.715,"state":"active","id":null},{"event_id":"374055","title":"6月16日(土)19:00～★ 西麻布 シックでお洒落なNYスタイルのバーでGaitomo国際交流パーティー","url":"http://peatix.com/event/374055","shortener_url":null,"started_at":"2018-06-16T19:00:00.000+09:00","ended_at":"2018-06-18T23:59:59.000+09:00","limit_number":null,"address":"西麻布1丁目4番10号, ダイユウビル西麻布 1階, 港区","place":"B612 Nishiazabu","lat":35.6621,"lon":139.726,"state":"active","id":null},{"event_id":"375019","title":"6月24日(日)18:00～★ 六本木【独身限定】駅近セレブラウンジでGaitomo国際交流パーティー","url":"http://peatix.com/event/375019","shortener_url":null,"started_at":"2018-06-24T18:00:00.000+09:00","ended_at":"2018-06-26T23:59:59.000+09:00","limit_number":null,"address":"東京都港区六本木4-10-10 正直屋ビルB1","place":"六本木 balance(バランス) ","lat":35.6639,"lon":139.732,"state":"active","id":null},{"event_id":"375064","title":"6月3日(日)18:00～★ 六本木【恋人探しOnly】不動の人気企画Gaitomo国際交流パーティー","url":"http://peatix.com/event/375064","shortener_url":null,"started_at":"2018-06-03T18:00:00.000+09:00","ended_at":"2018-06-05T23:59:59.000+09:00","limit_number":null,"address":"東京都港区六本木3-9-8 ホテル ザ・ビー六本木 1F","place":"六本木カフェ","lat":35.6636,"lon":139.734,"state":"active","id":null},{"event_id":"375097","title":"6月8日(金)19:00～★ 六本木 オーストラリアンバーでGaitomo国際交流パーティー","url":"http://peatix.com/event/375097","shortener_url":null,"started_at":"2018-06-08T19:00:00.000+09:00","ended_at":"2018-06-10T23:59:59.000+09:00","limit_number":null,"address":"港区六本木5丁目5−3−1 3F 第2レーヌビル","place":"Bar Quest","lat":35.6621,"lon":139.733,"state":"active","id":null},{"event_id":"375092","title":"6月7日(木)19:00～★ 新宿御苑 本場ナポリピッツァが食べれる平日Gaitomo国際交流パーティー","url":"http://peatix.com/event/375092","shortener_url":null,"started_at":"2018-06-07T19:00:00.000+09:00","ended_at":"2018-06-09T23:59:59.000+09:00","limit_number":null,"address":"新宿区新宿2丁目8−1","place":"ピッツァナポレターノカフェ 新宿御苑前店","lat":35.689,"lon":139.71,"state":"active","id":null},{"event_id":"375151","title":"6月15日(金)19:00～★ 代官山 婚活恋活OnlyのGaitomo国際交流パーティー","url":"http://peatix.com/event/375151","shortener_url":null,"started_at":"2018-06-15T19:00:00.000+09:00","ended_at":"2018-06-17T23:59:59.000+09:00","limit_number":null,"address":"渋谷区恵比寿西1丁目34−17 B1F Za HOUSE ビル","place":"ユナイス 代官山","lat":35.6468,"lon":139.702,"state":"active","id":null},{"event_id":"375101","title":"6月9日(土)19:00～★ 渋谷 本格的ネパール料理屋でカレーとナンも美味しいGaitomo国際交流パーティー","url":"http://peatix.com/event/375101","shortener_url":null,"started_at":"2018-06-09T19:00:00.000+09:00","ended_at":"2018-06-11T23:59:59.000+09:00","limit_number":null,"address":"渋谷区 猿楽町2−12","place":"Asian Spice King 渋谷・代官山","lat":35.6533,"lon":139.705,"state":"active","id":null},{"event_id":"375051","title":"6月29日(金)19:00～★ 恵比寿 新しい出会いの場立ち飲みバーでGaitomo国際交流パーティー","url":"http://peatix.com/event/375051","shortener_url":null,"started_at":"2018-06-29T19:00:00.000+09:00","ended_at":"2018-07-01T23:59:59.000+09:00","limit_number":null,"address":"東京都渋谷区恵比寿1-7-9","place":"恵比寿 私を恵比寿に連れてってEbisu330BAR ","lat":35.648,"lon":139.711,"state":"active","id":null},{"event_id":"375145","title":"6月2日(土)19:00～★ 六本木 メキシコ料理レストランでGaitomo国際交流パーティー","url":"http://peatix.com/event/375145","shortener_url":null,"started_at":"2018-06-02T19:00:00.000+09:00","ended_at":"2018-06-04T23:59:59.000+09:00","limit_number":null,"address":"港区六本木 5-5-1 ロアビルB1F","place":"THE OAK RESTAURANT at the pink cow","lat":35.6619,"lon":139.735,"state":"active","id":null},{"event_id":"374269","title":"Flow Camp (Kids Surf Camp) // 22 JUNE 2018","url":"http://flowcampjune2018.peatix.com","shortener_url":null,"started_at":"2018-06-22T10:30:00.000+09:00","ended_at":"2018-06-24T23:59:59.000+09:00","limit_number":null,"address":"36 Siloso Beach Walk, Sentosa, Singapore 099007","place":"Wave House Sentosa","lat":1.25448,"lon":103.814,"state":"active","id":null},{"event_id":"73363","title":"【満席】Startup Weekend Okayama #2@サムライスクエア","url":"https://swokayama.doorkeeper.jp/events/73363","shortener_url":null,"started_at":"2018-06-22T18:00:00.000+09:00","ended_at":"2018-06-24T21:00:00.000+09:00","limit_number":45,"address":"〒700-0023 岡山県岡山市北区駅前町1-8-1 岡山新光ビル5F","place":"サムライスクエア","lat":34.6659,"lon":133.921,"state":"active","id":null},{"event_id":"369611","title":"《申し込み6/15 17:00〆切》AngelHack Osaka 2018","url":"http://angelhackosaka2018.peatix.com","shortener_url":"https://goo.gl/mt989R","started_at":"2018-06-16T09:00:00.000+09:00","ended_at":"2018-06-18T23:59:59.000+09:00","limit_number":null,"address":"北区大深町3番1号, グランフロント大阪 ナレッジキャピタルタワーC 7階, Osaka","place":"大阪イノベーションハブ","lat":34.7059,"lon":135.495,"state":"active","id":null},{"event_id":"374877","title":"PLAY DATE! with da ka:po Late Starters Orchestra","url":"http://playdate.peatix.com","shortener_url":null,"started_at":"2018-06-23T14:30:00.000+09:00","ended_at":"2018-06-25T23:59:59.000+09:00","limit_number":null,"address":"Singapore 279621","place":"170 Ghim Moh Road, Ulu Pandan Community Building, #02-01","lat":1.31205,"lon":103.789,"state":"active","id":null},{"event_id":"376410","title":"Microsoft Power BI 実践ハンズオン 入門編（2018年6月）","url":"http://powerbi201806.peatix.com","shortener_url":null,"started_at":"2018-06-14T14:00:00.000+09:00","ended_at":"2018-06-16T23:59:59.000+09:00","limit_number":null,"address":"東京都中央区銀座3丁目9 銀座3-9-4 銀座草野ビルディング 4F","place":"マイスペース 銀座マロニエ通り店","lat":35.6718,"lon":139.768,"state":"active","id":null},{"event_id":"73584","title":"第6回Startup Weekend つくば","url":"https://swtsukuba.doorkeeper.jp/events/73584","shortener_url":null,"started_at":"2018-06-08T18:30:00.000+09:00","ended_at":"2018-06-10T21:00:00.000+09:00","limit_number":55,"address":"茨城県つくば市天王台1-1-1 3A棟304号室","place":"筑波大学 3A棟304号室","lat":36.1089,"lon":140.1,"state":"active","id":null},{"event_id":"83012","title":"Chainer x Azure ML Hackathon CV編","url":"https://dllab.connpass.com/event/83012/","shortener_url":"https://goo.gl/e33Xtj","started_at":"2018-06-02T01:00:00.000+09:00","ended_at":"2018-06-02T08:00:00.000+09:00","limit_number":40,"address":"東京都港区港南 2-16-3","place":"日本マイクロソフト株式会社","lat":35.6266,"lon":139.741,"state":"active","id":null},{"event_id":"376912","title":"6/30(土)~1(日) festivo ウェブデザイン Camp@東京 【学生15,000円、一般20,000円】～2講師体制で戦うスキルを身につける15時間！HTML/CSS/WEBサイトコーディング/Photoshop集中合宿！～","url":"http://peatix.com/event/376912","shortener_url":"https://goo.gl/8vbPxc","started_at":"2018-06-30T10:30:00.000+09:00","ended_at":"2018-07-02T23:59:59.000+09:00","limit_number":null,"address":"東京都練馬区豊玉北3-15-17","place":"起業家シェアハウス x-garden セミナールーム","lat":35.7329,"lon":139.661,"state":"active","id":null},{"event_id":"377758","title":"FUSE 35 - ゲーム開発イベント（Game Jam / ハッカソン）","url":"http://fuse35.peatix.com","shortener_url":"https://goo.gl/q6bKQg","started_at":"2018-06-02T09:00:00.000+09:00","ended_at":"2018-06-04T23:59:59.000+09:00","limit_number":null,"address":"福島県郡山市方八町2-4-15","place":"WiZ 国際情報工科自動車大学校","lat":37.3943,"lon":140.391,"state":"active","id":null},{"event_id":"373845","title":"6/13(Wed) German Night in Roppongi  /  German Native Speakers","url":"http://peatix.com/event/373845","shortener_url":null,"started_at":"2018-06-13T19:00:00.000+09:00","ended_at":"2018-06-15T23:59:59.000+09:00","limit_number":null,"address":"東京都港区六本木3−16−33","place":"Hobgoblin Roppongi","lat":35.6623,"lon":139.737,"state":"active","id":null},{"event_id":"373843","title":"6/10(Sun) 20s Social Meetup in Shibuya / FREE Entry for Non-Japanese","url":"http://peatix.com/event/373843","shortener_url":null,"started_at":"2018-06-10T14:00:00.000+09:00","ended_at":"2018-06-12T23:59:59.000+09:00","limit_number":null,"address":"1-3-11 Dogenzaka Shibuya-ku Tokyo","place":"Hobgoblin Shibuya","lat":35.6583,"lon":139.7,"state":"active","id":null},{"event_id":"373836","title":"6/6(Wed) English Only Night  in NishiShinjuku / FREE Entry for Non-Japanese","url":"http://peatix.com/event/373836","shortener_url":null,"started_at":"2018-06-06T19:00:00.000+09:00","ended_at":"2018-06-08T23:59:59.000+09:00","limit_number":null,"address":"東京都新宿区西新宿8-19-11","place":"KASHIWAGI CAFE ","lat":35.6956,"lon":139.691,"state":"active","id":null},{"event_id":"373850","title":"6/15(Fri) Nihongo Night at Modern Bar in Roppongi","url":"http://peatix.com/event/373850","shortener_url":null,"started_at":"2018-06-15T19:00:00.000+09:00","ended_at":"2018-06-17T23:59:59.000+09:00","limit_number":null,"address":"東京都港区六本木7-13-8","place":"GLAMOUR Tokyo Bar","lat":35.6639,"lon":139.73,"state":"active","id":null},{"event_id":"373828","title":"6/1(Fri) Nihongo Night in Nishi-Shinjuku / FREE Entrance for Non-Japanese","url":"http://peatix.com/event/373828","shortener_url":null,"started_at":"2018-06-01T19:00:00.000+09:00","ended_at":"2018-06-03T23:59:59.000+09:00","limit_number":null,"address":"東京都新宿区西新宿8-19-11","place":"KASHIWAGI CAFE  ","lat":35.6956,"lon":139.691,"state":"active","id":null},{"event_id":"377248","title":"6/27(Wed) Shinjuku Around 30s Night","url":"http://peatix.com/event/377248","shortener_url":null,"started_at":"2018-06-27T19:00:00.000+09:00","ended_at":"2018-06-29T23:59:59.000+09:00","limit_number":null,"address":"東京都新宿区西新宿8-19-11","place":"KASHIWAGI CAFE","lat":35.692,"lon":139.686,"state":"active","id":null},{"event_id":"373830","title":"6/2(Sat) Kamiyacho Drink Meetup / FREE Entrance for Non-Japanese","url":"http://peatix.com/event/373830","shortener_url":null,"started_at":"2018-06-02T19:00:00.000+09:00","ended_at":"2018-06-04T23:59:59.000+09:00","limit_number":null,"address":"東京都港区虎ノ門3丁目18-21","place":"Mulligan's","lat":35.6636,"lon":139.746,"state":"active","id":null},{"event_id":"373835","title":"6/3(Sun) Drink Meetup in Meguro / FREE Entrance for Non-Japanese","url":"http://peatix.com/event/373835","shortener_url":null,"started_at":"2018-06-03T18:00:00.000+09:00","ended_at":"2018-06-05T23:59:59.000+09:00","limit_number":null,"address":"目黒区下目黒1-3-28","place":"The Meguro Tavern","lat":35.6343,"lon":139.713,"state":"active","id":null},{"event_id":"373837","title":"6/8(Fri) Shinjuku Drink Meetup / FREE Entry for Non-Japanese","url":"http://peatix.com/event/373837","shortener_url":null,"started_at":"2018-06-08T19:00:00.000+09:00","ended_at":"2018-06-10T23:59:59.000+09:00","limit_number":null,"address":"東京都新宿区西新宿8-19-11","place":"KASHIWAGI CAFE","lat":35.6956,"lon":139.691,"state":"active","id":null},{"event_id":"373834","title":"6/3(Sun) Nihongo Meetup in Shibuya / FREE Entry for Non-Japanese","url":"http://peatix.com/event/373834","shortener_url":null,"started_at":"2018-06-03T14:00:00.000+09:00","ended_at":"2018-06-05T23:59:59.000+09:00","limit_number":null,"address":"1-3-11 Dogenzaka Shibuya-ku Tokyo","place":"Shibuya Hobgoblin","lat":35.6583,"lon":139.7,"state":"active","id":null},{"event_id":"373841","title":"6/9(Sat) SHIBUYA Nihongo Night / FREE Entrance for Non-Japanese","url":"http://peatix.com/event/373841","shortener_url":null,"started_at":"2018-06-09T19:00:00.000+09:00","ended_at":"2018-06-11T23:59:59.000+09:00","limit_number":null,"address":"東京都渋谷区道玄坂1-3-11 一番ビル 3F","place":"HOBGOBLIN  SHIBUYA","lat":0.0,"lon":0.0,"state":"active","id":null},{"event_id":"377261","title":"6/30(Sat) Roppongi Drink Meetup","url":"http://peatix.com/event/377261","shortener_url":null,"started_at":"2018-06-30T19:00:00.000+09:00","ended_at":"2018-07-02T23:59:59.000+09:00","limit_number":null,"address":"東京都港区六本木3−16−33 青葉六本木ビル1F","place":"Hobgoblin Roppongi","lat":0.0,"lon":0.0,"state":"active","id":null},{"event_id":"373797","title":"6/13(水) ドイツ語ナイト@六本木 / German Night in Roppongi","url":"http://peatix.com/event/373797","shortener_url":null,"started_at":"2018-06-13T19:00:00.000+09:00","ended_at":"2018-06-15T23:59:59.000+09:00","limit_number":null,"address":"東京都港区六本木3−16−33","place":"Hob goblin at Roppongi","lat":35.6623,"lon":139.737,"state":"active","id":null},{"event_id":"373805","title":"6/3(日)  にほんご交流会@渋谷 / Nihongo Meetup in Shibuya","url":"http://peatix.com/event/373805","shortener_url":null,"started_at":"2018-06-03T14:00:00.000+09:00","ended_at":"2018-06-05T23:59:59.000+09:00","limit_number":null,"address":"東京都渋谷区道玄坂1-3-11","place":"Hobgoblin Shibuya","lat":35.6583,"lon":139.7,"state":"active","id":null},{"event_id":"377249","title":"6/28(Thu) French Night in Roppongi","url":"http://peatix.com/event/377249","shortener_url":null,"started_at":"2018-06-28T19:00:00.000+09:00","ended_at":"2018-06-30T23:59:59.000+09:00","limit_number":null,"address":"東京都港区六本木3−16−33","place":"Hobgoblin Roppongi","lat":35.6623,"lon":139.737,"state":"active","id":null},{"event_id":"373806","title":"6/9(土)  にほんごナイト@渋谷 / Nihongo Night at Bar in Shibuya","url":"http://peatix.com/event/373806","shortener_url":null,"started_at":"2018-06-09T19:00:00.000+09:00","ended_at":"2018-06-11T23:59:59.000+09:00","limit_number":null,"address":"東京都渋谷区道玄坂1-3-11 一番ビル 3F","place":"HOBGOBLIN  SHIBUYA","lat":0.0,"lon":0.0,"state":"active","id":null},{"event_id":"373807","title":"6/15(金) にほんごナイト@六本木 / Nihongo Night in Roppongi","url":"http://peatix.com/event/373807","shortener_url":null,"started_at":"2018-06-15T19:00:00.000+09:00","ended_at":"2018-06-17T23:59:59.000+09:00","limit_number":null,"address":"東京都港区六本木7−13−8 フュージョンビル3F","place":"Glamour Tokyo ","lat":35.6639,"lon":139.73,"state":"active","id":null},{"event_id":"377254","title":"6/29(金) にほんごナイト@六本木 / Nihongo Night at Stylish Bar in Roppongi","url":"http://peatix.com/event/377254","shortener_url":null,"started_at":"2018-06-29T19:00:00.000+09:00","ended_at":"2018-07-01T23:59:59.000+09:00","limit_number":null,"address":"東京都港区六本木5-3-1レーヌ第2ビル3F","place":"BAR QUEST ","lat":35.6621,"lon":139.733,"state":"active","id":null},{"event_id":"373803","title":"6/10(日) 20代の英会話@渋谷 / 20's Social Meetup in Shibuya","url":"http://peatix.com/event/373803","shortener_url":null,"started_at":"2018-06-10T14:00:00.000+09:00","ended_at":"2018-06-12T23:59:59.000+09:00","limit_number":null,"address":"東京都渋谷区道玄坂1-3-11","place":"Hobgoblin Shibuya","lat":35.6583,"lon":139.7,"state":"active","id":null},{"event_id":"373839","title":"6/9(Sat)Spanish Meetup in Nishi-Shinjuku","url":"http://peatix.com/event/373839","shortener_url":null,"started_at":"2018-06-09T15:00:00.000+09:00","ended_at":"2018-06-11T23:59:59.000+09:00","limit_number":null,"address":"東京都新宿区西新宿8-19-11","place":"KASHIWAGI CAFE ","lat":35.6956,"lon":139.691,"state":"active","id":null},{"event_id":"377253","title":"6/29(Fri) Nihongo Night in Roppongi","url":"http://peatix.com/event/377253","shortener_url":null,"started_at":"2018-06-29T19:00:00.000+09:00","ended_at":"2018-07-01T23:59:59.000+09:00","limit_number":null,"address":"東京都港区六本木5-3-1レーヌ第2ビル3F","place":"Roppongi Bar Quest ","lat":35.6621,"lon":139.733,"state":"active","id":null},{"event_id":"377250","title":"6/28(木) フレンチナイト@六本木 / French Night in Roppongi","url":"http://peatix.com/event/377250","shortener_url":null,"started_at":"2018-06-28T19:00:00.000+09:00","ended_at":"2018-06-30T23:59:59.000+09:00","limit_number":null,"address":"東京都港区六本木3−16−33","place":"Hobgoblin Roppongi ","lat":35.6623,"lon":139.737,"state":"active","id":null},{"event_id":"373802","title":"6/9(土) スペイン語交流会@西新宿 / Spanish Meetup in Nishi-Shinjuku","url":"http://peatix.com/event/373802","shortener_url":null,"started_at":"2018-06-09T15:00:00.000+09:00","ended_at":"2018-06-11T23:59:59.000+09:00","limit_number":null,"address":"8-19-11 NishiShinjuku Shinjuku-ku Tokyo","place":"KASHIWAGI CAFE","lat":35.6956,"lon":139.691,"state":"active","id":null},{"event_id":"377691","title":"6/11（月）インプルーブ　小山睦男＆遠藤励起／『新人出版実現率80％の名コンビによる出版セミナー』","url":"http://peatix.com/event/377691","shortener_url":null,"started_at":"2018-06-11T19:00:00.000+09:00","ended_at":"2018-06-13T23:59:59.000+09:00","limit_number":null,"address":"東京都文京区向丘2-14-9","place":"【南北線・東大前駅徒歩5分】サンクチュアリ出版イベントスペース地下1F","lat":35.7207,"lon":139.758,"state":"active","id":null},{"event_id":"86557","title":"【ハッカソン】ラーメン二郎をハックする「ジロッカソン」","url":"https://supporterz-seminar.connpass.com/event/86557/","shortener_url":"https://goo.gl/MLNmtX","started_at":"2018-06-09T10:00:00.000+09:00","ended_at":"2018-06-09T20:00:00.000+09:00","limit_number":100,"address":"東京都渋谷区道玄坂１丁目９−５","place":"渋谷スクエアA 11F","lat":35.6573,"lon":139.699,"state":"active","id":null},{"event_id":"85951","title":"【大阪】XRジャム2018【AR/MR/VRハッカソン】","url":"https://osaka-driven-dev.connpass.com/event/85951/","shortener_url":"https://goo.gl/64FrXN","started_at":"2018-06-02T00:30:00.000+09:00","ended_at":"2018-06-03T09:30:00.000+09:00","limit_number":46,"address":"大阪市住之江区南港北2-1-10 ATCビルITM棟 6階","place":"ソフト産業プラザ TEQS","lat":34.6379,"lon":135.411,"state":"active","id":null},{"event_id":"73893","title":"6/30(土)~1(日) festivo ウェブデザイン Camp@東京 【学生15,000円、一般20,000円】～2講師体制で戦うスキルを身につける15時間！HTML/CSS/WEBサイトコーディング/Photoshop集中合宿！～","url":"https://festivo.doorkeeper.jp/events/73893","shortener_url":"https://goo.gl/LhLsHV","started_at":"2018-06-30T10:30:00.000+09:00","ended_at":"2018-07-01T18:30:00.000+09:00","limit_number":2,"address":"東京都練馬区豊玉北3-15-17","place":"起業家シェアハウス x-garden セミナールーム","lat":35.7329,"lon":139.661,"state":"active","id":null},{"event_id":"347160","title":"三谷宏治「思考の体幹を鍛える」ワークショップ","url":"http://180605mitani.peatix.com","shortener_url":null,"started_at":"2018-06-05T19:00:00.000+09:00","ended_at":"2018-06-07T23:59:59.000+09:00","limit_number":null,"address":"京都市下京区本塩竈町554","place":"MTRL KYOTO マテリアル京都","lat":34.9952,"lon":135.764,"state":"active","id":null},{"event_id":"378035","title":"朝活/昼活/夜活〈寄り道ミニセミナー〉イデコに加入したら知っておきたいこと （飲み物付）無料","url":"http://tsumitate-plaza-yaesu0621.peatix.com","shortener_url":null,"started_at":"2018-06-21T07:30:00.000+09:00","ended_at":"2018-06-23T23:59:59.000+09:00","limit_number":null,"address":"東京都中央区八重洲2-1","place":"つみたてプラザやえす(八重洲地下街北１号)","lat":35.6799,"lon":139.77,"state":"active","id":null},{"event_id":"378062","title":"朝活/昼活/夜活〈寄り道ミニセミナー〉イデコに加入したら知っておきたいこと （飲み物付）無料","url":"http://peatix.com/event/378062","shortener_url":null,"started_at":"2018-06-15T07:30:00.000+09:00","ended_at":"2018-06-17T23:59:59.000+09:00","limit_number":null,"address":"東京都中央区八重洲2-1","place":"つみたてプラザやえす(八重洲地下街北１号)","lat":35.6799,"lon":139.77,"state":"active","id":null},{"event_id":"377024","title":"「大人の動物園デートコンin上野」2018年6月10日(日) 11:00-17:00","url":"http://peatix.com/event/377024","shortener_url":null,"started_at":"2018-06-10T11:00:00.000+09:00","ended_at":"2018-06-12T23:59:59.000+09:00","limit_number":null,"address":"台東区上野公園9","place":"上野動物園 表門（パンダポスト付近）","lat":35.7158,"lon":139.772,"state":"active","id":null},{"event_id":"85789","title":"【20卒対象】ギークフェスタ【サイバーエージェント・ヤフー参加決定！】","url":"https://supporterz-seminar.connpass.com/event/85789/","shortener_url":null,"started_at":"2018-06-24T12:00:00.000+09:00","ended_at":"2018-06-24T20:00:00.000+09:00","limit_number":150,"address":"東京都 渋谷区桜丘町２６−１","place":"GMOインターネットグループ シナジーカフェ GMO Yours","lat":35.6565,"lon":139.699,"state":"active","id":null},{"event_id":"379017","title":"心の仕組みを学び、あなた自身を知る!（６月開催）","url":"http://peatix.com/event/379017","shortener_url":null,"started_at":"2018-06-01T10:30:00.000+09:00","ended_at":"2018-06-03T23:59:59.000+09:00","limit_number":null,"address":"東京都港区西麻布2-26-4HOWA西麻布204","place":"ダイアネティックスセンター赤坂","lat":35.66,"lon":139.72,"state":"active","id":null},{"event_id":"378741","title":"～現状の自分自身を知る～　10の能力別/世界トップレベルの分析テスト (６月開催)","url":"http://peatix.com/event/378741","shortener_url":null,"started_at":"2018-06-01T10:30:00.000+09:00","ended_at":"2018-06-03T23:59:59.000+09:00","limit_number":null,"address":"東京都港区西麻布2-26-4HOWA西麻布204","place":"ダイアネティックスセンター赤坂","lat":35.66,"lon":139.72,"state":"active","id":null},{"event_id":"378075","title":"ＰＲプランナー３次試験対応講座（2018年度夏期）","url":"http://3rd-2018summer.peatix.com","shortener_url":null,"started_at":"2018-06-05T19:00:00.000+09:00","ended_at":"2018-06-07T23:59:59.000+09:00","limit_number":null,"address":"東京都港区六本木6-10-1","place":"六本木アカデミーヒルズ49（六本木ヒルズ森タワー49F）","lat":35.6604,"lon":139.729,"state":"active","id":null},{"event_id":"377385","title":"【edoARTworkshop】パチンと響かせれば笑顔が広がる 可愛くて楽しい 縫わないがまぐちづくり","url":"http://edoart0609-1.peatix.com","shortener_url":null,"started_at":"2018-06-09T09:45:00.000+09:00","ended_at":"2018-06-11T23:59:59.000+09:00","limit_number":null,"address":"東京都台東区西浅草2-6-2","place":"かっぱ橋道具街 はし藤 ２F","lat":35.7127,"lon":139.789,"state":"active","id":null},{"event_id":"373429","title":"THE NEW CONTEXT CONFERENCE 2018 TOKYO","url":"http://ncc2018.peatix.com","shortener_url":null,"started_at":"2018-06-19T09:30:00.000+09:00","ended_at":"2018-06-21T23:59:59.000+09:00","limit_number":null,"address":"港区六本木6−10−1 六本木ヒルズ森タワー49階","place":"アカデミーヒルズ 六本木フォーラム","lat":35.6605,"lon":139.729,"state":"active","id":null},{"event_id":"85421","title":"香川ムービーハッカソン事前勉強会","url":"https://sanuki-gamen.connpass.com/event/85421/","shortener_url":"https://goo.gl/5JnG2y","started_at":"2018-06-30T13:00:00.000+09:00","ended_at":"2018-06-30T17:00:00.000+09:00","limit_number":null,"address":"香川県丸亀市柞原町５９６","place":"善照寺","lat":34.2735,"lon":133.804,"state":"active","id":null},{"event_id":"74013","title":"宇宙ビジネスを学ぶ!「宇宙×◯◯」アイディアソン＠つくば","url":"https://swtsukuba.doorkeeper.jp/events/74013","shortener_url":"https://goo.gl/vZGHKu","started_at":"2018-06-03T13:00:00.000+09:00","ended_at":"2018-06-03T16:00:00.000+09:00","limit_number":20,"address":"筑波大学 春日エリア 情報メディアユニオン","place":"筑波大学　春日エリア　情報メディアユニオン3F　共同研究会議室1","lat":36.0856,"lon":140.106,"state":"active","id":null},{"event_id":"74127","title":"IchigoJamを組み立ててプログラミング(午前10:30から)","url":"https://pcn-kobe.doorkeeper.jp/events/74127","shortener_url":null,"started_at":"2018-06-30T10:30:00.000+09:00","ended_at":"2018-06-30T12:00:00.000+09:00","limit_number":5,"address":"兵庫県神戸市灘区桜口町4-1-1 ウエルブ六甲道4番街1番館4階","place":"キッズプログラミングスクール8x9","lat":34.7125,"lon":135.24,"state":"active","id":null},{"event_id":"74128","title":"IchigoJamを組み立ててプログラミング(午後1:00から)","url":"https://pcn-kobe.doorkeeper.jp/events/74128","shortener_url":null,"started_at":"2018-06-30T13:00:00.000+09:00","ended_at":"2018-06-30T14:30:00.000+09:00","limit_number":10,"address":"兵庫県神戸市灘区桜口町4-1-1 ウエルブ六甲道4番街1番館4階","place":"キッズプログラミングスクール8x9","lat":34.7125,"lon":135.24,"state":"active","id":null},{"event_id":"74129","title":"IchigoJamを組み立ててプログラミング(午後3:00から)","url":"https://pcn-kobe.doorkeeper.jp/events/74129","shortener_url":null,"started_at":"2018-06-30T15:00:00.000+09:00","ended_at":"2018-06-30T16:30:00.000+09:00","limit_number":10,"address":"兵庫県神戸市灘区桜口町4-1-1 ウエルブ六甲道4番街1番館4階","place":"キッズプログラミングスクール8x9","lat":34.7125,"lon":135.24,"state":"active","id":null},{"event_id":"380189","title":"Lady's Open Dataチャレンジデーハッカソン～テーマ「バラとつながり」","url":"http://ladysopendata4.peatix.com","shortener_url":"https://goo.gl/dqMVhs","started_at":"2018-06-02T10:00:00.000+09:00","ended_at":"2018-06-04T23:59:59.000+09:00","limit_number":null,"address":"神奈川県横浜市神奈川区鶴屋町2-17","place":"岩崎学園　情報科学専門学校 学園本部","lat":35.4682,"lon":139.622,"state":"active","id":null},{"event_id":"373290","title":"Accounting Innovation Challenge","url":"http://accountinghack.peatix.com","shortener_url":"https://goo.gl/KQxQnY","started_at":"2018-06-02T10:30:00.000+09:00","ended_at":"2018-06-04T23:59:59.000+09:00","limit_number":null,"address":"10 Anson Rd, Singapore 079903","place":"CPA Australia (May 22: 1 Raffles Place, #31-01), Singapore Management University (June 2 and 22: School of Accountancy Ngee Ann Kongsi Auditorium \u0026 June 3: SMU Labs)","lat":1.27599,"lon":103.846,"state":"active","id":null},{"event_id":"377136","title":"6/20(Wed) Nihongo Night in Nishi-Shinjuku","url":"http://peatix.com/event/377136","shortener_url":null,"started_at":"2018-06-20T19:00:00.000+09:00","ended_at":"2018-06-22T23:59:59.000+09:00","limit_number":null,"address":"東京都新宿区西新宿8-19-11","place":"KASHIWAGI CAFE  ","lat":35.6956,"lon":139.691,"state":"active","id":null},{"event_id":"377142","title":"6/24(Sun) Travel Lovers Meetup in Roppongi","url":"http://peatix.com/event/377142","shortener_url":null,"started_at":"2018-06-24T14:00:00.000+09:00","ended_at":"2018-06-26T23:59:59.000+09:00","limit_number":null,"address":"東京都港区六本木3−16−33","place":"Hobgoblin Roppongi","lat":35.6623,"lon":139.737,"state":"active","id":null},{"event_id":"377137","title":"6/21(Thu) Russian Night in Roppongi","url":"http://peatix.com/event/377137","shortener_url":null,"started_at":"2018-06-21T19:00:00.000+09:00","ended_at":"2018-06-23T23:59:59.000+09:00","limit_number":null,"address":"東京都港区六本木7−13−8 フュージョンビル3F","place":"Glamour Tokyo","lat":35.6639,"lon":139.73,"state":"active","id":null},{"event_id":"377132","title":"6/16(Sat) Drink Meetup in Jiyugaoka","url":"http://peatix.com/event/377132","shortener_url":null,"started_at":"2018-06-16T19:00:00.000+09:00","ended_at":"2018-06-18T23:59:59.000+09:00","limit_number":null,"address":"東京都目黒区自由が丘1丁目8-18","place":"Clann","lat":35.6069,"lon":139.669,"state":"active","id":null},{"event_id":"377133","title":"6/17(Sun) Nihongo Meetup in Roppongi","url":"http://peatix.com/event/377133","shortener_url":null,"started_at":"2018-06-17T14:00:00.000+09:00","ended_at":"2018-06-19T23:59:59.000+09:00","limit_number":null,"address":"東京都港区六本木3−16−33","place":"Hobgoblin Roppongi","lat":35.6623,"lon":139.737,"state":"active","id":null},{"event_id":"377134","title":"6/17(Sun) Drink Meetup in Meguro","url":"http://peatix.com/event/377134","shortener_url":null,"started_at":"2018-06-17T18:00:00.000+09:00","ended_at":"2018-06-19T23:59:59.000+09:00","limit_number":null,"address":"目黒区下目黒1-3-28","place":"The Meguro Tavern","lat":35.6343,"lon":139.713,"state":"active","id":null},{"event_id":"377139","title":"6/22(Fri) Shinjuku Drink Meetup","url":"http://peatix.com/event/377139","shortener_url":null,"started_at":"2018-06-22T19:00:00.000+09:00","ended_at":"2018-06-24T23:59:59.000+09:00","limit_number":null,"address":"東京都新宿区西新宿8-19-11","place":"KASHIWAGI CAFE","lat":35.692,"lon":139.686,"state":"active","id":null},{"event_id":"377141","title":"6/23(Sat) Nihongo Night in Shibuya","url":"http://peatix.com/event/377141","shortener_url":null,"started_at":"2018-06-23T19:00:00.000+09:00","ended_at":"2018-06-25T23:59:59.000+09:00","limit_number":null,"address":"2-12 Sarugakucho Shibuya-ku Tokyo","place":"Asian Spice King","lat":35.6533,"lon":139.705,"state":"active","id":null},{"event_id":"380405","title":"真空管ヘッドフォンアンプをつくろう！【06/10(日)開催】","url":"http://dmmmake1806sink.peatix.com","shortener_url":null,"started_at":"2018-06-10T11:00:00.000+09:00","ended_at":"2018-06-12T23:59:59.000+09:00","limit_number":null,"address":"東京都千代田区神田練塀町3 富士ソフト秋葉原ビル 10F DMM.make AKIBA Studio","place":"DMM.make AKIBA 10F Studio","lat":35.7008,"lon":139.774,"state":"active","id":null},{"event_id":"380400","title":"半田付け体験とテスター・オシロスコープ入門【06/07(木)開催】","url":"http://dmmmake180607hand.peatix.com","shortener_url":null,"started_at":"2018-06-07T11:00:00.000+09:00","ended_at":"2018-06-09T23:59:59.000+09:00","limit_number":null,"address":"東京都千代田区神田練塀町3 富士ソフト秋葉原ビル 10F DMM.make AKIBA Studio","place":"DMM.make AKIBA 10F Studio","lat":35.7008,"lon":139.774,"state":"active","id":null},{"event_id":"377131","title":"6/23(土)  にほんごナイト@渋谷 / Nihongo Night in Shibuya","url":"http://peatix.com/event/377131","shortener_url":null,"started_at":"2018-06-23T19:00:00.000+09:00","ended_at":"2018-06-25T23:59:59.000+09:00","limit_number":null,"address":"東京都渋谷区猿楽町2-12 相野谷ビル 1F","place":"Asian Spice King ","lat":35.6532,"lon":139.705,"state":"active","id":null},{"event_id":"377124","title":"6/21(木) ロシア語ナイト@六本木 / Russian Night in Roppongi","url":"http://peatix.com/event/377124","shortener_url":null,"started_at":"2018-06-21T19:00:00.000+09:00","ended_at":"2018-06-23T23:59:59.000+09:00","limit_number":null,"address":"東京都港区六本木7−13−8 フュージョンビル3F","place":"Glamour Tokyo","lat":35.6639,"lon":139.73,"state":"active","id":null},{"event_id":"377130","title":"6/20(水) にほんごナイト@西新宿 / Nihongo Night in NishiShinjuku","url":"http://peatix.com/event/377130","shortener_url":null,"started_at":"2018-06-20T19:00:00.000+09:00","ended_at":"2018-06-22T23:59:59.000+09:00","limit_number":null,"address":"東京都新宿区西新宿8-19-11","place":"KASHIWAGI CAFE ","lat":35.6956,"lon":139.691,"state":"active","id":null},{"event_id":"377140","title":"6/23(Sat) Shibuya Spanish Meetup","url":"http://peatix.com/event/377140","shortener_url":null,"started_at":"2018-06-23T14:00:00.000+09:00","ended_at":"2018-06-25T23:59:59.000+09:00","limit_number":null,"address":"1-3-11 Dogenzaka Shibuya-ku Tokio","place":"Hobgoblin Shibuya","lat":35.6583,"lon":139.7,"state":"active","id":null},{"event_id":"380409","title":"【Cerevo x DMM.make AKIBA】スマホで自在操作できるIoTミニ四駆を作ろう！【06/03(日)開催】","url":"http://dmmmake1806mkz4.peatix.com","shortener_url":null,"started_at":"2018-06-03T11:00:00.000+09:00","ended_at":"2018-06-05T23:59:59.000+09:00","limit_number":null,"address":"東京都千代田区神田練塀町3富士ソフト秋葉原ビル10F","place":"DMM.make AKIBA Studio (10F)","lat":35.7008,"lon":139.774,"state":"active","id":null},{"event_id":"377125","title":"6/23(土) スペイン語交流会@渋谷 / Spanish Meetup in Shibuya","url":"http://peatix.com/event/377125","shortener_url":null,"started_at":"2018-06-23T19:00:00.000+09:00","ended_at":"2018-06-25T23:59:59.000+09:00","limit_number":null,"address":"東京都渋谷区道玄坂1-3-1 1一番ビル 3F","place":"Hobgoblin Shibuya","lat":35.6583,"lon":139.7,"state":"active","id":null},{"event_id":"380150","title":"NECKTIE/BOWTIE PARTY! (FRI) ネックタイ・ボウタイ パーティー（金）","url":"http://peatix.com/event/380150","shortener_url":null,"started_at":"2018-06-01T19:00:00.000+09:00","ended_at":"2018-06-03T23:59:59.000+09:00","limit_number":null,"address":"東京都港区六本木3-14-9 ユア六本木2F","place":"Bar Propaganda (2F)","lat":35.6623,"lon":139.735,"state":"active","id":null},{"event_id":"380151","title":"NECKTIE/BOWTIE PARTY! (SAT) ネックタイ・ボウタイ パーティー（土）","url":"http://peatix.com/event/380151","shortener_url":null,"started_at":"2018-06-02T19:00:00.000+09:00","ended_at":"2018-06-04T23:59:59.000+09:00","limit_number":null,"address":"東京都港区六本木3-14-9 ユア六本木2F","place":"Bar Propaganda (2F)","lat":35.6623,"lon":139.735,"state":"active","id":null},{"event_id":"380313","title":"第51回堀江貴文とカウンターで高級寿司を食べる【限定10名】テリヤキプレミアム鮨会","url":"http://teriyakipremium51.peatix.com","shortener_url":null,"started_at":"2018-06-04T12:30:00.000+09:00","ended_at":"2018-06-06T23:59:59.000+09:00","limit_number":null,"address":"京都府京都市東山区妙法院前側町445-3","place":"鮨 和魂","lat":0.0,"lon":0.0,"state":"active","id":null},{"event_id":"87241","title":"【スポンサー枠で増席】fukuoka.ex#11：DB／データサイエンスにコネクトするElixir","url":"https://fukuokaex.connpass.com/event/87241/","shortener_url":null,"started_at":"2018-06-22T19:00:00.000+09:00","ended_at":"2018-06-22T21:00:00.000+09:00","limit_number":60,"address":"福岡県福岡市中央区天神2丁目7番21号 天神プライム7F","place":"GMOペパボ株式会社","lat":33.5902,"lon":130.396,"state":"active","id":null},{"event_id":"85650","title":"InaHack 2018 1st Session \"ideathon\"","url":"https://uhuru.connpass.com/event/85650/","shortener_url":"https://goo.gl/tkkq3t","started_at":"2018-06-16T01:00:00.000+09:00","ended_at":"2018-06-17T08:30:00.000+09:00","limit_number":50,"address":"長野県伊那市荒井3520","place":"伊那市創造館","lat":35.8389,"lon":137.957,"state":"active","id":null},{"event_id":"375142","title":"第3回水鉄砲ガチンコバトルトーナメント2018（スパリゾートハワイアンズ公式） #3","url":"http://hawaiiansgachinkobattle2018.peatix.com","shortener_url":null,"started_at":"2018-06-16T09:30:00.000+09:00","ended_at":"2018-06-18T23:59:59.000+09:00","limit_number":null,"address":"いわき市常磐藤原町蕨平50","place":"スパリゾートハワイアンズ","lat":36.9937,"lon":140.816,"state":"active","id":null},{"event_id":"382037","title":"西村佳哲 × 本城慎之介「まだ読んでいない本の話」","url":"http://peatix.com/event/382037","shortener_url":null,"started_at":"2018-06-21T20:00:00.000+09:00","ended_at":"2018-06-23T23:59:59.000+09:00","limit_number":null,"address":"世田谷区北沢2-5-2 BIG BEN B1F","place":"本屋B\u0026B","lat":0.0,"lon":0.0,"state":"active","id":null},{"event_id":"380811","title":"「やりっ放しにしない研修設計・失敗しない研修講師の選び方」 　～人事・研修企画担当者向け　無料紹介セミナー～","url":"http://peatix.com/event/380811","shortener_url":null,"started_at":"2018-06-14T16:30:00.000+09:00","ended_at":"2018-06-16T23:59:59.000+09:00","limit_number":null,"address":"中央区銀座7丁目13−5 番号 NREG 銀座 ビル 1 階","place":"銀座アントレサロン 1号店","lat":35.668,"lon":139.765,"state":"active","id":null},{"event_id":"371791","title":"6/2(土) 泡まみれで踊る「泡パ®」@clubasia #泡パ #泡パーティー #foamparadise","url":"http://awapa180602.peatix.com","shortener_url":null,"started_at":"2018-06-02T23:00:00.000+09:00","ended_at":"2018-06-04T23:59:59.000+09:00","limit_number":null,"address":"東京都渋谷区円山町1-8","place":"club asia ","lat":35.659,"lon":139.695,"state":"active","id":null},{"event_id":"381035","title":"【はじまりのカフェ】日本の伝統色で染めあげる　紫陽花の布花コサージュ","url":"http://edoart0624.peatix.com","shortener_url":null,"started_at":"2018-06-24T14:00:00.000+09:00","ended_at":"2018-06-26T23:59:59.000+09:00","limit_number":null,"address":"中央区日本橋室町1丁目4−1 日本橋三越本館 7F","place":"はじまりのカフェ","lat":35.6856,"lon":139.773,"state":"active","id":null},{"event_id":"380981","title":"STARRY NIGHT JAM vol.17 「星降る夜会～天の川に思いを馳せて～」","url":"http://snj17.peatix.com","shortener_url":null,"started_at":"2018-06-02T19:00:00.000+09:00","ended_at":"2018-06-04T23:59:59.000+09:00","limit_number":null,"address":"福岡市中央区六本松4丁目2番1号","place":"福岡市科学館　6階ドームシアター(プラネタリウム)","lat":33.5764,"lon":130.378,"state":"active","id":null},{"event_id":"382089","title":"6月22日(金)19:00～★ 代官山 目的別ブレスレットで出会い率アップのGaitomo国際交流パーティー","url":"http://peatix.com/event/382089","shortener_url":null,"started_at":"2018-06-22T19:00:00.000+09:00","ended_at":"2018-06-24T23:59:59.000+09:00","limit_number":null,"address":"〒150-0034, 20-20 代官山町, 渋谷区","place":"BLU JAM CAFE Daikanyama","lat":35.648,"lon":139.702,"state":"active","id":null},{"event_id":"382144","title":"初心者向けトレイルランニングクラブ　ORE TRAIL","url":"http://ore-trail.peatix.com","shortener_url":null,"started_at":"2018-06-17T09:00:00.000+09:00","ended_at":"2018-06-19T23:59:59.000+09:00","limit_number":null,"address":"甲府市古府中町2611","place":"武田神社宝物殿","lat":0.0,"lon":0.0,"state":"active","id":null},{"event_id":"380616","title":"ジブン起業塾 ～基礎講座～第0期 in 大阪","url":"http://jibun-startup20180610.peatix.com","shortener_url":null,"started_at":"2018-06-10T10:00:00.000+09:00","ended_at":"2018-06-12T23:59:59.000+09:00","limit_number":null,"address":"大阪市北区堂島2-1-25","place":"堂島インキュベーションサロン","lat":34.696,"lon":135.495,"state":"active","id":null},{"event_id":"369135","title":"6/1(金) にほんごナイト@西新宿 / Nihongo Night in NishiShinjuku","url":"http://peatix.com/event/369135","shortener_url":null,"started_at":"2018-06-01T19:00:00.000+09:00","ended_at":"2018-06-03T23:59:59.000+09:00","limit_number":null,"address":"東京都新宿区西新宿8-19-11","place":"KASHIWAGI CAFE ","lat":35.6956,"lon":139.691,"state":"active","id":null},{"event_id":"382255","title":"＜未経験者向け＞サイバーコネクトツー中途採用説明会お申し込み","url":"http://peatix.com/event/382255","shortener_url":null,"started_at":"2018-06-22T19:00:00.000+09:00","ended_at":"2018-06-24T23:59:59.000+09:00","limit_number":null,"address":"【福岡本社】福岡市博多区博多駅前1-5-1博多大博通ビルディング11階【東京スタジオ】東京都品川区大井1-47-1NTビル6F","place":"サイバーコネクトツー福岡本社・東京スタジオ","lat":33.5935,"lon":130.416,"state":"active","id":null},{"event_id":"382221","title":"＜ゲーム・アニメ・CG・映像・IT系業界の経験者向け＞サイバーコネクトツー中途採用説明会お申し込み","url":"http://peatix.com/event/382221","shortener_url":null,"started_at":"2018-06-23T13:15:00.000+09:00","ended_at":"2018-06-25T23:59:59.000+09:00","limit_number":null,"address":"【福岡本社】福岡市博多区博多駅前1-5-1博多大博通ビルディング11階【東京スタジオ】東京都品川区大井1-47-1NTビル6F","place":"サイバーコネクトツー福岡本社・東京スタジオ","lat":33.5935,"lon":130.416,"state":"active","id":null},{"event_id":"381972","title":"【6/1金】みんなで語ろう！『ティール組織』de【大人の教養大学】#13","url":"http://peatix.com/event/381972","shortener_url":null,"started_at":"2018-06-01T19:00:00.000+09:00","ended_at":"2018-06-03T23:59:59.000+09:00","limit_number":null,"address":"渋谷区 神宮前6丁目19−21","place":"朝日新聞社メディアラボ渋谷分室","lat":35.6641,"lon":139.702,"state":"active","id":null},{"event_id":"382427","title":"Bumpy Lens 〜劇場で出会ったクリエイティブな人たち〜 #2","url":"http://bumpy-lens002.peatix.com","shortener_url":null,"started_at":"2018-06-08T19:00:00.000+09:00","ended_at":"2018-06-10T23:59:59.000+09:00","limit_number":null,"address":"千代田区有楽町2丁目10−1 東京交通会館ビル6階","place":"LEAGUE有楽町","lat":35.675,"lon":139.764,"state":"active","id":null},{"event_id":"381903","title":"Bows \u0026 Ties Pub Crawl Party (Fri) ：ネクタイ＆リボンパーティー！(金）","url":"http://peatix.com/event/381903","shortener_url":null,"started_at":"2018-06-01T19:00:00.000+09:00","ended_at":"2018-06-03T23:59:59.000+09:00","limit_number":null,"address":"大阪市中央区東心斎橋2-5-27","place":"The Blarney Stone (B1F)","lat":34.6718,"lon":135.504,"state":"active","id":null},{"event_id":"381905","title":"Bows \u0026 Ties Pub Crawl Party (Sat) ：ネクタイ＆リボンパーティー！(土）","url":"http://peatix.com/event/381905","shortener_url":null,"started_at":"2018-06-02T19:00:00.000+09:00","ended_at":"2018-06-04T23:59:59.000+09:00","limit_number":null,"address":"大阪市中央区東心斎橋2-5-27","place":"The Blarney Stone (B1F)","lat":34.6718,"lon":135.504,"state":"active","id":null},{"event_id":"381971","title":"※6/4申込締切【6/9土】みんなで語ろう！『ティール組織』de【大人の教養大学】#14","url":"http://peatix.com/event/381971","shortener_url":null,"started_at":"2018-06-09T13:00:00.000+09:00","ended_at":"2018-06-11T23:59:59.000+09:00","limit_number":null,"address":"東京都 千代田区紀尾井町1-3","place":"Yahoo! ロッジ 17階 スタジオ前（東京ガーデンテラス紀尾井町 ヤフー株式会社）","lat":35.68,"lon":139.737,"state":"active","id":null},{"event_id":"381593","title":"男女20代限定「安定男子コンin太田」2018年6月2日(土) 19:00-21:30","url":"http://peatix.com/event/381593","shortener_url":null,"started_at":"2018-06-02T19:00:00.000+09:00","ended_at":"2018-06-04T23:59:59.000+09:00","limit_number":null,"address":"群馬県太田市飯田町1389-2 武藤ビル2F","place":"白木屋 太田南口店","lat":36.2932,"lon":139.379,"state":"active","id":null},{"event_id":"381562","title":"男女20代限定「社会人男子コンinつくば」2018年6月2日(土) 19:30-22:00","url":"http://peatix.com/event/381562","shortener_url":null,"started_at":"2018-06-02T19:30:00.000+09:00","ended_at":"2018-06-04T23:59:59.000+09:00","limit_number":null,"address":"つくば市 竹園1-9-2 デイズタウンつくば 地下1階","place":"魚民 つくばデイズタウン店","lat":36.0779,"lon":140.116,"state":"active","id":null},{"event_id":"381612","title":"「アラサーコンin富山」2018年6月2日(土) 19:00-21:00","url":"http://peatix.com/event/381612","shortener_url":null,"started_at":"2018-06-02T19:00:00.000+09:00","ended_at":"2018-06-04T23:59:59.000+09:00","limit_number":null,"address":"富山市総曲輪3丁目8−番 6号大和富山店 6F","place":"ザ・ブッフェ 大和富山","lat":36.6894,"lon":137.213,"state":"active","id":null},{"event_id":"381535","title":"「30代限定コンinいわき」2018年6月2日(土) 19:30-22:00","url":"http://peatix.com/event/381535","shortener_url":null,"started_at":"2018-06-02T19:30:00.000+09:00","ended_at":"2018-06-04T23:59:59.000+09:00","limit_number":null,"address":"いわき市 平字田町1-1 レストランビル3F","place":"JAPANESE DINING 和民 いわき駅前店","lat":37.057,"lon":140.893,"state":"active","id":null},{"event_id":"375879","title":"6月13日(水)19:00～★ 恵比寿 仕事帰りにロマンチックカフェで平日Gaitomo国際交流パーティー","url":"http://peatix.com/event/375879","shortener_url":null,"started_at":"2018-06-13T19:00:00.000+09:00","ended_at":"2018-06-15T23:59:59.000+09:00","limit_number":null,"address":"渋谷区恵比寿1丁目18−14","place":"dot.Eatery and Bar","lat":35.6475,"lon":139.715,"state":"active","id":null},{"event_id":"381516","title":"6月1日(金)19:00～★ 表参道 駅近会場で新しいお友達作りのGaitomo国際交流パーティー","url":"http://peatix.com/event/381516","shortener_url":null,"started_at":"2018-06-01T19:00:00.000+09:00","ended_at":"2018-06-03T23:59:59.000+09:00","limit_number":null,"address":"港区南青山5丁目10−1 H2 AOYAMA BLDG B1","place":"エラグ青山","lat":35.6627,"lon":139.711,"state":"active","id":null},{"event_id":"375449","title":"6月21日(木)19:00～★ 中目黒 焼き立てピッツァをお仕事帰りに平日Gaitomo国際交流パーティー","url":"http://peatix.com/event/375449","shortener_url":null,"started_at":"2018-06-21T19:00:00.000+09:00","ended_at":"2018-06-23T23:59:59.000+09:00","limit_number":null,"address":"目黒区青葉台1丁目27−12 1F サンライトビル","place":"ピッツァフォルノカフェ 中目黒店","lat":35.6478,"lon":139.694,"state":"active","id":null},{"event_id":"381513","title":"25歳から35歳限定「アラサーコンin郡山」2018年6月2日(土) 19:30-22:00","url":"http://peatix.com/event/381513","shortener_url":null,"started_at":"2018-06-02T19:30:00.000+09:00","ended_at":"2018-06-04T23:59:59.000+09:00","limit_number":null,"address":"郡山市中町10−10","place":"魚民 郡山中町店","lat":37.398,"lon":140.384,"state":"active","id":null},{"event_id":"381602","title":"25歳から35歳限定「アラサーコンin千葉」2018年6月2日(土) 19:30-22:00","url":"http://peatix.com/event/381602","shortener_url":null,"started_at":"2018-06-02T19:30:00.000+09:00","ended_at":"2018-06-04T23:59:59.000+09:00","limit_number":null,"address":"千葉市 中央区富士見1-2-7 千葉駅前みゆきビル 3階","place":"千年の宴 ＪＲ千葉駅前店","lat":35.6129,"lon":140.117,"state":"active","id":null},{"event_id":"375516","title":"6月23日(土)19:00～★ 神谷町 外国人オーナーのアイリッシュパブでGaitomo国際交流パーティー","url":"http://peatix.com/event/375516","shortener_url":null,"started_at":"2018-06-23T19:00:00.000+09:00","ended_at":"2018-06-25T23:59:59.000+09:00","limit_number":null,"address":"東京都港区虎ノ門3-18-21 久永ビル2F","place":"神谷町 Mulligans(モーリガンズ)","lat":35.6636,"lon":139.746,"state":"active","id":null},{"event_id":"381639","title":"25歳から35歳「第100回 アラサーコンin金沢」2018年6月2日(土) 19:00-21:00","url":"http://peatix.com/event/381639","shortener_url":null,"started_at":"2018-06-02T19:00:00.000+09:00","ended_at":"2018-06-04T23:59:59.000+09:00","limit_number":null,"address":"石川県金沢市香林坊1‐1‐1 香林坊大和8F","place":"ブッフェレストラン「ザ・ダイニング　」","lat":36.563,"lon":136.654,"state":"active","id":null},{"event_id":"382207","title":"6月30日(土)19:00～★ 六本木 新しいウォーミングアップバーでGaitomo国際交流パーティー","url":"http://peatix.com/event/382207","shortener_url":null,"started_at":"2018-06-30T19:00:00.000+09:00","ended_at":"2018-07-02T23:59:59.000+09:00","limit_number":null,"address":"港区六本木5丁目1−7−1F 2F 六本木ストリートビル","place":"MEZZO(メゾ)","lat":35.6625,"lon":139.733,"state":"active","id":null},{"event_id":"381591","title":"「安定男子コンin宇都宮」2018年6月2日 (土) 19:30-22:00","url":"http://peatix.com/event/381591","shortener_url":null,"started_at":"2018-06-02T19:30:00.000+09:00","ended_at":"2018-06-04T23:59:59.000+09:00","limit_number":null,"address":"宇都宮市駅前通り1丁目5−2","place":"白木屋 ＪＲ宇都宮西口駅前店","lat":36.5595,"lon":139.897,"state":"active","id":null},{"event_id":"375880","title":"6月27日(水)19:00～★ 恵比寿 仕事帰りに駅近のお洒落カフェで平日Gaitomo国際交流パーティー","url":"http://peatix.com/event/375880","shortener_url":null,"started_at":"2018-06-27T19:00:00.000+09:00","ended_at":"2018-06-29T23:59:59.000+09:00","limit_number":null,"address":"渋谷区恵比寿南1−3−2 2F ESTLANZA EBISU","place":"dot. Grill and Bar","lat":35.6456,"lon":139.708,"state":"active","id":null},{"event_id":"375164","title":"6月17日(日)18:00～★ 銀座 初めての方でも参加しやすい人気エリアでGaitomo国際交流パーティー","url":"http://peatix.com/event/375164","shortener_url":null,"started_at":"2018-06-17T18:00:00.000+09:00","ended_at":"2018-06-19T23:59:59.000+09:00","limit_number":null,"address":"東京都中央区銀座5-9-13 菊正ビル9F","place":"銀座PPサロン","lat":35.6699,"lon":139.765,"state":"active","id":null},{"event_id":"378998","title":"【参加無料】ブリヂストン 執行役員CDOやNEC CMO登壇ほかその他豪華セミナー多数！ NEC the WISE Summit 2018","url":"http://peatix.com/event/378998","shortener_url":null,"started_at":"2018-06-07T10:00:00.000+09:00","ended_at":"2018-06-09T23:59:59.000+09:00","limit_number":null,"address":"中央区京橋3丁目1−1","place":"東京コンベンションホール","lat":35.6761,"lon":139.769,"state":"active","id":null},{"event_id":"382981","title":"【edoARTworkshop】鳥居 満智栄の恋する和菓子づくり～６月編 (紫陽花)","url":"http://edoart0607.peatix.com","shortener_url":null,"started_at":"2018-06-07T14:00:00.000+09:00","ended_at":"2018-06-09T23:59:59.000+09:00","limit_number":null,"address":"東京都台東区西浅草2-6-2","place":"かっぱ橋道具街 はし藤本店 ２Ｆ","lat":35.7127,"lon":139.789,"state":"active","id":null},{"event_id":"96599","title":"Ubuntu 18.04 LTSリリース記念オフラインミーティング18.06","url":"https://atnd.org/events/96599","shortener_url":null,"started_at":"2018-06-09T03:30:00.000+09:00","ended_at":"2018-06-09T08:00:00.000+09:00","limit_number":130,"address":"東京都港区六本木6-10-1","place":"グリー株式会社 @六本木ヒルズ","lat":35.6604,"lon":139.729,"state":"closed","id":null},{"event_id":"382000","title":"【観劇イベント】Bumpy Lens -in theatre- 劇場で出会ったクリエイティブな人たち","url":"http://bumpy-lens003.peatix.com","shortener_url":null,"started_at":"2018-06-28T12:00:00.000+09:00","ended_at":"2018-06-30T23:59:59.000+09:00","limit_number":null,"address":"中央区日本橋浜町2丁目31−1","place":"明治座","lat":35.6879,"lon":139.787,"state":"active","id":null},{"event_id":"383945","title":"人気専門店も登場！専門家が指南する自分史上最高のおうちかき氷探究イベント「第2回京橋かき氷コレクション」★お土産つき★","url":"http://kyobashikakikore.peatix.com","shortener_url":null,"started_at":"2018-06-07T18:30:00.000+09:00","ended_at":"2018-06-09T23:59:59.000+09:00","limit_number":null,"address":"東京都中央区京橋2-2-8明治屋ビル7階","place":"明治屋ホール","lat":35.6774,"lon":139.77,"state":"active","id":null},{"event_id":"383442","title":"MONO x Innovfest 2018","url":"http://innovfestmono2018.peatix.com","shortener_url":null,"started_at":"2018-06-05T08:30:00.000+09:00","ended_at":"2018-06-07T23:59:59.000+09:00","limit_number":null,"address":"Marina Bay Sands 10 Bayfront Avenue Singapore","place":"Marina Bay Sands \u0026 Blk71","lat":1.28454,"lon":103.86,"state":"active","id":null},{"event_id":"371271","title":"【1080円】流れを変え、結果を手にしたい方への秘訣 (６月開催)","url":"http://peatix.com/event/371271","shortener_url":null,"started_at":"2018-06-01T10:30:00.000+09:00","ended_at":"2018-06-03T23:59:59.000+09:00","limit_number":null,"address":"東京都港区西麻布2-26-4HOWA西麻布204","place":"ダイアネティックスセンター赤坂","lat":35.66,"lon":139.72,"state":"active","id":null},{"event_id":"380342","title":"【1080円】人を知る・見方が変わる！　新しい「人間観察法」★  （6月開催）","url":"http://peatix.com/event/380342","shortener_url":null,"started_at":"2018-06-01T10:30:00.000+09:00","ended_at":"2018-06-03T23:59:59.000+09:00","limit_number":null,"address":"東京都港区西麻布2-26-4HOWA西麻布204","place":"ダイアネティックスセンター赤坂","lat":35.66,"lon":139.72,"state":"active","id":null},{"event_id":"371269","title":"【1080円】あなたはまだまだプロモーションできる！ (６月開催)","url":"http://peatix.com/event/371269","shortener_url":null,"started_at":"2018-06-01T10:30:00.000+09:00","ended_at":"2018-06-03T23:59:59.000+09:00","limit_number":null,"address":"東京都港区西麻布2-26-4HOWA西麻布204","place":"ダイアネティックスセンター赤坂","lat":35.66,"lon":139.72,"state":"active","id":null},{"event_id":"383704","title":"男女20代限定「社会人男子コンin郡山」2018年6月3日(日) 15:00-17:30","url":"http://peatix.com/event/383704","shortener_url":null,"started_at":"2018-06-03T15:00:00.000+09:00","ended_at":"2018-06-05T23:59:59.000+09:00","limit_number":null,"address":"郡山市駅前 7 3 2","place":"わらわら 郡山駅前店","lat":37.3984,"lon":140.387,"state":"active","id":null},{"event_id":"383901","title":"25歳から35歳限定「アラサーコンin福島」2018年6月2日(土) 19:00-21:30","url":"http://peatix.com/event/383901","shortener_url":null,"started_at":"2018-06-02T19:00:00.000+09:00","ended_at":"2018-06-04T23:59:59.000+09:00","limit_number":null,"address":"福島市栄町11-30 ゼビオビルB1","place":"笑笑 福島東口駅前店","lat":37.754,"lon":140.463,"state":"active","id":null},{"event_id":"383767","title":"男女30歳以上限定「恋STORYコンin山形」2018年6月2日(土) 19:00-21:30","url":"http://peatix.com/event/383767","shortener_url":null,"started_at":"2018-06-02T19:00:00.000+09:00","ended_at":"2018-06-04T23:59:59.000+09:00","limit_number":null,"address":"山形市 香澄町1-15-28 ホテルニュー最上屋 地下1階","place":"魚民 山形駅前店","lat":38.2497,"lon":140.329,"state":"active","id":null},{"event_id":"383762","title":"「公務員or国家資格男子コンinいわき」2018年6月3日 (日) 14:30-17:00","url":"http://peatix.com/event/383762","shortener_url":null,"started_at":"2018-06-03T14:30:00.000+09:00","ended_at":"2018-06-05T23:59:59.000+09:00","limit_number":null,"address":"福島県いわき市平字白銀町6-1","place":"「三代目」鳥メロ ","lat":37.0571,"lon":140.893,"state":"active","id":null},{"event_id":"74474","title":"【6/6（水）・13（水）夜間】初心者向け・２回で学ぶ『PythonとJupyterNotebookの基礎』","url":"https://soleildatadojo.doorkeeper.jp/events/74474","shortener_url":null,"started_at":"2018-06-06T19:30:00.000+09:00","ended_at":"2018-06-13T21:30:00.000+09:00","limit_number":15,"address":"大阪府大阪市北区西天満二丁目5番3号(堂島深川ビル3階)","place":"SCRIBBLE OSAKA LAB（SOL）（大阪メトロ御堂筋線「淀屋橋」駅から徒歩４分）","lat":34.6951,"lon":135.502,"state":"active","id":null},{"event_id":"96854","title":"臨時合同よちよちAndroidオフライン開発ミーティング in 大崎","url":"https://atnd.org/events/96854","shortener_url":null,"started_at":"2018-06-10T00:00:00.000+09:00","ended_at":"2018-06-10T03:00:00.000+09:00","limit_number":null,"address":"東京都品川区大崎1-11-1","place":"ゲートシティ大崎B1アトリウムフリー座席","lat":35.6194,"lon":139.731,"state":"closed","id":null},{"event_id":"96857","title":"第60回よちよちAndroid名古屋支部オフライン開発ミーティング","url":"https://atnd.org/events/96857","shortener_url":null,"started_at":"2018-06-03T00:00:00.000+09:00","ended_at":"2018-06-03T03:00:00.000+09:00","limit_number":null,"address":"名古屋市中区栄三丁目18番1号 ナディアパーク デザインセンタービル6階","place":"名古屋市市民活動推進センター","lat":35.1654,"lon":136.905,"state":"closed","id":null},{"event_id":"83892","title":"Social x Web Mini-Hackathon #1","url":"https://future-tech-association.connpass.com/event/83892/","shortener_url":"https://goo.gl/YBfyGj","started_at":"2018-06-09T06:00:00.000+09:00","ended_at":"2018-06-09T12:00:00.000+09:00","limit_number":27,"address":"東京都杉並区高円寺北2-3-17","place":"株式会社ヴァル研究所","lat":35.7061,"lon":139.651,"state":"active","id":null},{"event_id":"86976","title":"第16回　CoderDojo横浜","url":"https://coderdojo-yokohama.connpass.com/event/86976/","shortener_url":null,"started_at":"2018-06-10T01:00:00.000+09:00","ended_at":"2018-06-10T03:00:00.000+09:00","limit_number":null,"address":"神奈川県横浜市神奈川区鶴屋町2-24-2","place":"かながわ県民センター","lat":35.4684,"lon":139.621,"state":"active","id":null},{"event_id":"87713","title":"ビギナーズソン Vol.2","url":"https://hackathon.connpass.com/event/87713/","shortener_url":"https://goo.gl/XJW1bx","started_at":"2018-06-30T01:00:00.000+09:00","ended_at":"2018-06-30T11:00:00.000+09:00","limit_number":50,"address":"東京都港区六本木１丁目６番１号泉ガーデンタワー29F","place":" NetLand Incubation Room 泉ガーデンタワー 29F","lat":35.6646,"lon":139.74,"state":"active","id":null},{"event_id":"87532","title":"DLLAB DAY 2018（ハッカソン） @ 丸の内KITTE","url":"https://dllab.connpass.com/event/87532/","shortener_url":"https://goo.gl/ziRY3A","started_at":"2018-06-21T10:00:00.000+09:00","ended_at":"2018-06-21T20:00:00.000+09:00","limit_number":100,"address":"東京都千代田区丸の内二丁目7番2号 ＫＩＴＴＥ 4,5階","place":"ＪＰタワー ホール＆カンファレンス（丸の内KITTE）","lat":35.6798,"lon":139.765,"state":"active","id":null},{"event_id":"87531","title":"DLLAB DAY 2018（カンファレンス） @ 丸の内KITTE","url":"https://dllab.connpass.com/event/87531/","shortener_url":null,"started_at":"2018-06-21T10:00:00.000+09:00","ended_at":"2018-06-21T19:45:00.000+09:00","limit_number":470,"address":"東京都千代田区丸の内二丁目7番2号 ＫＩＴＴＥ 4,5階","place":"ＪＰタワー ホール＆カンファレンス（丸の内KITTE）","lat":35.6798,"lon":139.765,"state":"active","id":null},{"event_id":"88005","title":"【交流会】16卒エンジニア限定ミートアップ","url":"https://supporterz-seminar.connpass.com/event/88005/","shortener_url":null,"started_at":"2018-06-22T20:00:00.000+09:00","ended_at":"2018-06-22T22:00:00.000+09:00","limit_number":35,"address":"東京都渋谷区道玄坂1-9-5","place":"渋谷スクエアA 11F","lat":35.6573,"lon":139.699,"state":"active","id":null},{"event_id":"86410","title":"【乾杯スタートで居酒屋ハック！】養老乃瀧ハッカソン2018","url":"https://yorohack.connpass.com/event/86410/","shortener_url":"https://goo.gl/VvHtqo","started_at":"2018-06-16T00:30:00.000+09:00","ended_at":"2018-06-17T11:00:00.000+09:00","limit_number":57,"address":"東京都豊島区西池袋 1-10-15","place":"養老乃瀧 池袋 ","lat":35.7294,"lon":139.709,"state":"active","id":null},{"event_id":"87799","title":"JAM plus #1 - powered by tambourine.inc","url":"https://kfug.connpass.com/event/87799/","shortener_url":null,"started_at":"2018-06-07T10:30:00.000+09:00","ended_at":"2018-06-07T13:00:00.000+09:00","limit_number":23,"address":"大阪市北区同心1丁目11番6号","place":"tambourine.inc","lat":34.7016,"lon":135.515,"state":"active","id":null},{"event_id":"87776","title":"fukuoka.ex（福岡Elixir会）第1期を振り返る","url":"https://fukuokaex.connpass.com/event/87776/","shortener_url":null,"started_at":"2018-06-09T19:00:00.000+09:00","ended_at":"2018-06-09T21:00:00.000+09:00","limit_number":1,"address":"","place":"過去イベントの紹介です（イベント開催ではありません）","lat":33.5892,"lon":130.403,"state":"active","id":null},{"event_id":"86027","title":"Goもくもく会","url":"https://go-beginners.connpass.com/event/86027/","shortener_url":"https://goo.gl/a3SN2F","started_at":"2018-06-06T10:00:00.000+09:00","ended_at":"2018-06-06T12:00:00.000+09:00","limit_number":23,"address":"東京都港区六本木6-10-1 (六本木ヒルズ森タワー18F)","place":"株式会社メルカリ","lat":35.6587,"lon":139.732,"state":"active","id":null},{"event_id":"79921","title":"データから考える仙台・東北のミライセミナー","url":"https://connpass.com/event/79921/","shortener_url":"https://goo.gl/JDZJ3p","started_at":"2018-06-15T13:30:00.000+09:00","ended_at":"2018-06-15T16:30:00.000+09:00","limit_number":70,"address":"宮城県仙台市青葉区上杉1丁目1-2","place":"NTTドコモ東北支社(ドコモ東北ビル13F)","lat":38.2699,"lon":140.874,"state":"active","id":null},{"event_id":"87316","title":"(第89回)Python mini Hack-a-thon","url":"https://pyhack.connpass.com/event/87316/","shortener_url":null,"started_at":"2018-06-09T02:00:00.000+09:00","ended_at":"2018-06-09T10:00:00.000+09:00","limit_number":20,"address":"渋谷区千駄ヶ谷5-32-7 野村不動産南新宿ビル4F","place":"ビープラウド会議室","lat":35.6864,"lon":139.704,"state":"active","id":null},{"event_id":"74520","title":"Social x Web Mini-Hackathon #1 ~SDGsのランディングページが誰でも作れるようになるハッカソン","url":"https://future-tech-association.doorkeeper.jp/events/74520","shortener_url":"https://goo.gl/oZRgzU","started_at":"2018-06-09T15:00:00.000+09:00","ended_at":"2018-06-09T21:00:00.000+09:00","limit_number":15,"address":"東京都杉並区高円寺北2-3-17","place":"ヴァル研究所","lat":35.7061,"lon":139.651,"state":"active","id":null},{"event_id":"74517","title":"六甲道【小３～小６ 初心者歓迎】はじめての電子工作（保護者同伴要）","url":"https://8x9trial.doorkeeper.jp/events/74517","shortener_url":null,"started_at":"2018-06-10T15:00:00.000+09:00","ended_at":"2018-06-10T16:30:00.000+09:00","limit_number":4,"address":"〒657-0036 兵庫県神戸市灘区桜口町4丁目1−1 ウエルブ六甲道4番街4階 401-2","place":"キッズプログラミングスクール8x9　六甲道校（JR六甲道駅より徒歩約４分）","lat":34.7131,"lon":135.24,"state":"active","id":null},{"event_id":"74611","title":"Startup Weekend Tokyo :: Micro Edition #10","url":"https://swtokyo.doorkeeper.jp/events/74611","shortener_url":null,"started_at":"2018-06-08T18:30:00.000+09:00","ended_at":"2018-06-10T21:30:00.000+09:00","limit_number":15,"address":"東京都新宿区高田馬場1-28-10 三慶ビル4F","place":"Green Room in CASE-Shinjuku","lat":35.7122,"lon":139.705,"state":"active","id":null},{"event_id":"384431","title":"「季節のジャムを手作りしよう」おいしい志木の家#11","url":"http://peatix.com/event/384431","shortener_url":null,"started_at":"2018-06-17T13:00:00.000+09:00","ended_at":"2018-06-19T23:59:59.000+09:00","limit_number":null,"address":"新座市東北 2-29-22大栄パーク新座第7内","place":"イニシア志木マンションギャラリー","lat":35.8218,"lon":139.573,"state":"active","id":null},{"event_id":"384108","title":"「無名Web作家からの脱出戦略」 ～小説投稿サイトと公募新人賞の現在～ #aiajp","url":"http://monokaki-everystar.peatix.com","shortener_url":null,"started_at":"2018-06-09T14:00:00.000+09:00","ended_at":"2018-06-11T23:59:59.000+09:00","limit_number":null,"address":"渋谷区 南平台町16-28","place":"HDEオープンラウンジ","lat":35.6549,"lon":139.695,"state":"active","id":null},{"event_id":"383834","title":"ROTH BART BARON \"PALACE\" - Meet up \u0026 Live -","url":"http://palace.peatix.com","shortener_url":null,"started_at":"2018-06-10T15:00:00.000+09:00","ended_at":"2018-06-12T23:59:59.000+09:00","limit_number":null,"address":"東京都千代田区神田練塀町3番地","place":"DMM.make AKIBA mix-A studio （富士ソフト秋葉原ビル12階）","lat":35.7008,"lon":139.774,"state":"active","id":null},{"event_id":"382345","title":"YOYOMAKERプレゼンツ　3Dプリントの学校　中級コース「3DCADと3Dプリンターでロケットランチャー型ペン立てを作ろう！」","url":"http://peatix.com/event/382345","shortener_url":null,"started_at":"2018-06-23T13:30:00.000+09:00","ended_at":"2018-06-25T23:59:59.000+09:00","limit_number":null,"address":"東京都世田谷区池尻 2-4-5","place":"IID 世田谷ものづくり学校","lat":35.6463,"lon":139.681,"state":"active","id":null},{"event_id":"384152","title":"アニメ好きの街コン「アニコンin高崎」2018年6月3日(日) 14:30-17:00","url":"http://peatix.com/event/384152","shortener_url":null,"started_at":"2018-06-03T14:30:00.000+09:00","ended_at":"2018-06-05T23:59:59.000+09:00","limit_number":null,"address":"高崎市 西口サウスパークビル 1階","place":"魚民 高崎西口駅前店","lat":36.3208,"lon":139.012,"state":"active","id":null},{"event_id":"384394","title":"ブルガリレストランで7品フルコースとテーブルマナー　社交ダンスと社交界マナーで紳士淑女の嗜み Luncheon event!","url":"http://premium3.peatix.com","shortener_url":null,"started_at":"2018-06-30T12:00:00.000+09:00","ended_at":"2018-07-02T23:59:59.000+09:00","limit_number":null,"address":"中央区銀座 3-14-18 小野寺ビル2F","place":"銀座花道スタジオ","lat":35.6704,"lon":139.77,"state":"active","id":null},{"event_id":"384244","title":"【edoARTworkshop】青森伝統の技と心を知る 津軽こぎん刺し体験～手染めの虹糸でつくるコースター","url":"http://edoart0609-2.peatix.com","shortener_url":null,"started_at":"2018-06-09T10:00:00.000+09:00","ended_at":"2018-06-11T23:59:59.000+09:00","limit_number":null,"address":"〒111-0035 東京都台東区西浅草2丁目6−2","place":"かっぱ橋道具街 はし藤 ２F","lat":35.7127,"lon":139.789,"state":"active","id":null},{"event_id":"384144","title":"【秘めフォト部関西 6/15(金)】自分史上最高にSEXYな1枚を撮る「秘めフォト部」！新しく「SEXY」な自分を見つけて明日に自信を持つための女性限定フォトサービス！《女性限定／10名様限定／初めての方大歓迎》","url":"http://peatix.com/event/384144","shortener_url":null,"started_at":"2018-06-15T19:30:00.000+09:00","ended_at":"2018-06-17T23:59:59.000+09:00","limit_number":null,"address":"京都府京都市東山区博多町112−5","place":"京都天狼院","lat":35.0017,"lon":135.773,"state":"active","id":null},{"event_id":"384155","title":"25歳から35歳限定「アラサーコンin小田原」2018年6月3日(日) 14:30-17:00","url":"http://peatix.com/event/384155","shortener_url":null,"started_at":"2018-06-03T14:30:00.000+09:00","ended_at":"2018-06-05T23:59:59.000+09:00","limit_number":null,"address":"日本、神奈川県小田原市栄町1丁目2−1","place":"白木屋 小田原東口駅前店","lat":35.2553,"lon":139.157,"state":"active","id":null},{"event_id":"384030","title":"男女20代限定「社会人男子コンin山形」2018年6月9日(土) 19:00-21:30","url":"http://peatix.com/event/384030","shortener_url":null,"started_at":"2018-06-09T19:00:00.000+09:00","ended_at":"2018-06-11T23:59:59.000+09:00","limit_number":null,"address":"山形県山形市香澄町1-15-28 ホテルニュー最上屋","place":"魚民　山形駅前店 ","lat":38.2497,"lon":140.329,"state":"active","id":null},{"event_id":"384369","title":"「旅行好き・ドライブ好き・アウトドア好きコンin宇都宮」2018年6月9日(土) 19:30-22:00","url":"http://peatix.com/event/384369","shortener_url":null,"started_at":"2018-06-09T19:30:00.000+09:00","ended_at":"2018-06-11T23:59:59.000+09:00","limit_number":null,"address":"宇都宮市駅前通り1丁目5−2","place":"白木屋 ＪＲ宇都宮西口駅前店","lat":36.5595,"lon":139.897,"state":"active","id":null},{"event_id":"384016","title":"「安定男子コンinいわき」2018年6月10日(日) 14:30-17:00","url":"http://peatix.com/event/384016","shortener_url":null,"started_at":"2018-06-10T14:30:00.000+09:00","ended_at":"2018-06-12T23:59:59.000+09:00","limit_number":null,"address":"日本、福島県いわき市平白銀町","place":"三代目 鳥メロ いわき駅前店","lat":37.0574,"lon":140.894,"state":"active","id":null},{"event_id":"384011","title":"「公務員or国家資格男子コンin郡山」2018年6月10日 (日) 15:00-17:30","url":"http://peatix.com/event/384011","shortener_url":null,"started_at":"2018-06-10T15:00:00.000+09:00","ended_at":"2018-06-12T23:59:59.000+09:00","limit_number":null,"address":"郡山市 駅前2-3-12 越後屋プラザ 2階","place":"山内農場 郡山駅前店","lat":37.3982,"lon":140.387,"state":"active","id":null},{"event_id":"384302","title":"ノンスモーカー限定「社会人男子コンin盛岡」2018年6月3日(日) 14:00-16:30","url":"http://peatix.com/event/384302","shortener_url":null,"started_at":"2018-06-03T14:00:00.000+09:00","ended_at":"2018-06-05T23:59:59.000+09:00","limit_number":null,"address":"盛岡市菜園2-4-23","place":"琥haku （コハク）","lat":39.7019,"lon":141.147,"state":"active","id":null},{"event_id":"384383","title":"男女20代限定「社会人男子コンin富山」2018年6月9日(土) 19:00-21:00","url":"http://peatix.com/event/384383","shortener_url":null,"started_at":"2018-06-09T19:00:00.000+09:00","ended_at":"2018-06-11T23:59:59.000+09:00","limit_number":null,"address":"富山市総曲輪3丁目8−番 6号大和富山店 6F","place":"ザ・ブッフェ 大和富山","lat":36.6894,"lon":137.213,"state":"active","id":null},{"event_id":"384554","title":"25歳から35歳限定「アラサーコンin秋田」2018年6月2日(土) 19:00-21:30","url":"http://peatix.com/event/384554","shortener_url":null,"started_at":"2018-06-02T19:00:00.000+09:00","ended_at":"2018-06-04T23:59:59.000+09:00","limit_number":null,"address":"秋田県秋田市中通4-13-2","place":"わらわら　秋田西口駅前店","lat":39.7157,"lon":140.127,"state":"active","id":null},{"event_id":"384136","title":"「安定男子限定パーティーinつくば」2018年6月3日 (日) 14:30-17:00","url":"http://peatix.com/event/384136","shortener_url":null,"started_at":"2018-06-03T14:30:00.000+09:00","ended_at":"2018-06-05T23:59:59.000+09:00","limit_number":null,"address":"日本、茨城県つくば市竹園1丁目9","place":"魚民 つくばデイズタウン店","lat":36.0776,"lon":140.115,"state":"active","id":null},{"event_id":"384060","title":"「社会人男子コンin山形」2018年6月9日(土) 14:00-16:30","url":"http://peatix.com/event/384060","shortener_url":null,"started_at":"2018-06-09T14:00:00.000+09:00","ended_at":"2018-06-11T23:59:59.000+09:00","limit_number":null,"address":"山形県山形市香澄町1-15-28 ホテルニュー最上屋","place":"魚民　山形駅前店 ","lat":38.2497,"lon":140.329,"state":"active","id":null},{"event_id":"384306","title":"「週末☆夜コンin鶴岡」2018年6月8日(金) 19:30-22:00","url":"http://peatix.com/event/384306","shortener_url":null,"started_at":"2018-06-08T19:30:00.000+09:00","ended_at":"2018-06-10T23:59:59.000+09:00","limit_number":null,"address":"山形県鶴岡市末広町2-41 YS鶴岡駅前ビル 1F","place":"千年の宴　鶴岡駅前店","lat":38.7397,"lon":139.838,"state":"active","id":null},{"event_id":"384250","title":"25歳から35歳限定「アラサーコンin青森」2018年6月2日(土) 19:00-21:30","url":"http://peatix.com/event/384250","shortener_url":null,"started_at":"2018-06-02T19:00:00.000+09:00","ended_at":"2018-06-04T23:59:59.000+09:00","limit_number":null,"address":"青森県青森市新町1-1-18 青森マルサビル 1F","place":"魚民　青森駅前店","lat":40.8281,"lon":140.736,"state":"active","id":null},{"event_id":"384337","title":"「アラサーコンinつくば」2018年6月9日(土) 19:30-22:00","url":"http://peatix.com/event/384337","shortener_url":null,"started_at":"2018-06-09T19:30:00.000+09:00","ended_at":"2018-06-11T23:59:59.000+09:00","limit_number":null,"address":"つくば市 竹園1-9-2 デイズタウンつくば 地下1階","place":"魚民 つくばデイズタウン店","lat":36.0779,"lon":140.116,"state":"active","id":null},{"event_id":"384382","title":"男女20代限定「社会人男子コンin高崎」2018年6月9日(土) 19:30-22:00","url":"http://peatix.com/event/384382","shortener_url":null,"started_at":"2018-06-09T19:30:00.000+09:00","ended_at":"2018-06-11T23:59:59.000+09:00","limit_number":null,"address":"高崎市 西口サウスパークビル 1階","place":"魚民 高崎西口駅前店","lat":36.3208,"lon":139.012,"state":"active","id":null},{"event_id":"383909","title":"アニメ好き大集合「元祖アニコンin山形 Vol.40」2018年6月3日(日) 14:00-16:30","url":"http://peatix.com/event/383909","shortener_url":null,"started_at":"2018-06-03T14:00:00.000+09:00","ended_at":"2018-06-05T23:59:59.000+09:00","limit_number":null,"address":"山形県山形市香澄町1-15-28 ホテルニュー最上屋","place":"魚民　山形駅前店","lat":38.2497,"lon":140.329,"state":"active","id":null},{"event_id":"384041","title":"25歳から35歳限定「アラサーコンin福島」2018年6月9日(土) 19:00-21:30","url":"http://peatix.com/event/384041","shortener_url":null,"started_at":"2018-06-09T19:00:00.000+09:00","ended_at":"2018-06-11T23:59:59.000+09:00","limit_number":null,"address":"福島市栄町11-30 ゼビオビルB1","place":"笑笑 福島東口駅前店","lat":37.754,"lon":140.463,"state":"active","id":null},{"event_id":"384128","title":"男女20代限定「社会人男子パーティーin水戸」2018年6月3日(日) 15:00-17:30","url":"http://peatix.com/event/384128","shortener_url":null,"started_at":"2018-06-03T15:00:00.000+09:00","ended_at":"2018-06-05T23:59:59.000+09:00","limit_number":null,"address":"茨城県水戸市宮町1-7-31 エクセルみなみ6F","place":"パパゲーノ水戸","lat":36.3701,"lon":140.477,"state":"active","id":null},{"event_id":"384293","title":"「社会人男子コンin酒田」2018年6月3日(日) 14:00-16:30","url":"http://peatix.com/event/384293","shortener_url":null,"started_at":"2018-06-03T14:00:00.000+09:00","ended_at":"2018-06-05T23:59:59.000+09:00","limit_number":null,"address":"酒田市幸町 2−1−12 ホテル・アルファーワン酒田 1階","place":"魚民 酒田駅前店","lat":38.9227,"lon":139.845,"state":"active","id":null},{"event_id":"384515","title":"男女20代限定「社会人男子コンin弘前」2018年6月9日(土) 19:00-21:30","url":"http://peatix.com/event/384515","shortener_url":null,"started_at":"2018-06-09T19:00:00.000+09:00","ended_at":"2018-06-11T23:59:59.000+09:00","limit_number":null,"address":"青森県弘前市大字駅前町7-5 おおまち共同パーク 1階","place":"笑笑 弘前駅前店","lat":40.5981,"lon":140.482,"state":"active","id":null},{"event_id":"384572","title":"アニメ好きの街コン「ちょっと大人のアニコンin秋田」2018年6月3日(日) 14:00-16:30","url":"http://peatix.com/event/384572","shortener_url":null,"started_at":"2018-06-03T14:00:00.000+09:00","ended_at":"2018-06-05T23:59:59.000+09:00","limit_number":null,"address":"秋田県秋田市中通4-13-2","place":"わらわら　秋田西口駅前店","lat":39.7157,"lon":140.127,"state":"active","id":null},{"event_id":"384273","title":"25歳から35歳限定「アラサーコンin弘前」2018年6月3日(日) 14:00-16:30","url":"http://peatix.com/event/384273","shortener_url":null,"started_at":"2018-06-03T14:00:00.000+09:00","ended_at":"2018-06-05T23:59:59.000+09:00","limit_number":null,"address":"弘前市駅前町7−5","place":"笑笑 弘前駅前店","lat":40.5982,"lon":140.482,"state":"active","id":null},{"event_id":"384468","title":"25歳から35歳限定「アラサーコンin小山」2018年6月10日(日) 16:00-18:30","url":"http://peatix.com/event/384468","shortener_url":null,"started_at":"2018-06-10T16:00:00.000+09:00","ended_at":"2018-06-12T23:59:59.000+09:00","limit_number":null,"address":"小山市駅東通り1-4-7 柿木ビル2F","place":"笑笑 小山東口駅前店","lat":36.3108,"lon":139.807,"state":"active","id":null},{"event_id":"384696","title":"男女20代限定「社会人男子コンin静岡」2018年6月3日(日) 15:00-17:30","url":"http://peatix.com/event/384696","shortener_url":null,"started_at":"2018-06-03T15:00:00.000+09:00","ended_at":"2018-06-05T23:59:59.000+09:00","limit_number":null,"address":"静岡県静岡市葵区御幸町8-3","place":"豊後高田どり酒場　静岡北口駅前店","lat":34.9732,"lon":138.387,"state":"active","id":null},{"event_id":"384526","title":"男女20代限定「社会人男子コンin鶴岡」2018年6月9日(土) 19:30-22:00","url":"http://peatix.com/event/384526","shortener_url":null,"started_at":"2018-06-09T19:30:00.000+09:00","ended_at":"2018-06-11T23:59:59.000+09:00","limit_number":null,"address":"山形県鶴岡市末広町2-41 YS鶴岡駅前ビル 1F","place":"千年の宴　鶴岡駅前店","lat":38.7397,"lon":139.838,"state":"active","id":null},{"event_id":"384595","title":"「30代限定コンin秋田」2018年6月10日(日) 14:00-16:30","url":"http://peatix.com/event/384595","shortener_url":null,"started_at":"2018-06-10T14:00:00.000+09:00","ended_at":"2018-06-12T23:59:59.000+09:00","limit_number":null,"address":"秋田県秋田市中通4-13-2","place":"わらわら　秋田西口駅前店","lat":39.7157,"lon":140.127,"state":"active","id":null},{"event_id":"384083","title":"「社会人男子コンin山形」2018年6月2日(土) 14:00-16:30","url":"http://peatix.com/event/384083","shortener_url":null,"started_at":"2018-06-02T14:00:00.000+09:00","ended_at":"2018-06-04T23:59:59.000+09:00","limit_number":null,"address":"山形県山形市香澄町1-15-28 ホテルニュー最上屋","place":"魚民　山形駅前店 ","lat":38.2497,"lon":140.329,"state":"active","id":null},{"event_id":"384470","title":"25歳から35歳限定「アラサーコンin太田」2018年6月10日(日) 14:30-17:00","url":"http://peatix.com/event/384470","shortener_url":null,"started_at":"2018-06-10T14:30:00.000+09:00","ended_at":"2018-06-12T23:59:59.000+09:00","limit_number":null,"address":"群馬県太田市飯田町1389-2 武藤ビル2F","place":"白木屋　太田南口駅前店","lat":36.2932,"lon":139.379,"state":"active","id":null},{"event_id":"384252","title":"男女20代限定「社会人男子コンin弘前」2018年6月2日(土) 19:00-21:30","url":"http://peatix.com/event/384252","shortener_url":null,"started_at":"2018-06-02T19:00:00.000+09:00","ended_at":"2018-06-04T23:59:59.000+09:00","limit_number":null,"address":"青森県弘前市大字駅前町7-5 おおまち共同パーク 1階","place":"笑笑 弘前駅前店","lat":40.5981,"lon":140.482,"state":"active","id":null},{"event_id":"384567","title":"男女30歳以上45歳限定「恋STORYパーティーin水戸」2018年6月2日(土) 19:00-21:30","url":"http://peatix.com/event/384567","shortener_url":null,"started_at":"2018-06-02T19:00:00.000+09:00","ended_at":"2018-06-04T23:59:59.000+09:00","limit_number":null,"address":"茨城県水戸市宮町1-7-31 エクセルみなみ6F","place":"イタリアンバイキング「パパゲーノ水戸」","lat":36.3701,"lon":140.477,"state":"active","id":null},{"event_id":"384714","title":"「安定男子コンin酒田」2018年6月10日(日) 14:00-16:30","url":"http://peatix.com/event/384714","shortener_url":null,"started_at":"2018-06-10T14:00:00.000+09:00","ended_at":"2018-06-12T23:59:59.000+09:00","limit_number":null,"address":"酒田市幸町 2−1−12 ホテル・アルファーワン酒田 1階","place":"魚民 酒田駅前店","lat":38.9227,"lon":139.845,"state":"active","id":null},{"event_id":"383968","title":"「安定男子コンin福島」2018年6月3日(日) 14:00-16:30","url":"http://peatix.com/event/383968","shortener_url":null,"started_at":"2018-06-03T14:00:00.000+09:00","ended_at":"2018-06-05T23:59:59.000+09:00","limit_number":null,"address":"福島市 栄町11-30 ゼビオビル 地下1","place":"笑笑 福島東口駅前店","lat":37.754,"lon":140.463,"state":"active","id":null},{"event_id":"384478","title":"「30歳以上限定 恋STORYコンin船橋」2018年6月10日(日) 14:30-17:00","url":"http://peatix.com/event/384478","shortener_url":null,"started_at":"2018-06-10T14:30:00.000+09:00","ended_at":"2018-06-12T23:59:59.000+09:00","limit_number":null,"address":"船橋市本町4丁目41−25","place":"鶏のジョージ 船橋南口駅前店","lat":35.699,"lon":139.986,"state":"active","id":null},{"event_id":"384505","title":"男女20代限定「社会人男子コンin青森」2018年6月9日(土) 19:00-21:30","url":"http://peatix.com/event/384505","shortener_url":null,"started_at":"2018-06-09T19:00:00.000+09:00","ended_at":"2018-06-11T23:59:59.000+09:00","limit_number":null,"address":"青森市新町1丁目1−18","place":"山内農場 青森駅前店","lat":40.8282,"lon":140.736,"state":"active","id":null},{"event_id":"384598","title":"「安定男子コンin八戸」2018年6月10日(日) 14:00-16:30","url":"http://peatix.com/event/384598","shortener_url":null,"started_at":"2018-06-10T14:00:00.000+09:00","ended_at":"2018-06-12T23:59:59.000+09:00","limit_number":null,"address":"八戸市 十三日町25","place":"魚民 八戸十三日町店","lat":40.5086,"lon":141.489,"state":"active","id":null},{"event_id":"384257","title":"「公務員or国家資格男子コンin鶴岡」2018年6月2日(土) 19:30-22:00","url":"http://peatix.com/event/384257","shortener_url":null,"started_at":"2018-06-02T19:30:00.000+09:00","ended_at":"2018-06-04T23:59:59.000+09:00","limit_number":null,"address":"鶴岡市末広町2-41 YS鶴岡駅前ビル 1階","place":"千年の宴 鶴岡駅前店","lat":38.7397,"lon":139.838,"state":"active","id":null},{"event_id":"384461","title":"「30代限定パーティーinつくば」2018年6月10日(日) 14:30-17:00","url":"http://peatix.com/event/384461","shortener_url":null,"started_at":"2018-06-10T14:30:00.000+09:00","ended_at":"2018-06-12T23:59:59.000+09:00","limit_number":null,"address":"日本、茨城県つくば市竹園1丁目9","place":"魚民 つくばデイズタウン店","lat":36.0776,"lon":140.115,"state":"active","id":null},{"event_id":"384485","title":"「社会人男子コンin金沢」2018年6月10日(日) 15:00-17:30","url":"http://peatix.com/event/384485","shortener_url":null,"started_at":"2018-06-10T15:00:00.000+09:00","ended_at":"2018-06-12T23:59:59.000+09:00","limit_number":null,"address":"石川県金沢市香林坊1‐1‐1 香林坊大和8F","place":"ブッフェレストラン「ザ・ダイニング　」","lat":36.563,"lon":136.654,"state":"active","id":null},{"event_id":"384581","title":"男女20代限定「社会人男子コンin秋田」2018年6月9日(土) 19:00-21:30","url":"http://peatix.com/event/384581","shortener_url":null,"started_at":"2018-06-09T19:00:00.000+09:00","ended_at":"2018-06-11T23:59:59.000+09:00","limit_number":null,"address":"秋田県秋田市中通4-13-2","place":"わらわら　秋田西口駅前店","lat":39.7157,"lon":140.127,"state":"active","id":null},{"event_id":"384260","title":"25歳から35歳限定「アラサーコンin盛岡」2018年6月2日(土) 19:00-21:30","url":"http://peatix.com/event/384260","shortener_url":null,"started_at":"2018-06-02T19:00:00.000+09:00","ended_at":"2018-06-04T23:59:59.000+09:00","limit_number":null,"address":"盛岡市菜園2-4-23 バーセル菜園 5F","place":"琥haku （コハク）","lat":39.7019,"lon":141.147,"state":"active","id":null},{"event_id":"384311","title":"安定男子限定「恋活友活パーティーin水戸」2018年6月10日(日) 15:00-17:30","url":"http://peatix.com/event/384311","shortener_url":null,"started_at":"2018-06-10T15:00:00.000+09:00","ended_at":"2018-06-12T23:59:59.000+09:00","limit_number":null,"address":"茨城県水戸市宮町1-7-31 エクセルみなみ6F","place":"パパゲーノ水戸","lat":36.3701,"lon":140.477,"state":"active","id":null},{"event_id":"384479","title":"「アラサーコンin甲府」2018年6月10日(日) 14:30-17:00","url":"http://peatix.com/event/384479","shortener_url":null,"started_at":"2018-06-10T14:30:00.000+09:00","ended_at":"2018-06-12T23:59:59.000+09:00","limit_number":null,"address":"甲府市 丸忠ビル 2階 6 6 1 Chuo","place":"魚民 甲府岡島百貨店前店","lat":35.6607,"lon":138.57,"state":"active","id":null},{"event_id":"384599","title":"25歳から35歳限定「アラサーコンin山形」2018年6月10日(日) 14:00-16:30","url":"http://peatix.com/event/384599","shortener_url":null,"started_at":"2018-06-10T14:00:00.000+09:00","ended_at":"2018-06-12T23:59:59.000+09:00","limit_number":null,"address":"山形市香澄町1丁目15−28 ホテルニュー最上屋","place":"魚民 山形駅前店","lat":38.2497,"lon":140.329,"state":"active","id":null},{"event_id":"384309","title":"25歳から35歳限定「アラサーパーティーin水戸」2018年6月9日(土) 19:00-21:30","url":"http://peatix.com/event/384309","shortener_url":null,"started_at":"2018-06-09T19:00:00.000+09:00","ended_at":"2018-06-11T23:59:59.000+09:00","limit_number":null,"address":"茨城県水戸市宮町1-7-31 エクセルみなみ6F","place":"パパゲーノ水戸","lat":36.3701,"lon":140.477,"state":"active","id":null},{"event_id":"384474","title":"「安定男子コンin茅ヶ崎」2018年6月10日(日) 14:30-17:00","url":"http://peatix.com/event/384474","shortener_url":null,"started_at":"2018-06-10T14:30:00.000+09:00","ended_at":"2018-06-12T23:59:59.000+09:00","limit_number":null,"address":"神奈川県茅ヶ崎市新栄町1-2 川上ビル4階","place":"山内農場　茅ヶ崎北口駅前店","lat":35.3304,"lon":139.405,"state":"active","id":null},{"event_id":"384537","title":"25歳から35歳限定「アラサーコンin盛岡」2018年6月9日(土) 19:00-21:30","url":"http://peatix.com/event/384537","shortener_url":null,"started_at":"2018-06-09T19:00:00.000+09:00","ended_at":"2018-06-11T23:59:59.000+09:00","limit_number":null,"address":"盛岡市菜園2-4-23 バーセル菜園 5F","place":"琥haku （コハク）","lat":39.7019,"lon":141.147,"state":"active","id":null},{"event_id":"383995","title":"25歳から35歳限定「アラサーコンinいわき」2018年6月9日(土) 19:30-22:00","url":"http://peatix.com/event/383995","shortener_url":null,"started_at":"2018-06-09T19:30:00.000+09:00","ended_at":"2018-06-11T23:59:59.000+09:00","limit_number":null,"address":"いわき市 平字田町1-1 レストランビル3F","place":"JAPANESE DINING 和民 いわき駅前店","lat":37.057,"lon":140.893,"state":"active","id":null},{"event_id":"384001","title":"「30代限定コンin郡山」2018年6月9日(土) 19:30-22:00","url":"http://peatix.com/event/384001","shortener_url":null,"started_at":"2018-06-09T19:30:00.000+09:00","ended_at":"2018-06-11T23:59:59.000+09:00","limit_number":null,"address":"郡山市中町10−10","place":"魚民 郡山中町店","lat":37.398,"lon":140.384,"state":"active","id":null},{"event_id":"384145","title":"30歳以上限定「恋STORYコンin宇都宮」2018年6月3日(日) 14:30-17:00","url":"http://peatix.com/event/384145","shortener_url":null,"started_at":"2018-06-03T14:30:00.000+09:00","ended_at":"2018-06-05T23:59:59.000+09:00","limit_number":null,"address":"宇都宮市東 宿郷2丁目4−1 ホテルマイステイズ宇都宮 1階","place":"魚民 宇都宮東口駅前店","lat":36.5582,"lon":139.901,"state":"active","id":null},{"event_id":"384157","title":"男女20代限定「社会人男子コンin金沢」2018年6月3日(日) 15:00-17:30","url":"http://peatix.com/event/384157","shortener_url":null,"started_at":"2018-06-03T15:00:00.000+09:00","ended_at":"2018-06-05T23:59:59.000+09:00","limit_number":null,"address":"石川県金沢市香林坊1‐1‐1 香林坊大和8F","place":"ブッフェレストラン「ザ・ダイニング　」","lat":36.563,"lon":136.654,"state":"active","id":null},{"event_id":"384265","title":"「旅行好き・ドライブ好き・アウトドア好きコンin青森」2018年6月3日(日) 14:00-16:30","url":"http://peatix.com/event/384265","shortener_url":null,"started_at":"2018-06-03T14:00:00.000+09:00","ended_at":"2018-06-05T23:59:59.000+09:00","limit_number":null,"address":"青森県青森市新町1-1-18 青森マルサビル 1F","place":"魚民 青森駅前店","lat":40.8281,"lon":140.736,"state":"active","id":null},{"event_id":"384385","title":"「安定男子コンin金沢」2018年6月9日(土) 19:00-21:00","url":"http://peatix.com/event/384385","shortener_url":null,"started_at":"2018-06-09T19:00:00.000+09:00","ended_at":"2018-06-11T23:59:59.000+09:00","limit_number":null,"address":"石川県金沢市香林坊1‐1‐1 香林坊大和8F","place":"ブッフェレストラン「ザ・ダイニング　」","lat":36.563,"lon":136.654,"state":"active","id":null},{"event_id":"384664","title":"第7回 #東北ブロガー会 ～PHPファイルチャレンジワークショップ～","url":"http://peatix.com/event/384664","shortener_url":null,"started_at":"2018-06-23T13:00:00.000+09:00","ended_at":"2018-06-25T23:59:59.000+09:00","limit_number":null,"address":"仙台市青葉区 中央2丁目2−10 仙都会舘ビル","place":"仙都会舘 貸し会議室","lat":38.2608,"lon":140.877,"state":"active","id":null},{"event_id":"384543","title":"Social x Web Mini-Hackathon #1 ~SDGsのランディングページが誰でも作れるようになるハッカソン","url":"http://peatix.com/event/384543","shortener_url":"https://goo.gl/hu4xKK","started_at":"2018-06-09T15:30:00.000+09:00","ended_at":"2018-06-11T23:59:59.000+09:00","limit_number":null,"address":"東京都杉並区高円寺北2-3-17","place":"ヴァル研究所","lat":35.7061,"lon":139.651,"state":"active","id":null},{"event_id":"385013","title":"Late Night with AiiA Improv","url":"http://junelatenightimprov.peatix.com","shortener_url":null,"started_at":"2018-06-28T22:00:00.000+09:00","ended_at":"2018-06-30T23:59:59.000+09:00","limit_number":null,"address":"24, Lorong Rahim Kajai 14, Taman Tun Dr Ismail, 60000 Kuala Lumpur, Wilayah Persekutuan Kuala Lumpur, Malaysia","place":"The Crackhouse Comedy Club KL","lat":3.15474,"lon":101.623,"state":"active","id":null},{"event_id":"384111","title":"Hack My Tsukuba #1","url":"http://htm1.peatix.com","shortener_url":null,"started_at":"2018-06-02T10:00:00.000+09:00","ended_at":"2018-06-04T23:59:59.000+09:00","limit_number":null,"address":"つくば市研究学園1丁目1番地1","place":"つくば市役所　2階　202・203会議室","lat":36.0836,"lon":140.075,"state":"active","id":null},{"event_id":"384712","title":"アニメ好きの街コン「ちょっと大人のアニコンin静岡」2018年6月10日(日) 15:00-17:30","url":"http://peatix.com/event/384712","shortener_url":null,"started_at":"2018-06-10T15:00:00.000+09:00","ended_at":"2018-06-12T23:59:59.000+09:00","limit_number":null,"address":"静岡県静岡市葵区御幸町8-3","place":"豊後高田どり酒場　静岡北口駅前店","lat":34.9732,"lon":138.387,"state":"active","id":null},{"event_id":"384720","title":"「旅行好き・ドライブ好き・アウトドア好きコンin福島」2018年6月10日(日) 14:00-16:30","url":"http://peatix.com/event/384720","shortener_url":null,"started_at":"2018-06-10T14:00:00.000+09:00","ended_at":"2018-06-12T23:59:59.000+09:00","limit_number":null,"address":"福島市 栄町11-30 ゼビオビル 地下1","place":"笑笑 福島東口駅前店","lat":37.754,"lon":140.463,"state":"active","id":null},{"event_id":"384716","title":"「30代限定コンin盛岡」2018年6月10日(日) 14:00-16:30","url":"http://peatix.com/event/384716","shortener_url":null,"started_at":"2018-06-10T14:00:00.000+09:00","ended_at":"2018-06-12T23:59:59.000+09:00","limit_number":null,"address":"盛岡市菜園2-4-23","place":"琥haku （コハク）","lat":39.7019,"lon":141.147,"state":"active","id":null},{"event_id":"74680","title":"Startup Weekend Tokyo :: Micro Edition #11","url":"https://swtokyo.doorkeeper.jp/events/74680","shortener_url":null,"started_at":"2018-06-29T18:30:00.000+09:00","ended_at":"2018-07-01T21:30:00.000+09:00","limit_number":null,"address":"東京都新宿区高田馬場1-28-10 三慶ビル4F","place":"Green Room in CASE-Shinjuku","lat":35.7122,"lon":139.705,"state":"active","id":null},{"event_id":"381868","title":"MATC 第３回目イベント「働き方」について考えてみる！","url":"http://peatix.com/event/381868","shortener_url":null,"started_at":"2018-06-13T19:00:00.000+09:00","ended_at":"2018-06-15T23:59:59.000+09:00","limit_number":null,"address":"〒107-6034 東京都港区赤坂1丁目12番32号 アーク森ビル34階","place":"株式会社アイスタイル","lat":35.6671,"lon":139.74,"state":"active","id":null},{"event_id":"385273","title":"初心者向け大喜利体験スポット『ひなどり』 6/14(木)19:30～【毎週 第2･第4 木曜】","url":"http://peatix.com/event/385273","shortener_url":null,"started_at":"2018-06-14T19:30:00.000+09:00","ended_at":"2018-06-16T23:59:59.000+09:00","limit_number":null,"address":"東京都新宿区西新宿7-1-7","place":"『ひなどり』新宿ダイカン教室(新宿ダイカンビルＡ館 1109号室)","lat":35.6945,"lon":139.699,"state":"active","id":null},{"event_id":"385279","title":"初心者向け大喜利体験スポット『ひなどり』 6/28(木)19:30～今回のテーマは「ひねる」。【毎週 第2･第4 木曜】","url":"http://peatix.com/event/385279","shortener_url":null,"started_at":"2018-06-28T19:30:00.000+09:00","ended_at":"2018-06-30T23:59:59.000+09:00","limit_number":null,"address":"東京都新宿区西新宿7-1-7","place":"『ひなどり』新宿ダイカン教室(新宿ダイカンビルＡ館 1109号室)","lat":35.6945,"lon":139.699,"state":"active","id":null},{"event_id":"385773","title":"[StartupJohor Academy] MEAN Stack Beginner Workshop - Introduction to Full Stack Development in Javascript","url":"http://startupjohoracademy01.peatix.com","shortener_url":null,"started_at":"2018-06-02T10:00:00.000+09:00","ended_at":"2018-06-04T23:59:59.000+09:00","limit_number":null,"address":"Unit 02-02, Lvl 2, Cimb Leadership Academy,, No 3, Jalan Medini Utara 1, Medini Iskandar, Iskandar Puteri","place":"IskandarSpace","lat":1.42636,"lon":103.634,"state":"active","id":null},{"event_id":"385506","title":"【edoARTworkshop】和のこころを結ぶ 水引体験 ～相生結びのアクセサリー・セット（ピアス or イヤリング + ネックレス）づくり","url":"http://edoart0630am.peatix.com","shortener_url":null,"started_at":"2018-06-30T10:30:00.000+09:00","ended_at":"2018-07-02T23:59:59.000+09:00","limit_number":null,"address":"東京都台東区西浅草2-6-2","place":"かっぱ橋道具街 はし藤 ２F","lat":35.7127,"lon":139.789,"state":"active","id":null},{"event_id":"385298","title":"【平日開催】2ヶ月みっちり国内留学！英語で英語を学ぶ、大人のための本格英語講座（留学前の学生さんにもぴったり)","url":"http://peatix.com/event/385298","shortener_url":null,"started_at":"2018-06-11T14:00:00.000+09:00","ended_at":"2018-06-13T23:59:59.000+09:00","limit_number":null,"address":"東京都港区元麻布3-1-35 地下2階","place":"六本木 The P@rk","lat":35.658,"lon":139.728,"state":"active","id":null},{"event_id":"381887","title":"VYS621 YOGA MATSURI,  International Day of Yoga Event","url":"http://2018vys621shibuyaenglish.peatix.com","shortener_url":null,"started_at":"2018-06-21T10:30:00.000+09:00","ended_at":"2018-06-23T23:59:59.000+09:00","limit_number":null,"address":"1-40-18, Nishihara, Shibuya-ku","place":"Shibuya-ku Sports Center  Athletic ground [outdoor]　  *Indoor gyms in case of rain","lat":35.6756,"lon":139.681,"state":"active","id":null},{"event_id":"384932","title":"スタンドアロンVRハッカソン","url":"http://standalonevrhack2018.peatix.com","shortener_url":"https://goo.gl/7NCQsP","started_at":"2018-06-09T09:00:00.000+09:00","ended_at":"2018-06-11T23:59:59.000+09:00","limit_number":null,"address":"東京都品川区上大崎2-13-30","place":"アカツキ","lat":35.6343,"lon":139.718,"state":"active","id":null},{"event_id":"385894","title":"質問づくりQFT × 2030SDGsカードゲーム ハテナソン IN 東京新宿","url":"http://peatix.com/event/385894","shortener_url":null,"started_at":"2018-06-23T17:30:00.000+09:00","ended_at":"2018-06-25T23:59:59.000+09:00","limit_number":null,"address":"東京都新宿区新宿5丁目11-13","place":"博雅ビル４階403号室","lat":35.6933,"lon":139.707,"state":"active","id":null},{"event_id":"386333","title":"ANIMAL PARTY!(SAT) アニマル・パーティー！（土）","url":"http://peatix.com/event/386333","shortener_url":null,"started_at":"2018-06-16T19:00:00.000+09:00","ended_at":"2018-06-18T23:59:59.000+09:00","limit_number":null,"address":"東京都港区六本木3-14-9 ユア六本木2F","place":"Bar Propaganda (2F)","lat":35.6623,"lon":139.735,"state":"active","id":null},{"event_id":"97070","title":"Dear Venus Marche - ディア ヴィーナス マルシェ - Vol.1","url":"https://atnd.org/events/97070","shortener_url":null,"started_at":"2018-06-06T01:00:00.000+09:00","ended_at":"2018-06-06T07:00:00.000+09:00","limit_number":null,"address":"東京都八王子市横山町9-10","place":"古民家ダイニング　となりわ","lat":35.6596,"lon":139.336,"state":"closed","id":null},{"event_id":"382598","title":"春風亭一之輔師出演 「第13回 明治屋おいしい落語会」～ルーツは“明治時代”「缶詰」×「のど飴」と「落語」のコラボレーションイベント～★お土産＆試食付★","url":"http://meidiya-oishirakugokai13.peatix.com","shortener_url":null,"started_at":"2018-06-20T19:00:00.000+09:00","ended_at":"2018-06-22T23:59:59.000+09:00","limit_number":null,"address":"東京都中央区京橋2-2-8 明治屋本社ビル 7F","place":"明治屋ホール","lat":35.6774,"lon":139.77,"state":"active","id":null},{"event_id":"384199","title":"【無料招待】TMO RUN（ランニングイベント）","url":"http://tmo2018run.peatix.com","shortener_url":null,"started_at":"2018-06-10T10:00:00.000+09:00","ended_at":"2018-06-12T23:59:59.000+09:00","limit_number":null,"address":"渋谷区宇田川町13−17 2F ライズビル","place":"渋谷WWW X","lat":35.6615,"lon":139.699,"state":"active","id":null},{"event_id":"386327","title":"DANCE ALL NIGHT PARTY! (SAT) ダンス・オール・ナイト パーティー！（土）","url":"http://peatix.com/event/386327","shortener_url":null,"started_at":"2018-06-09T19:00:00.000+09:00","ended_at":"2018-06-11T23:59:59.000+09:00","limit_number":null,"address":"東京都港区六本木3-14-9 ユア六本木2F","place":"Bar Propaganda (2F)","lat":35.6623,"lon":139.735,"state":"active","id":null},{"event_id":"386326","title":"DANCE ALL NIGHT PARTY! (FRI) ダンス・オール・ナイト パーティー！（金）","url":"http://peatix.com/event/386326","shortener_url":null,"started_at":"2018-06-08T19:00:00.000+09:00","ended_at":"2018-06-10T23:59:59.000+09:00","limit_number":null,"address":"東京都港区六本木3-14-9 ユア六本木2F","place":"Bar Propaganda (2F)","lat":35.6623,"lon":139.735,"state":"active","id":null},{"event_id":"386332","title":"ANIMAL PARTY! (FRI) アニマル・パーティー！（金）","url":"http://peatix.com/event/386332","shortener_url":null,"started_at":"2018-06-15T19:00:00.000+09:00","ended_at":"2018-06-17T23:59:59.000+09:00","limit_number":null,"address":"東京都港区六本木3-14-9 ユア六本木2F","place":"Bar Propaganda (2F)","lat":35.6623,"lon":139.735,"state":"active","id":null},{"event_id":"386946","title":"Crackhouse Comedy Presents : Joanne Kam (Malaysia)","url":"http://peatix.com/event/386946","shortener_url":null,"started_at":"2018-06-01T22:00:00.000+09:00","ended_at":"2018-06-03T23:59:59.000+09:00","limit_number":null,"address":"24A (1st Floor) Lorong Rahim Kajai 14, Taman Tun Dr. Ismail, 60000 Kuala Lumpur","place":"The Crackhouse Comedy Club KL","lat":3.15478,"lon":101.623,"state":"active","id":null},{"event_id":"386951","title":"The Comedy Death Race #2 hosted by Rizal van Geyzel","url":"http://comedydeathrace2.peatix.com","shortener_url":null,"started_at":"2018-06-25T22:00:00.000+09:00","ended_at":"2018-06-27T23:59:59.000+09:00","limit_number":null,"address":"24A Lorong Rahim Kajai 14, Taman Tun Dr. Ismail, 60000 Kuala Lumpur","place":"Crackhouse Comedy Club Kuala Lumpur","lat":3.15474,"lon":101.623,"state":"active","id":null},{"event_id":"74691","title":"テクノロジーで教育の課題を解決しよう！未来の教育アイデアソン ~EdTech Ideathon","url":"https://future-tech-association.doorkeeper.jp/events/74691","shortener_url":"https://goo.gl/TsYREq","started_at":"2018-06-13T19:00:00.000+09:00","ended_at":"2018-06-13T22:00:00.000+09:00","limit_number":20,"address":"東京都品川区東五反田2-10-2 東五反田スクエア 13F","place":"DEJIMA","lat":35.6248,"lon":139.727,"state":"active","id":null},{"event_id":"386177","title":"Playground Masters: A Hackathon for Teens","url":"http://playgroundhackathon.peatix.com","shortener_url":"https://goo.gl/fso2g3","started_at":"2018-06-09T14:00:00.000+09:00","ended_at":"2018-06-11T23:59:59.000+09:00","limit_number":null,"address":"93 Stamford Rd, Singapore 178897","place":"Various Venues","lat":1.29661,"lon":103.849,"state":"active","id":null},{"event_id":"386553","title":"“なにする︖わかやま。”移住フェア 〜あなたの「したい!」を和歌⼭で。〜","url":"http://peatix.com/event/386553","shortener_url":null,"started_at":"2018-06-10T11:00:00.000+09:00","ended_at":"2018-06-12T23:59:59.000+09:00","limit_number":null,"address":"東京都千代⽥区有楽町2­10­1 東京交通会館12F","place":"東京交通会館 ダイヤモンドホール ","lat":0.0,"lon":0.0,"state":"active","id":null},{"event_id":"387131","title":"Iftar (Breakfast) with Migrant Workers","url":"http://migrantiftar.peatix.com","shortener_url":null,"started_at":"2018-06-03T19:00:00.000+09:00","ended_at":"2018-06-05T23:59:59.000+09:00","limit_number":null,"address":"5 Jalan Papan, Singapore","place":"Westlite Papan","lat":1.32212,"lon":103.728,"state":"active","id":null},{"event_id":"386211","title":"親子で参加！ファミリーミュージックセッション/ Atlya参宮橋","url":"http://atlya-co-32.peatix.com","shortener_url":null,"started_at":"2018-06-16T11:00:00.000+09:00","ended_at":"2018-06-18T23:59:59.000+09:00","limit_number":null,"address":"東京都渋谷区代々木4-50-13-1F","place":"Atlya参宮橋","lat":0.0,"lon":0.0,"state":"active","id":null},{"event_id":"386179","title":"YAKUMO Candle Night2018","url":"http://yakumocandle.peatix.com","shortener_url":null,"started_at":"2018-06-16T12:00:00.000+09:00","ended_at":"2018-06-18T23:59:59.000+09:00","limit_number":null,"address":"北海道二海郡八雲町立岩359-13","place":"遊楽部公園  (雨天決行)","lat":42.2609,"lon":140.255,"state":"active","id":null},