[{"event_id":"370786","title":"会社説明会という名のゲームクリエイターセミナーIN東京2018","url":"http://peatix.com/event/370786","shortener_url":null,"started_at":"2018-10-13T21:00:00.000+09:00","ended_at":"2018-10-16T08:59:59.000+09:00","limit_number":null,"address":"千代田区一ツ橋2丁目6−2 日本教育会館3F","place":"一ツ橋ホール","lat":35.6943,"lon":139.756,"state":"active","id":null},{"event_id":"392433","title":"★ドネーションチケット★　ワールドワークLABOの活動を応援しよう！〜葛藤・対立を変容させていくための対話促進アプローチ〜","url":"http://wwlabodonation2018.peatix.com","shortener_url":null,"started_at":"2018-10-06T12:00:00.000+09:00","ended_at":"2018-10-09T08:59:59.000+09:00","limit_number":null,"address":"長野県","place":"ドネーションチケット","lat":36.6513,"lon":138.181,"state":"active","id":null},{"event_id":"383326","title":"ワールドワーク　〜葛藤・対立を変容させていくための対話促進アプローチ〜「ジェンダー・セクシュアリティ」をめぐる様々な声 (2018)","url":"http://worldworkgender2018.peatix.com","shortener_url":null,"started_at":"2018-10-06T22:00:00.000+09:00","ended_at":"2018-10-09T08:59:59.000+09:00","limit_number":null,"address":"山梨県北杜市高根町清里3545","place":"キープ協会　清泉寮　ハリスホール","lat":35.9125,"lon":138.44,"state":"active","id":null},{"event_id":"391501","title":"美少女ゲーム楽曲オンリーDJイベント「R-18DAY V.I.P. vol.3」","url":"http://r18vipvol3.peatix.com","shortener_url":null,"started_at":"2018-10-21T14:30:00.000+09:00","ended_at":"2018-10-24T08:59:59.000+09:00","limit_number":null,"address":"岡山市北区表町3丁目12−12","place":"ブルー・ブルース","lat":34.6581,"lon":133.929,"state":"active","id":null},{"event_id":"401219","title":"October Success Academy (English)","url":"http://sa-10.peatix.com","shortener_url":null,"started_at":"2018-10-27T10:00:00.000+09:00","ended_at":"2018-10-30T08:59:59.000+09:00","limit_number":null,"address":"5 Coleman Street","place":"Peninsula Excelsior Hotel","lat":1.29193,"lon":103.85,"state":"active","id":null},{"event_id":"374985","title":"Shinoharu English Rakugo in Fukagawa Ⅵ","url":"http://english1010.peatix.com","shortener_url":null,"started_at":"2018-10-11T04:30:00.000+09:00","ended_at":"2018-10-13T08:59:59.000+09:00","limit_number":null,"address":"江東区白河1丁目3−28","place":"深川江戸資料館 小劇場","lat":35.6812,"lon":139.801,"state":"active","id":null},{"event_id":"403105","title":"10/28(日)festivo SEO Camp@東京【9,000円】～SEOの全体像をつかむ！基礎概要から内部対策、キーワードやコンテンツの作り方など、実践スキルを学ぶ7時間！～","url":"http://peatix.com/event/403105","shortener_url":"https://goo.gl/XdzYGG","started_at":"2018-10-28T10:30:00.000+09:00","ended_at":"2018-10-31T08:59:59.000+09:00","limit_number":null,"address":"東京都新宿区高田馬場1-28-10 三慶ビル4F","place":"CASE Shinjuku（ケイスシンジュク）","lat":35.7122,"lon":139.705,"state":"active","id":null},{"event_id":"77082","title":"スタンフォード大学d.Schoolのインストラクターが教えるデザイン思考ワークショップ","url":"https://designthinking.doorkeeper.jp/events/77082","shortener_url":null,"started_at":"2018-10-24T09:30:00.000+09:00","ended_at":"2018-10-25T17:00:00.000+09:00","limit_number":56,"address":"東京都千代田区大手町1丁目9-2  大手町フィナンシャルシティ  グランキューブ3F","place":"Global Business Hub Tokyo","lat":35.6885,"lon":139.765,"state":"active","id":null},{"event_id":"405663","title":"H³ 第十七回：医療者のためのプロトタイピング入門","url":"http://hhh17.peatix.com","shortener_url":"https://goo.gl/NW55Tf","started_at":"2018-10-18T19:00:00.000+09:00","ended_at":"2018-10-21T08:59:59.000+09:00","limit_number":null,"address":"東京都中央区日本橋本町2-3-11","place":" 日本橋ライフサイエンスビル","lat":35.6877,"lon":139.776,"state":"active","id":null},{"event_id":"76959","title":"【第6回】Startup Weekend 浜松","url":"https://startupweekend-hamamatsu.doorkeeper.jp/events/76959","shortener_url":null,"started_at":"2018-10-06T03:00:00.000+09:00","ended_at":"2018-10-08T06:00:00.000+09:00","limit_number":60,"address":"〒432-8011 静岡県浜松市中区城北 3丁目-5 国立静岡大学浜松キャンパス 5-1","place":"静岡大学 高柳記念未来技術創造館","lat":34.7241,"lon":137.719,"state":"active","id":null},{"event_id":"402788","title":"横山 博 \u0026 小山 啓久 ジョイント・コンサート","url":"http://koyamayokoyama.peatix.com","shortener_url":null,"started_at":"2018-10-28T16:00:00.000+09:00","ended_at":"2018-10-31T08:59:59.000+09:00","limit_number":null,"address":"栃木県鹿沼市戸張町2491","place":"カトリック鹿沼教会","lat":36.5704,"lon":139.747,"state":"active","id":null},{"event_id":"411682","title":"魚沼倫理法人会　倫理経営の形見本に学ぶ会【「日本一幸せな従業員をつくる　～ホテルアソシア名古屋ターミナルの挑戦～」映画上映会】","url":"http://rinri-uonuma20181030.peatix.com","shortener_url":null,"started_at":"2018-10-30T18:00:00.000+09:00","ended_at":"2018-11-02T08:59:59.000+09:00","limit_number":null,"address":"魚沼市干溝1848−1","place":"小出郷文化会館","lat":37.2139,"lon":138.976,"state":"active","id":null},{"event_id":"411669","title":"10月20日（土）ソロビズ「起業の適性検査」カフェVer.","url":"http://181020cafe.peatix.com","shortener_url":null,"started_at":"2018-10-20T18:10:00.000+09:00","ended_at":"2018-10-23T08:59:59.000+09:00","limit_number":null,"address":"横浜市中区海岸通1-1","place":"波止場会館　４F小会議室Ａ","lat":35.4483,"lon":139.645,"state":"active","id":null},{"event_id":"412120","title":"9月30日(日)18:00～★ 麻布十番 シャンデリアの下で旅行好き集まれGaitomo国際交流パーティー","url":"http://peatix.com/event/412120","shortener_url":null,"started_at":"2018-10-01T03:00:00.000+09:00","ended_at":"2018-10-03T08:59:59.000+09:00","limit_number":null,"address":"港区麻布十番1丁目9−2 7F 麻布十番ビル","place":"SPUTNIK LOUNGE","lat":35.6564,"lon":139.735,"state":"active","id":null},{"event_id":"96556","title":"中止　Watsonで拡がる！Unityアプリ開発勉強会 in 広島","url":"https://hirouni.connpass.com/event/96556/","shortener_url":"https://goo.gl/skk2Ns","started_at":"2018-10-07T22:00:00.000+09:00","ended_at":"2018-10-08T03:00:00.000+09:00","limit_number":45,"address":"広島県広島市中区紙屋町1-4-3(エフケイビル1F)","place":"イノベーション・ハブ・ひろしまCamps","lat":34.3941,"lon":132.459,"state":"active","id":null},{"event_id":"90911","title":"VTuberハッカソン広島に向けて、モーションキャプチャーを勉強しよう！","url":"https://hsc.connpass.com/event/90911/","shortener_url":"https://goo.gl/sWAouq","started_at":"2018-10-07T19:00:00.000+09:00","ended_at":"2018-10-08T03:00:00.000+09:00","limit_number":35,"address":"広島市中区紙屋町1-4-3 エフケイビル1F","place":"イノベーション・ハブ・ひろしまCamps","lat":34.3941,"lon":132.459,"state":"active","id":null},{"event_id":"411649","title":"第52回こんぼ亭月例会｢親なき後に備える－生活編－　地域で暮らす生活力を高める｣","url":"http://peatix.com/event/411649","shortener_url":null,"started_at":"2018-10-27T13:00:00.000+09:00","ended_at":"2018-10-30T08:59:59.000+09:00","limit_number":null,"address":"東京都品川区中延1-9-15","place":"荏原文化センター大ホール(東京都品川区)","lat":35.6122,"lon":139.711,"state":"active","id":null},{"event_id":"416545","title":"関西【10/19(金)夜7:30】自分史上最高にSEXYな1枚を撮る「秘めフォト部」！新しく「SEXY」な自分を見つけて明日に自信を持つための女性限定フォトサービス！《10名様限定／初めての方大歓迎》","url":"http://peatix.com/event/416545","shortener_url":null,"started_at":"2018-10-19T19:30:00.000+09:00","ended_at":"2018-10-22T08:59:59.000+09:00","limit_number":null,"address":"京都府京都市東山区博多町112−5","place":"京都天狼院","lat":35.0017,"lon":135.773,"state":"active","id":null},{"event_id":"78425","title":"Startup Weekend Kashiwa Vol.2 IoT @KOIL","url":"https://swkashiwa.doorkeeper.jp/events/78425","shortener_url":null,"started_at":"2018-10-06T03:30:00.000+09:00","ended_at":"2018-10-08T06:00:00.000+09:00","limit_number":40,"address":"千葉県柏市若柴178 番地4 柏の葉キャンパス148 街区2 ショップ\u0026オフィス棟6階","place":" 31 VENTURES KOIL KOILスタジオ ","lat":35.8951,"lon":139.952,"state":"active","id":null},{"event_id":"416657","title":"ランニングマガジン・クリール サブ３＆310＆3.5達成企画　第２弾”通い合宿”＠東京","url":"http://alaplustokyotraining.peatix.com","shortener_url":null,"started_at":"2018-10-13T18:30:00.000+09:00","ended_at":"2018-10-16T08:59:59.000+09:00","limit_number":null,"address":"足立区千住桜木2-2-1","place":"帝京科学大学千住キャンパス　陸上トラック　ほか","lat":35.7536,"lon":139.79,"state":"active","id":null},{"event_id":"418407","title":"（福岡）10/27(土)~28(日)festivo はじめてのフレームワーク（Laravel）Camp【学生15,000円、一般20,000円】～早く効率的なWEB開発スキルを手に入れる！フレームワークを学ぶ15時間の集中合宿！～","url":"http://peatix.com/event/418407","shortener_url":"https://goo.gl/vxNpJj","started_at":"2018-10-27T10:00:00.000+09:00","ended_at":"2018-10-30T08:59:59.000+09:00","limit_number":null,"address":"福岡県福岡市博多区博多駅東1-12-17","place":"スタートアップカフェ Bases福岡・博多店（ベイシズ）","lat":33.5909,"lon":130.423,"state":"active","id":null},{"event_id":"78115","title":"【初開催】StartupWeekend加賀","url":"https://swkaga.doorkeeper.jp/events/78115","shortener_url":null,"started_at":"2018-10-13T03:00:00.000+09:00","ended_at":"2018-10-15T05:00:00.000+09:00","limit_number":70,"address":"石川県加賀市山代温泉温泉通24","place":"CoworkingCafe山代コドン","lat":36.2916,"lon":136.363,"state":"active","id":null},{"event_id":"78703","title":"10/28(日)festivo SEO Camp@東京【9,000円】～SEOの全体像をつかむ！基礎概要から内部対策、キーワードやコンテンツの作り方など、実践スキルを学ぶ7時間！～","url":"https://festivo.doorkeeper.jp/events/78703","shortener_url":"https://goo.gl/UuwEs9","started_at":"2018-10-28T10:30:00.000+09:00","ended_at":"2018-10-28T18:30:00.000+09:00","limit_number":12,"address":"東京都新宿区高田馬場1-28-10 三慶ビル4F","place":"CASE Shinjuku（ケイスシンジュク）","lat":35.7122,"lon":139.705,"state":"active","id":null},{"event_id":"380074","title":"VPC・BMCからの企画提案書作成合宿","url":"http://bmiawriting002.peatix.com","shortener_url":"https://goo.gl/B4yyrc","started_at":"2018-10-20T10:30:00.000+09:00","ended_at":"2018-10-23T08:59:59.000+09:00","limit_number":null,"address":"〒562-0027 大阪府箕面市石丸2丁目11−1","place":"サントリー箕面総合トレーニングセンター","lat":34.8401,"lon":135.496,"state":"active","id":null},{"event_id":"421573","title":"10/20(土)~21(日)festivo WordPressオリジナルテーマ制作 Camp@東京【学生15,000円、一般20,000円】～WEBサイトのWordPress化を学ぶ15時間！PHPプログラミングステップアップ集中合宿！！～","url":"http://peatix.com/event/421573","shortener_url":"https://goo.gl/tMR6w2","started_at":"2018-10-20T10:00:00.000+09:00","ended_at":"2018-10-23T08:59:59.000+09:00","limit_number":null,"address":"東京都練馬区豊玉北3-15-17","place":"起業家シェアハウス x-garden セミナールーム","lat":35.7329,"lon":139.661,"state":"active","id":null},{"event_id":"419782","title":"Indigitous #HACK 2018 Singapore","url":"http://hack2018.peatix.com","shortener_url":null,"started_at":"2018-10-19T20:00:00.000+09:00","ended_at":"2018-10-22T08:59:59.000+09:00","limit_number":null,"address":"451 Joo Chiat Rd, Singapore 427664","place":"MOX | Katong Point | #03-02 |","lat":1.30692,"lon":103.905,"state":"active","id":null},{"event_id":"421835","title":"【大阪開催】モノづくりに興味があるあなたへ　「やりたいことで生きていく」移住者農家が語る島暮らしのリアル　〜DUAL LIFE SCHOOL by 島\u0026都市デュアル〜","url":"http://dualschool-kod2.peatix.com","shortener_url":null,"started_at":"2018-10-14T02:00:00.000+09:00","ended_at":"2018-10-16T08:59:59.000+09:00","limit_number":null,"address":"大阪市浪速区浪速区浪速東1丁目2−3","place":"芦原橋SALTVALLEY ソルトバレー","lat":34.6586,"lon":135.49,"state":"active","id":null},{"event_id":"78535","title":"《大阪開催》【10/13（土）開講！第6期生募集】データ分析教育講座《10−12月》","url":"https://soleildatadojo.doorkeeper.jp/events/78535","shortener_url":null,"started_at":"2018-10-13T19:00:00.000+09:00","ended_at":"2018-12-23T02:10:00.000+09:00","limit_number":15,"address":"大阪府大阪市北区西天満2−5−3(堂島深川ビル3F)","place":"Scrrible Osaka Lab（大阪メトロ御堂筋線「淀屋橋」駅より徒歩4分／京阪電鉄中之島線「大江橋」駅徒歩2分）","lat":34.6951,"lon":135.502,"state":"active","id":null},{"event_id":"418500","title":"ならは”結”versity2018「まちづくりってなんだろう？」","url":"http://narahayuiversity.peatix.com","shortener_url":null,"started_at":"2018-10-06T23:00:00.000+09:00","ended_at":"2018-10-09T08:59:59.000+09:00","limit_number":null,"address":"福島県双葉郡楢葉町大字北田字中満260","place":"みんなの交流館ならはCANvas","lat":37.279,"lon":140.999,"state":"active","id":null},{"event_id":"417145","title":"BTY LIVE 2018 in Sapporo vol.2","url":"http://btylive2018-sapporo2.peatix.com","shortener_url":null,"started_at":"2018-10-15T00:30:00.000+09:00","ended_at":"2018-10-17T08:59:59.000+09:00","limit_number":null,"address":"札幌市北区北18条西5丁目2番30号","place":"聖光寺","lat":43.0825,"lon":141.344,"state":"active","id":null},{"event_id":"415772","title":"デュエル・マスターズ グランプリ-7th","url":"http://dmgp7thpre-register.peatix.com","shortener_url":null,"started_at":"2018-10-09T21:00:00.000+09:00","ended_at":"2018-10-12T08:59:59.000+09:00","limit_number":null,"address":"京都市伏見区竹田鳥羽殿町5","place":"京都府総合見本市会館 京都パルスプラザ","lat":34.9473,"lon":135.751,"state":"active","id":null},{"event_id":"417424","title":"10/4(Thu) Shibuya Japanese Sake Night","url":"http://peatix.com/event/417424","shortener_url":null,"started_at":"2018-10-05T04:00:00.000+09:00","ended_at":"2018-10-07T08:59:59.000+09:00","limit_number":null,"address":"東京都渋谷区円山町1-1","place":"NCREDIBLE","lat":35.6598,"lon":139.695,"state":"active","id":null},{"event_id":"418372","title":"10/8(Mon) 20s Social Meetup Shibuya","url":"http://peatix.com/event/418372","shortener_url":null,"started_at":"2018-10-08T23:00:00.000+09:00","ended_at":"2018-10-11T08:59:59.000+09:00","limit_number":null,"address":"Ichiban Bld. 3F 1-3-11 Dogenzaka Shibuya-ku Tokyo","place":"Hobgoblin Shibuya","lat":0.0,"lon":0.0,"state":"active","id":null},{"event_id":"417495","title":"10/6(土) にほんごナイト@青山 / Nihongo Night in Aoyama","url":"http://peatix.com/event/417495","shortener_url":null,"started_at":"2018-10-07T04:00:00.000+09:00","ended_at":"2018-10-09T08:59:59.000+09:00","limit_number":null,"address":"東京都港区南青山5-10-1 H2 AOYAMA BLDG B1","place":"eragu","lat":0.0,"lon":0.0,"state":"active","id":null},{"event_id":"417405","title":"10/3(Wed)Spanish Meetup in Nishi-Shinjuku","url":"http://peatix.com/event/417405","shortener_url":null,"started_at":"2018-10-04T04:00:00.000+09:00","ended_at":"2018-10-06T08:59:59.000+09:00","limit_number":null,"address":"東京都新宿区西新宿8-19-11","place":"KASHIWAGI CAFE ","lat":35.6956,"lon":139.691,"state":"active","id":null},{"event_id":"418370","title":"10/8(月) 20代の英会話@渋谷 / 20's Social Meetup in Shibuya","url":"http://peatix.com/event/418370","shortener_url":null,"started_at":"2018-10-08T23:00:00.000+09:00","ended_at":"2018-10-11T08:59:59.000+09:00","limit_number":null,"address":"東京都渋谷区道玄坂1-3-11","place":"Hobgoblin Shibuya","lat":35.6583,"lon":139.7,"state":"active","id":null},{"event_id":"421683","title":"The Art of Deep Listening - Theme: Child, Father, Mother","url":"http://deeplistening.peatix.com","shortener_url":null,"started_at":"2018-10-16T20:15:00.000+09:00","ended_at":"2018-10-19T08:59:59.000+09:00","limit_number":null,"address":"112 Telok Ayer Street","place":"Bakery \u0026 Bar","lat":1.28206,"lon":103.848,"state":"active","id":null},{"event_id":"417034","title":"Comedy Masala ft. SEAN PATTON (USA) | as seen on CONAN, Showtime \u0026 LATE NIGHT WITH JIMMY FALLON | **First Ever Performance in Singapore**","url":"http://seanpatton.peatix.com","shortener_url":null,"started_at":"2018-10-23T21:00:00.000+09:00","ended_at":"2018-10-26T08:59:59.000+09:00","limit_number":null,"address":"69 Circular Road, Boat Quay, Singapore 049423","place":"HERO'S, 69 Circular Road, Singapore 049423","lat":1.28641,"lon":103.849,"state":"active","id":null},{"event_id":"417031","title":"**ADULTS ONLY** | Comedy Masala presents: SHAGGERS - The Worldwide Hit Comedy Show about Sex! Created by NIK COPPIN (UK)","url":"http://shaggersbynikcoppin.peatix.com","shortener_url":null,"started_at":"2018-10-16T21:00:00.000+09:00","ended_at":"2018-10-19T08:59:59.000+09:00","limit_number":null,"address":"69 Circular Road, Boat Quay, Singapore 049423","place":"HERO'S, 69 Circular Road, Singapore 049423","lat":1.28641,"lon":103.849,"state":"active","id":null},{"event_id":"416553","title":"[Show #1] - World's Oldest Performing Female Stand-Up Comedian | Comedy Masala ft. LYNN RUTH MILLER (USA)","url":"http://lynnmiller.peatix.com","shortener_url":null,"started_at":"2018-10-30T21:00:00.000+09:00","ended_at":"2018-11-02T08:59:59.000+09:00","limit_number":null,"address":"69 Circular Road, Boat Quay, Singapore 049423","place":"HERO'S, 69 Circular Road, Singapore 049423","lat":1.28641,"lon":103.849,"state":"active","id":null},{"event_id":"417403","title":"10/3(水) スペイン語交流会@西新宿 / Spanish Meetup in Nishi-Shinjuku","url":"http://peatix.com/event/417403","shortener_url":null,"started_at":"2018-10-04T04:00:00.000+09:00","ended_at":"2018-10-06T08:59:59.000+09:00","limit_number":null,"address":"8-19-11 NishiShinjuku Shinjuku-ku Tokyo","place":"KASHIWAGI CAFE","lat":35.6956,"lon":139.691,"state":"active","id":null},{"event_id":"420052","title":"ワークショップデザイナー育成プログラム2000人突破！！記念講演　立教大学教授　中原 淳氏登壇","url":"http://tagensympo181007.peatix.com","shortener_url":null,"started_at":"2018-10-07T22:30:00.000+09:00","ended_at":"2018-10-10T08:59:59.000+09:00","limit_number":null,"address":"東京都渋谷区渋谷4-4-25","place":"青山学院大学　青山キャンパス　14号館　大会議室","lat":35.6608,"lon":139.71,"state":"active","id":null},{"event_id":"392343","title":"関西【10 /24(水)朝10:00】自分史上最高にSEXYな1枚を撮る「秘めフォト部」！新しく「SEXY」な自分を見つけて明日に自信を持つための女性限定フォトサービス！《10名様限定／初めての方大歓迎》","url":"http://peatix.com/event/392343","shortener_url":null,"started_at":"2018-10-24T10:00:00.000+09:00","ended_at":"2018-10-27T08:59:59.000+09:00","limit_number":null,"address":"京都府京都市東山区博多町112−5","place":"京都天狼院","lat":35.0017,"lon":135.773,"state":"active","id":null},{"event_id":"416377","title":"①聴こえる！即効リスニング1DAYインストール ②英語\"自動化トレーニング\" in 大阪","url":"http://peatix.com/event/416377","shortener_url":null,"started_at":"2018-10-06T19:30:00.000+09:00","ended_at":"2018-10-09T08:59:59.000+09:00","limit_number":null,"address":"大阪市中央区本町1-4-5","place":"大阪産業創造館　6F会議室D","lat":34.6838,"lon":135.509,"state":"active","id":null},{"event_id":"420894","title":"オープン経営で赤字からの10億改善！～あなたのチームにある大量のムダをなくす行動原理～","url":"http://peatix.com/event/420894","shortener_url":null,"started_at":"2018-10-18T01:30:00.000+09:00","ended_at":"2018-10-20T08:59:59.000+09:00","limit_number":null,"address":"台東区浅草橋5丁目20−8 CSタワー7階","place":"株式会社ISAO","lat":35.7014,"lon":139.781,"state":"active","id":null},{"event_id":"417438","title":"10月8日(月祝)18:00～★ 赤坂見附【１人参加限定】アクセス抜群Gaitomo国際交流パーティー","url":"http://peatix.com/event/417438","shortener_url":null,"started_at":"2018-10-09T03:00:00.000+09:00","ended_at":"2018-10-11T08:59:59.000+09:00","limit_number":null,"address":"5階-C, TS共和六番館, 3丁目-21-番14号 赤坂, 港区","place":"貸切パーティのお店 FIORE｜フィオーレ赤坂見附店","lat":35.6768,"lon":139.736,"state":"active","id":null},{"event_id":"417467","title":"10月21日(日)18:00～★ 青山【シングル限定】優雅なセレブラウンジでGaitomo国際交流パーティー","url":"http://peatix.com/event/417467","shortener_url":null,"started_at":"2018-10-22T03:00:00.000+09:00","ended_at":"2018-10-24T08:59:59.000+09:00","limit_number":null,"address":"東京都港区北青山3-2-5 NH青山ビル2F","place":"青山 Aoyama Lounge ","lat":35.6689,"lon":139.715,"state":"active","id":null},{"event_id":"417463","title":"10月20日(土)19:00～★ 西麻布 シックでお洒落なNYスタイルのバーでGaitomo国際交流パーティー","url":"http://peatix.com/event/417463","shortener_url":null,"started_at":"2018-10-21T04:00:00.000+09:00","ended_at":"2018-10-23T08:59:59.000+09:00","limit_number":null,"address":"東京都港区西麻布1-4-10","place":"西麻布 B612 ","lat":35.6619,"lon":139.726,"state":"active","id":null},{"event_id":"417456","title":"10月14日(日)18:00～★ 銀座 国際結婚したい人の為のGaitomo国際交流パーティー","url":"http://peatix.com/event/417456","shortener_url":null,"started_at":"2018-10-15T03:00:00.000+09:00","ended_at":"2018-10-17T08:59:59.000+09:00","limit_number":null,"address":"東京都中央区銀座5-9-13 菊正ビル9F","place":"銀座PPサロン","lat":35.6699,"lon":139.765,"state":"active","id":null},{"event_id":"417430","title":"10月7日(日)18:00～★ 六本木【独身限定】駅近セレブラウンジでGaitomo国際交流パーティー","url":"http://peatix.com/event/417430","shortener_url":null,"started_at":"2018-10-08T03:00:00.000+09:00","ended_at":"2018-10-10T08:59:59.000+09:00","limit_number":null,"address":"東京都港区六本木4-10-10 正直屋ビルB1","place":"六本木 balance(バランス) ","lat":35.6639,"lon":139.732,"state":"active","id":null},{"event_id":"417428","title":"10月6日(土)19:00～★ 六本木 土曜日は楽しい飲み友作りGaitomo国際交流パーティー","url":"http://peatix.com/event/417428","shortener_url":null,"started_at":"2018-10-07T04:00:00.000+09:00","ended_at":"2018-10-09T08:59:59.000+09:00","limit_number":null,"address":"港区六本木3丁目13−12 2F エルサビル","place":"MAGNET","lat":35.6629,"lon":139.734,"state":"active","id":null},{"event_id":"417497","title":"10月25日(木)19:00～★ 新宿御苑 本場ナポリピッツァが食べれる平日Gaitomo国際交流パーティー","url":"http://peatix.com/event/417497","shortener_url":null,"started_at":"2018-10-26T04:00:00.000+09:00","ended_at":"2018-10-28T08:59:59.000+09:00","limit_number":null,"address":"新宿区新宿2丁目8−1","place":"ピッツァナポレターノカフェ 新宿御苑前店","lat":35.689,"lon":139.71,"state":"active","id":null},{"event_id":"417415","title":"10月5日(金)19:00～★ 代官山 婚活恋活OnlyのGaitomo国際交流パーティー","url":"http://peatix.com/event/417415","shortener_url":null,"started_at":"2018-10-06T04:00:00.000+09:00","ended_at":"2018-10-08T08:59:59.000+09:00","limit_number":null,"address":"渋谷区恵比寿西1丁目34−17 B1F Za HOUSE ビル","place":"ユナイス 代官山","lat":35.6468,"lon":139.702,"state":"active","id":null},{"event_id":"417458","title":"10月17日(水)19:00～★ 恵比寿 仕事帰りに駅近のお洒落カフェで平日Gaitomo国際交流パーティー","url":"http://peatix.com/event/417458","shortener_url":null,"started_at":"2018-10-18T04:00:00.000+09:00","ended_at":"2018-10-20T08:59:59.000+09:00","limit_number":null,"address":"東京都渋谷区恵比寿南1-3-2","place":"恵比寿 dot. Grill and Bar ","lat":35.6456,"lon":139.708,"state":"active","id":null},{"event_id":"417491","title":"10月23日(火)19:00～◆ 表参道 飲み放題+10品フルコースビュッフェのGaitomo国際交流パーティー","url":"http://peatix.com/event/417491","shortener_url":null,"started_at":"2018-10-24T04:00:00.000+09:00","ended_at":"2018-10-26T08:59:59.000+09:00","limit_number":null,"address":"東京都渋谷区神宮前5-46-15","place":"シャルール表参道 ","lat":35.6641,"lon":139.708,"state":"active","id":null},{"event_id":"417441","title":"10月11日(木)19:00～★ 銀座 帰宅前にちょこっと充実時間Gaitomo国際交流パーティー","url":"http://peatix.com/event/417441","shortener_url":null,"started_at":"2018-10-12T04:00:00.000+09:00","ended_at":"2018-10-14T08:59:59.000+09:00","limit_number":null,"address":"中央区 銀座4-3-5 ハトリビル4F","place":"POP INN.GINZA(ポップイン 銀座)","lat":35.6723,"lon":139.765,"state":"active","id":null},{"event_id":"419494","title":"インドネシア／バリのエコスクールへ　グリーンスクール2泊4日視察ツアー","url":"http://ilm-greenschooltour.peatix.com","shortener_url":null,"started_at":"2018-10-09T18:00:00.000+09:00","ended_at":"2018-10-12T08:59:59.000+09:00","limit_number":null,"address":": Jalan Raya Sibang Kaja, Banjar Saren, Abiansemal, Sibang Kaja, Abiansemal, Kabupaten Badung, Bali 80352 インドネシア","place":"GREEN SCHOOL","lat":0.0,"lon":0.0,"state":"active","id":null},{"event_id":"413682","title":"Burning Japan 2018 (International)","url":"http://bj2018itn.peatix.com","shortener_url":null,"started_at":"2018-10-06T18:00:00.000+09:00","ended_at":"2018-10-09T08:59:59.000+09:00","limit_number":null,"address":"嬬恋村 大字干俣万座温泉2401−615","place":"嬬恋牧場","lat":36.5893,"lon":138.51,"state":"active","id":null},{"event_id":"98696","title":"JAM plus #3 - powered by tambourine.inc","url":"https://kfug.connpass.com/event/98696/","shortener_url":null,"started_at":"2018-10-16T19:30:00.000+09:00","ended_at":"2018-10-16T21:30:00.000+09:00","limit_number":23,"address":"大阪市北区同心1丁目11番6号","place":"tambourine.inc","lat":34.7016,"lon":135.515,"state":"active","id":null},{"event_id":"421767","title":"コミュニティ経済と未来のお金を考えるクラス","url":"http://community-keizai201810.peatix.com","shortener_url":null,"started_at":"2018-10-20T10:00:00.000+09:00","ended_at":"2018-10-23T08:59:59.000+09:00","limit_number":null,"address":"東京都渋谷区神宮前2-19-5","place":"greenz harajuku","lat":35.6733,"lon":139.71,"state":"active","id":null},{"event_id":"422498","title":"Monthly Tantra Practice Circle","url":"http://monthlytantra2.peatix.com","shortener_url":null,"started_at":"2018-10-26T20:30:00.000+09:00","ended_at":"2018-10-29T08:59:59.000+09:00","limit_number":null,"address":"Irving Pl, #01-21, Singapore 369546","place":"The Commerze @ Irving, 1 Irving Place Singapore 369546 ","lat":1.33607,"lon":103.887,"state":"active","id":null},{"event_id":"421053","title":"STARRY NIGHT JAM vol.26 ハロウィン★ドームスペシャル！探査機「はやぶさ２」宇宙最前線","url":"http://snj26.peatix.com","shortener_url":null,"started_at":"2018-10-27T16:00:00.000+09:00","ended_at":"2018-10-30T08:59:59.000+09:00","limit_number":null,"address":"福岡市中央区 六本松4丁目2−1","place":"福岡市科学館","lat":33.5774,"lon":130.378,"state":"active","id":null},{"event_id":"416033","title":"合宿形式で学ぶ、写真KJ法ワークショップ","url":"http://peatix.com/event/416033","shortener_url":null,"started_at":"2018-10-25T12:45:00.000+09:00","ended_at":"2018-10-28T08:59:59.000+09:00","limit_number":null,"address":"岐阜県飛騨市 古川町弐之町6番17号","place":"FabCafe Hida","lat":36.2351,"lon":137.185,"state":"active","id":null},{"event_id":"78097","title":"《大阪開催》【10/7（日）・21（日）】Data Visualization \u0026 Physicalizationハッカソン","url":"https://soleildatadojo.doorkeeper.jp/events/78097","shortener_url":"https://goo.gl/tLoAGU","started_at":"2018-10-07T19:00:00.000+09:00","ended_at":"2018-10-22T02:30:00.000+09:00","limit_number":15,"address":"大阪市北区西天満二丁目5番地3(堂島深川ビル3階)","place":"Scribble Osaka Lab（大阪メトロ御堂筋線「淀屋橋」駅より徒歩４分）","lat":null,"lon":null,"state":"active","id":null},{"event_id":"423948","title":"満員御礼！【毎年２０００名の社員研修をおこなうセールスの学校が開催する研修体験会】たった3時間で変わります。","url":"http://peatix.com/event/423948","shortener_url":null,"started_at":"2018-10-25T15:00:00.000+09:00","ended_at":"2018-10-28T08:59:59.000+09:00","limit_number":null,"address":"東京都品川区西五反田7-22-17 TOCビル","place":"五反田TOC","lat":35.6221,"lon":139.719,"state":"active","id":null},{"event_id":"424058","title":"10/20(Sat) Nihongo Night in Roppongi","url":"http://peatix.com/event/424058","shortener_url":null,"started_at":"2018-10-20T19:00:00.000+09:00","ended_at":"2018-10-23T08:59:59.000+09:00","limit_number":null,"address":"東京都港区六本木5-3-1","place":"Roppongi Bar Quest","lat":35.6621,"lon":139.733,"state":"active","id":null},{"event_id":"424039","title":"10/18(Thu) French Night in Jiyugaoka","url":"http://peatix.com/event/424039","shortener_url":null,"started_at":"2018-10-18T19:00:00.000+09:00","ended_at":"2018-10-21T08:59:59.000+09:00","limit_number":null,"address":"東京都目黒区自由が丘1丁目8-18","place":"Clann","lat":35.6069,"lon":139.669,"state":"active","id":null},{"event_id":"424045","title":"10/19(Fri) Roppongi Drink Meetup","url":"http://peatix.com/event/424045","shortener_url":null,"started_at":"2018-10-19T19:00:00.000+09:00","ended_at":"2018-10-22T08:59:59.000+09:00","limit_number":null,"address":"東京都港区六本木5-3-1レーヌ第2ビル3F","place":"BAR QUEST","lat":35.6641,"lon":139.729,"state":"active","id":null},{"event_id":"424049","title":"10/20(土) にほんごナイト@六本木 / Nihongo Night at Stylish Bar in Roppongi","url":"http://peatix.com/event/424049","shortener_url":null,"started_at":"2018-10-20T19:00:00.000+09:00","ended_at":"2018-10-23T08:59:59.000+09:00","limit_number":null,"address":"東京都港区六本木5-3-1レーヌ第2ビル3F","place":"BAR QUEST ","lat":35.6621,"lon":139.733,"state":"active","id":null},{"event_id":"423997","title":"西洋画初心者講座　－人物－  PIGMENT LAB WORKSHOP Oil Painting for Beginners","url":"http://peatix.com/event/423997","shortener_url":null,"started_at":"2018-10-21T13:00:00.000+09:00","ended_at":"2018-10-24T08:59:59.000+09:00","limit_number":null,"address":"品川区 東品川2丁目5−5 TERRADA Harbor One Bldg. 1F","place":"PIGMENT","lat":35.6213,"lon":139.75,"state":"active","id":null},{"event_id":"424044","title":"10/18(木) フレンチナイト@自由が丘 / French Night in Jiyuugaoka","url":"http://peatix.com/event/424044","shortener_url":null,"started_at":"2018-10-18T19:00:00.000+09:00","ended_at":"2018-10-21T08:59:59.000+09:00","limit_number":null,"address":"東京都目黒区自由が丘1丁目8-18","place":"アイリッシュパブ クラン（Clann)","lat":35.6069,"lon":139.669,"state":"active","id":null},{"event_id":"423976","title":"日本絵画秘伝技法講座 胡粉・岩絵具　PIGMENT LAB WORKSHOP Japanese Painting Technique","url":"http://peatix.com/event/423976","shortener_url":null,"started_at":"2018-10-14T22:00:00.000+09:00","ended_at":"2018-10-17T08:59:59.000+09:00","limit_number":null,"address":"品川区 東品川2丁目5−5 TERRADA Harbor One Bldg. 1F","place":"PIGMENT","lat":35.6213,"lon":139.75,"state":"active","id":null},{"event_id":"423959","title":"水晶を使ったオリジナル水彩絵の具作り PIGMENT LAB WORKSHOP Creating Original Paints","url":"http://peatix.com/event/423959","shortener_url":null,"started_at":"2018-10-13T22:00:00.000+09:00","ended_at":"2018-10-16T08:59:59.000+09:00","limit_number":null,"address":"品川区 東品川2丁目5−5 TERRADA Harbor One Bldg. 1F","place":"PIGMENT","lat":35.6213,"lon":139.75,"state":"active","id":null},{"event_id":"423048","title":"10月6日(土)19:00～★ 心斎橋 駅近の隠れ家ラウンジでオリジナルGaitomo国際交流パーティー","url":"http://peatix.com/event/423048","shortener_url":null,"started_at":"2018-10-07T04:00:00.000+09:00","ended_at":"2018-10-09T08:59:59.000+09:00","limit_number":null,"address":"大阪市中央区東心斎橋1-18-6","place":"心斎橋 Singles Bar Eden ","lat":34.6738,"lon":135.503,"state":"active","id":null},{"event_id":"423055","title":"10月23日(火)19:30～◆ 表参道 飲み放題+10品フルコースビュッフェのGaitomo国際交流パーティー","url":"http://peatix.com/event/423055","shortener_url":null,"started_at":"2018-10-24T04:30:00.000+09:00","ended_at":"2018-10-26T08:59:59.000+09:00","limit_number":null,"address":"東京都渋谷区神宮前5-46-15","place":"シャルール表参道 ","lat":35.6641,"lon":139.708,"state":"active","id":null},{"event_id":"99210","title":"【中西 崇文氏　特別講演】シンギュラリティは怖くない","url":"https://supporterz-seminar.connpass.com/event/99210/","shortener_url":null,"started_at":"2018-10-13T22:45:00.000+09:00","ended_at":"2018-10-14T01:00:00.000+09:00","limit_number":100,"address":"東京都渋谷区道玄坂1-9-5","place":"渋谷スクエアA 11F","lat":35.6573,"lon":139.699,"state":"active","id":null},{"event_id":"418347","title":"Yu-Gi-Oh! CHAMPIONSHIP SERIES JAPAN　大阪","url":"http://ycsjosaka.peatix.com","shortener_url":null,"started_at":"2018-10-08T17:00:00.000+09:00","ended_at":"2018-10-11T08:59:59.000+09:00","limit_number":null,"address":"大阪市住之江区南港北1丁目5−102","place":"インテックス大阪　５号館A","lat":34.6376,"lon":135.42,"state":"active","id":null},{"event_id":"417446","title":"Yu-Gi-Oh! CHAMPIONSHIP SERIES JAPAN 東京","url":"http://ycsjtokyo.peatix.com","shortener_url":null,"started_at":"2018-10-06T17:00:00.000+09:00","ended_at":"2018-10-09T08:59:59.000+09:00","limit_number":null,"address":"江東区有明3丁目11−1 東京国際展示場西展示棟4F","place":"東京ビッグサイト西３ホール","lat":35.6286,"lon":139.796,"state":"active","id":null},{"event_id":"424932","title":"10/24(Wed) Russian Night in Roppongi","url":"http://peatix.com/event/424932","shortener_url":null,"started_at":"2018-10-24T19:00:00.000+09:00","ended_at":"2018-10-27T08:59:59.000+09:00","limit_number":null,"address":"東京都港区六本木3−16−33","place":"Hobgoblin Roppongi","lat":35.6623,"lon":139.737,"state":"active","id":null},{"event_id":"424497","title":"10/23(Tue) Shinjuku Drink Meetup","url":"http://peatix.com/event/424497","shortener_url":null,"started_at":"2018-10-23T19:00:00.000+09:00","ended_at":"2018-10-26T08:59:59.000+09:00","limit_number":null,"address":"東京都新宿区西新宿8-19-11","place":"KASHIWAGI CAFE","lat":35.6956,"lon":139.691,"state":"active","id":null},{"event_id":"422110","title":"【世界に羽ばたく3D音響アーティスト大募集！〜8/27まで！】Music×Tech Showcase - TIMM Special Event -","url":"http://timm-stereophonic.peatix.com","shortener_url":null,"started_at":"2018-10-24T15:00:00.000+09:00","ended_at":"2018-10-27T08:59:59.000+09:00","limit_number":null,"address":"渋谷区 道玄坂2-10-12 新大宗ビル B2","place":"Contact","lat":0.0,"lon":0.0,"state":"active","id":null},{"event_id":"424935","title":"箔入門講座 PIGMENT LAB WORKSHOP Introduction of Metal Leaf","url":"http://peatix.com/event/424935","shortener_url":null,"started_at":"2018-10-27T22:00:00.000+09:00","ended_at":"2018-10-30T08:59:59.000+09:00","limit_number":null,"address":"品川区 東品川2丁目5−5 TERRADA Harbor One Bldg. 1F","place":"PIGMENT","lat":35.6213,"lon":139.75,"state":"active","id":null},{"event_id":"424934","title":"箔入門講座 PIGMENT LAB WORKSHOP  Introduction of Metal Leaf","url":"http://peatix.com/event/424934","shortener_url":null,"started_at":"2018-10-07T22:00:00.000+09:00","ended_at":"2018-10-10T08:59:59.000+09:00","limit_number":null,"address":"品川区 東品川2丁目5−5 TERRADA Harbor One Bldg. 1F","place":"PIGMENT","lat":35.6213,"lon":139.75,"state":"active","id":null},{"event_id":"99424","title":"InaHack 2018 3rd Session \"Hackathon\"","url":"https://uhuru.connpass.com/event/99424/","shortener_url":"https://goo.gl/SEsQvB","started_at":"2018-10-20T09:00:00.000+09:00","ended_at":"2018-10-21T17:30:00.000+09:00","limit_number":50,"address":"伊那市荒井3500-1","place":"いなっせ","lat":35.8397,"lon":137.959,"state":"active","id":null},{"event_id":"425270","title":"《大阪開催》【10/7（日）・21（日）】Data Visualization \u0026 Physicalizationハッカソン","url":"http://datavizhackathon.peatix.com","shortener_url":"https://goo.gl/kV4bwG","started_at":"2018-10-07T19:00:00.000+09:00","ended_at":"2018-10-10T08:59:59.000+09:00","limit_number":null,"address":"大阪市北区西天満2丁目5−3","place":"Scribble Osaka Lab (SOL) スクリブル大阪ラボ | イベント・コワーキングスペース","lat":34.6951,"lon":135.502,"state":"active","id":null},{"event_id":"425389","title":"箔入門講座 PIGMENT LAB WORKSHOP Introduction of Metal Leaf","url":"http://peatix.com/event/425389","shortener_url":null,"started_at":"2018-10-27T13:00:00.000+09:00","ended_at":"2018-10-30T08:59:59.000+09:00","limit_number":null,"address":"品川区 東品川2丁目5−5 TERRADA Harbor One Bldg. 1F","place":"PIGMENT","lat":35.6213,"lon":139.75,"state":"active","id":null},{"event_id":"426198","title":"【オンライン講座】グーグル・アナリティクス 初級レポーティング講座 (10/31)","url":"http://peatix.com/event/426198","shortener_url":null,"started_at":"2018-10-31T10:00:00.000+09:00","ended_at":"2018-11-03T08:59:59.000+09:00","limit_number":null,"address":"日本","place":"ご自宅のPC","lat":0.0,"lon":0.0,"state":"active","id":null},{"event_id":"425306","title":"【edoARTworkshop】鳥居 満智栄の恋する和菓子づくり～10月編","url":"http://edoart1004.peatix.com","shortener_url":null,"started_at":"2018-10-04T23:00:00.000+09:00","ended_at":"2018-10-07T08:59:59.000+09:00","limit_number":null,"address":"東京都台東区西浅草2-6-2","place":"かっぱ橋道具街 はし藤本店 ２Ｆ","lat":35.7127,"lon":139.789,"state":"active","id":null},{"event_id":"425876","title":"500TH EVENT SPECIAL!! (FRI) 500回目のスペシャル イベント！（金）","url":"http://peatix.com/event/425876","shortener_url":null,"started_at":"2018-10-06T04:00:00.000+09:00","ended_at":"2018-10-08T08:59:59.000+09:00","limit_number":null,"address":"東京都港区六本木3-14-9 ユア六本木2F","place":"Bar Propaganda (2F)","lat":35.6623,"lon":139.735,"state":"active","id":null},{"event_id":"425895","title":"TRAFFIC LIGHT PARTY! (SAT) トラフィック・ライト パーティー！（土）","url":"http://peatix.com/event/425895","shortener_url":null,"started_at":"2018-10-14T04:00:00.000+09:00","ended_at":"2018-10-16T08:59:59.000+09:00","limit_number":null,"address":"東京都港区六本木3-14-9 ユア六本木2F","place":"Bar Propaganda (2F)","lat":35.6623,"lon":139.735,"state":"active","id":null},{"event_id":"425915","title":"200TH EVENT SPECIAL! (SAT) 200回目のスペシャル・イベント！（土）","url":"http://peatix.com/event/425915","shortener_url":null,"started_at":"2018-10-07T04:00:00.000+09:00","ended_at":"2018-10-09T08:59:59.000+09:00","limit_number":null,"address":"大阪市中央区東心斎橋2-5-27","place":"The Blarney Stone (B1F)","lat":34.6718,"lon":135.504,"state":"active","id":null},{"event_id":"425939","title":"OPC FRIDAY NIGHT PARTY!","url":"http://peatix.com/event/425939","shortener_url":null,"started_at":"2018-10-13T04:00:00.000+09:00","ended_at":"2018-10-15T08:59:59.000+09:00","limit_number":null,"address":"大阪市中央区東心斎橋2-5-27","place":"The Blarney Stone (B1F)","lat":34.6718,"lon":135.504,"state":"active","id":null},{"event_id":"425878","title":"500TH EVENT SPECIAL!! (SAT) 500回目のスペシャル イベント！（土）","url":"http://peatix.com/event/425878","shortener_url":null,"started_at":"2018-10-07T04:00:00.000+09:00","ended_at":"2018-10-09T08:59:59.000+09:00","limit_number":null,"address":"東京都港区六本木3-14-9 ユア六本木2F","place":"Bar Propaganda (2F)","lat":35.6623,"lon":139.735,"state":"active","id":null},{"event_id":"426157","title":"【オンライン講座】グーグル・アナリティクス 初級レポーティング講座 (10/3)","url":"http://peatix.com/event/426157","shortener_url":null,"started_at":"2018-10-03T19:00:00.000+09:00","ended_at":"2018-10-06T08:59:59.000+09:00","limit_number":null,"address":"日本","place":"ご自宅のPC","lat":0.0,"lon":0.0,"state":"active","id":null},{"event_id":"426194","title":"【オンライン講座】グーグル・アナリティクス 初級レポーティング講座 (10/18)","url":"http://peatix.com/event/426194","shortener_url":null,"started_at":"2018-10-18T10:00:00.000+09:00","ended_at":"2018-10-21T08:59:59.000+09:00","limit_number":null,"address":"日本","place":"ご自宅のPC","lat":0.0,"lon":0.0,"state":"active","id":null},{"event_id":"425894","title":"TRAFFIC LIGHT PARTY! (FRI) トラフィック・ライト パーティー！（金）","url":"http://peatix.com/event/425894","shortener_url":null,"started_at":"2018-10-13T04:00:00.000+09:00","ended_at":"2018-10-15T08:59:59.000+09:00","limit_number":null,"address":"東京都港区六本木3-14-9 ユア六本木2F","place":"Bar Propaganda (2F)","lat":35.6623,"lon":139.735,"state":"active","id":null},{"event_id":"425940","title":"OPC SATURDAY NIGHT PARTY!","url":"http://peatix.com/event/425940","shortener_url":null,"started_at":"2018-10-14T04:00:00.000+09:00","ended_at":"2018-10-16T08:59:59.000+09:00","limit_number":null,"address":"大阪市中央区東心斎橋2-5-27","place":"The Blarney Stone (B1F)","lat":34.6718,"lon":135.504,"state":"active","id":null},{"event_id":"425952","title":"HALLOWEEN PUB CRAWL! (SAT) ハロウィーン・パブクロール!（土）","url":"http://peatix.com/event/425952","shortener_url":null,"started_at":"2018-10-27T18:30:00.000+09:00","ended_at":"2018-10-30T08:59:59.000+09:00","limit_number":null,"address":"大阪市西区 北堀江1-2-27 B1","place":"ABSINTHE WORMWOOD","lat":34.6733,"lon":135.497,"state":"active","id":null},{"event_id":"425914","title":"200TH EVENT SPECIAL! (FRI)  200回目のスペシャル・イベント！（金）","url":"http://peatix.com/event/425914","shortener_url":null,"started_at":"2018-10-06T04:00:00.000+09:00","ended_at":"2018-10-08T08:59:59.000+09:00","limit_number":null,"address":"大阪市中央区東心斎橋2-5-27","place":"The Blarney Stone (B1F)","lat":34.6718,"lon":135.504,"state":"active","id":null},{"event_id":"425951","title":"HALLOWEEN PUB CRAWL! (FRI) ハロウィーン・パブクロール！（金）","url":"http://peatix.com/event/425951","shortener_url":null,"started_at":"2018-10-26T18:30:00.000+09:00","ended_at":"2018-10-29T08:59:59.000+09:00","limit_number":null,"address":"大阪市西区 北堀江1-2-27 B1","place":"ABSINTHE WORMWOOD","lat":34.6733,"lon":135.497,"state":"active","id":null},{"event_id":"425905","title":"HALLOWEEN PUB CRAWL!! (SAT) ハロウィーン・パブクロール（土）","url":"http://peatix.com/event/425905","shortener_url":null,"started_at":"2018-10-27T18:30:00.000+09:00","ended_at":"2018-10-30T08:59:59.000+09:00","limit_number":null,"address":"Minato-ku Roppongi 3-15-23 Hanatsubaki Bldg 1F, Tokyo, 港区","place":"Jokers Bar","lat":35.6624,"lon":139.735,"state":"active","id":null},{"event_id":"425897","title":"PREHALLOWEEN PARTY! (SAT) ハロウィーン直前パーティー！（土）","url":"http://peatix.com/event/425897","shortener_url":null,"started_at":"2018-10-20T19:00:00.000+09:00","ended_at":"2018-10-23T08:59:59.000+09:00","limit_number":null,"address":"東京都港区六本木3-14-9 ユア六本木2F","place":"Bar Propaganda (2F)","lat":35.6623,"lon":139.735,"state":"active","id":null},{"event_id":"425896","title":"PREHALLOWEEN PARTY! (FRI) ハロウィーン直前パブクロール！（金）","url":"http://peatix.com/event/425896","shortener_url":null,"started_at":"2018-10-19T19:00:00.000+09:00","ended_at":"2018-10-22T08:59:59.000+09:00","limit_number":null,"address":"東京都港区六本木3-14-9 ユア六本木2F","place":"Bar Propaganda (2F)","lat":35.6623,"lon":139.735,"state":"active","id":null},{"event_id":"425904","title":"HALLOWEEN PUB CRAWL! (FRI) ハロウィーン・パブクロール！（金）","url":"http://peatix.com/event/425904","shortener_url":null,"started_at":"2018-10-26T18:30:00.000+09:00","ended_at":"2018-10-29T08:59:59.000+09:00","limit_number":null,"address":"Minato-ku Roppongi 3-15-23 Hanatsubaki Bldg 1F, Tokyo, 港区","place":"Jokers Bar","lat":35.6624,"lon":139.735,"state":"active","id":null},{"event_id":"426095","title":"オープン経営で赤字からの10億改善！～あなたのチームにある大量のムダをなくす行動原理～","url":"http://peatix.com/event/426095","shortener_url":null,"started_at":"2018-10-25T16:30:00.000+09:00","ended_at":"2018-10-28T08:59:59.000+09:00","limit_number":null,"address":"台東区浅草橋5丁目20−8 CSタワー7階","place":"株式会社ISAO","lat":35.7014,"lon":139.781,"state":"active","id":null},{"event_id":"387357","title":"PREHALLOWEEN PARTY! (FRI) ハロウィーン直前パーティー！（金）","url":"http://peatix.com/event/387357","shortener_url":null,"started_at":"2018-10-19T19:00:00.000+09:00","ended_at":"2018-10-22T08:59:59.000+09:00","limit_number":null,"address":"大阪市中央区東心斎橋2-5-27","place":"The Blarney Stone (B1F)","lat":34.6718,"lon":135.504,"state":"active","id":null},{"event_id":"381907","title":"PREHALLOWEEN PARTY! (SAT) ハロウィーン直前パーティー！（土）","url":"http://peatix.com/event/381907","shortener_url":null,"started_at":"2018-10-20T19:00:00.000+09:00","ended_at":"2018-10-23T08:59:59.000+09:00","limit_number":null,"address":"大阪市中央区東心斎橋2-5-27","place":"The Blarney Stone (B1F)","lat":34.6718,"lon":135.504,"state":"active","id":null},{"event_id":"425444","title":"PUMA Train #24Seven: GENERAL TICKETS","url":"http://puma24sevengeneral.peatix.com","shortener_url":null,"started_at":"2018-10-07T20:00:00.000+09:00","ended_at":"2018-10-10T08:59:59.000+09:00","limit_number":null,"address":"1 Raffles Boulevard, Suntec City","place":"Suntec Singapore Convention \u0026 Exhibition Centre","lat":1.29369,"lon":103.857,"state":"active","id":null},{"event_id":"426159","title":"New Crack #02 - A Work in Progress Show for the Big Guns of Comedy","url":"http://nospareparts9oct.peatix.com","shortener_url":null,"started_at":"2018-10-10T07:00:00.000+09:00","ended_at":"2018-10-12T08:59:59.000+09:00","limit_number":null,"address":"Rahim Kajai 14, Taman Tun Dr Ismail, Kuala Lumpur","place":"Crack House Comedy Club","lat":3.15478,"lon":101.623,"state":"active","id":null},{"event_id":"426161","title":"New Crack #03 - A Work in Progress Show for the Big Guns of Comedy","url":"http://nospareparts16oct.peatix.com","shortener_url":null,"started_at":"2018-10-16T22:00:00.000+09:00","ended_at":"2018-10-19T08:59:59.000+09:00","limit_number":null,"address":"Rahim Kajai 14, Taman Tun Dr Ismail, Kuala Lumpur","place":"Crack House Comedy Club","lat":3.15478,"lon":101.623,"state":"active","id":null},{"event_id":"426165","title":"New Crack #05 - A Work in Progress Show for the Big Guns of Comedy","url":"http://nospareparts30oct.peatix.com","shortener_url":null,"started_at":"2018-10-30T22:00:00.000+09:00","ended_at":"2018-11-02T08:59:59.000+09:00","limit_number":null,"address":"Rahim Kajai 14, Taman Tun Dr Ismail, Kuala Lumpur","place":"Crack House Comedy Club","lat":3.15478,"lon":101.623,"state":"active","id":null},{"event_id":"426158","title":"New Crack #01 - A Work in Progress Show for the Big Guns of Comedy","url":"http://nospareparts2oct.peatix.com","shortener_url":null,"started_at":"2018-10-03T07:00:00.000+09:00","ended_at":"2018-10-05T08:59:59.000+09:00","limit_number":null,"address":"Rahim Kajai 14, Taman Tun Dr Ismail, Kuala Lumpur","place":"Crack House Comedy Club","lat":3.15478,"lon":101.623,"state":"active","id":null},{"event_id":"426164","title":"New Crack #04 - A Work in Progress Show for the Big Guns of Comedy","url":"http://nospareparts23oct.peatix.com","shortener_url":null,"started_at":"2018-10-23T22:00:00.000+09:00","ended_at":"2018-10-26T08:59:59.000+09:00","limit_number":null,"address":"Rahim Kajai 14, Taman Tun Dr Ismail, Kuala Lumpur","place":"Crack House Comedy Club","lat":3.15478,"lon":101.623,"state":"active","id":null},{"event_id":"426153","title":"Crackhouse Comedy Open-Mic Night | Open-Crack! [Halloween Special!]","url":"http://opencrackhalloween.peatix.com","shortener_url":null,"started_at":"2018-10-31T22:00:00.000+09:00","ended_at":"2018-11-03T08:59:59.000+09:00","limit_number":null,"address":"24A, 1st Floor, Lorong Rahim Kajai 14, Taman Tun Dr. Ismail, 60000 Kuala Lumpur","place":"The Crackhouse Comedy Club KL","lat":3.15493,"lon":101.623,"state":"active","id":null},{"event_id":"426150","title":"Crackhouse Comedy Open-Mic Night | Open-Crack!","url":"http://opencrack10oct.peatix.com","shortener_url":null,"started_at":"2018-10-11T07:00:00.000+09:00","ended_at":"2018-10-13T08:59:59.000+09:00","limit_number":null,"address":"24A, 1st Floor, Lorong Rahim Kajai 14, Taman Tun Dr. Ismail, 60000 Kuala Lumpur","place":"The Crackhouse Comedy Club KL","lat":3.15493,"lon":101.623,"state":"active","id":null},{"event_id":"426152","title":"Crackhouse Comedy Open-Mic Night | Open-Crack!","url":"http://opencrack24oct.peatix.com","shortener_url":null,"started_at":"2018-10-24T22:00:00.000+09:00","ended_at":"2018-10-27T08:59:59.000+09:00","limit_number":null,"address":"24A, 1st Floor, Lorong Rahim Kajai 14, Taman Tun Dr. Ismail, 60000 Kuala Lumpur","place":"The Crackhouse Comedy Club KL","lat":3.15493,"lon":101.623,"state":"active","id":null},{"event_id":"426149","title":"Crackhouse Comedy Open-Mic Night | Open-Crack!","url":"http://opencrack3oct.peatix.com","shortener_url":null,"started_at":"2018-10-04T07:00:00.000+09:00","ended_at":"2018-10-06T08:59:59.000+09:00","limit_number":null,"address":"24A, 1st Floor, Lorong Rahim Kajai 14, Taman Tun Dr. Ismail, 60000 Kuala Lumpur","place":"The Crackhouse Comedy Club KL","lat":3.15493,"lon":101.623,"state":"active","id":null},{"event_id":"426151","title":"Crackhouse Comedy Open-Mic Night | Open-Crack!","url":"http://opencrack17oct.peatix.com","shortener_url":null,"started_at":"2018-10-17T22:00:00.000+09:00","ended_at":"2018-10-20T08:59:59.000+09:00","limit_number":null,"address":"24A, 1st Floor, Lorong Rahim Kajai 14, Taman Tun Dr. Ismail, 60000 Kuala Lumpur","place":"The Crackhouse Comedy Club KL","lat":3.15493,"lon":101.623,"state":"active","id":null},{"event_id":"99398","title":"【増席】ビギナーズソン Vol.3  - by はじめてのハッカソン運営","url":"https://hackathon.connpass.com/event/99398/","shortener_url":"https://goo.gl/YR382S","started_at":"2018-10-28T10:00:00.000+09:00","ended_at":"2018-10-28T21:30:00.000+09:00","limit_number":27,"address":"東京都品川区西五反田3-12-14　西五反田プレイス8階（旧東京技販ビル）","place":"株式会社まぐまぐ","lat":35.6275,"lon":139.714,"state":"active","id":null},{"event_id":"99633","title":"【熊本大会】VTuberハッカソン2018","url":"https://kumamcn.connpass.com/event/99633/","shortener_url":"https://goo.gl/JWVu67","started_at":"2018-10-27T19:00:00.000+09:00","ended_at":"2018-10-29T04:30:00.000+09:00","limit_number":30,"address":"熊本県熊本市中央区桜町３−１","place":"スマートひかりスクウェアくまもと - NTT西日本","lat":32.8012,"lon":130.704,"state":"active","id":null},{"event_id":"426500","title":"TouchDesigner Study Weekend Hackathon","url":"http://tdsw-hackathon.peatix.com","shortener_url":"https://goo.gl/fprNvm","started_at":"2018-10-13T20:00:00.000+09:00","ended_at":"2018-10-16T08:59:59.000+09:00","limit_number":null,"address":"大田区平和島6丁目1−1 東京流通センター物流ビルB棟3階","place":"アークベル株式会社","lat":35.58,"lon":139.749,"state":"active","id":null},{"event_id":"427120","title":"10/28 (Sun) 20s Social Meetup Nishi-Shinjuku","url":"http://peatix.com/event/427120","shortener_url":null,"started_at":"2018-10-28T14:00:00.000+09:00","ended_at":"2018-10-31T08:59:59.000+09:00","limit_number":null,"address":"新宿区西新宿8丁目19−11","place":"KASHIWAGI CAFE","lat":35.6956,"lon":139.691,"state":"active","id":null},{"event_id":"427097","title":"10/26(Fri) Nihongo Night in Roppongi","url":"http://peatix.com/event/427097","shortener_url":null,"started_at":"2018-10-26T19:00:00.000+09:00","ended_at":"2018-10-29T08:59:59.000+09:00","limit_number":null,"address":"港区六本木5丁目5−3−1 3F 第2レーヌビル","place":"Bar Quest","lat":35.6621,"lon":139.733,"state":"active","id":null},{"event_id":"427100","title":"10/27(Sat) Travel Lovers Meetup in Shibuya","url":"http://peatix.com/event/427100","shortener_url":null,"started_at":"2018-10-27T15:00:00.000+09:00","ended_at":"2018-10-30T08:59:59.000+09:00","limit_number":null,"address":"渋谷区 猿楽町2−12","place":"Asian Spice King 渋谷・代官山","lat":35.6533,"lon":139.705,"state":"active","id":null},{"event_id":"427095","title":"10/26(金) にほんごナイト@六本木 / Nihongo Night at Stylish Bar in Roppongi","url":"http://peatix.com/event/427095","shortener_url":null,"started_at":"2018-10-26T19:00:00.000+09:00","ended_at":"2018-10-29T08:59:59.000+09:00","limit_number":null,"address":"東京都港区六本木5-3-1レーヌ第2ビル3F","place":"BAR QUEST ","lat":35.6621,"lon":139.733,"state":"active","id":null},{"event_id":"426974","title":"とことん３Dスキャン体験【10/06(土)開催】","url":"http://dmmmake1810scan.peatix.com","shortener_url":null,"started_at":"2018-10-06T23:00:00.000+09:00","ended_at":"2018-10-09T08:59:59.000+09:00","limit_number":null,"address":"東京都千代田区神田練塀町3 富士ソフト秋葉原ビル 10F DMM.make AKIBA Studio","place":"DMM.make AKIBA 10F Studio","lat":35.7008,"lon":139.774,"state":"active","id":null},{"event_id":"426978","title":"レーザーカッターで作るUSBで灯せる行燈(あんどん)【10/07(日)開催】","url":"http://dmmmake1810andon.peatix.com","shortener_url":null,"started_at":"2018-10-08T00:00:00.000+09:00","ended_at":"2018-10-10T08:59:59.000+09:00","limit_number":null,"address":"東京都千代田区神田練塀町3 富士ソフト秋葉原ビル 10F DMM.make AKIBA Studio","place":"DMM.make AKIBA 10F Studio","lat":35.7008,"lon":139.774,"state":"active","id":null},{"event_id":"427116","title":"10/28(日) 20代の異文化交流会@西新宿/ 20's Social Meetup in Nishi-Shinjuku","url":"http://peatix.com/event/427116","shortener_url":null,"started_at":"2018-10-28T14:00:00.000+09:00","ended_at":"2018-10-31T08:59:59.000+09:00","limit_number":null,"address":"新宿区西新宿8丁目19−11","place":"KASHIWAGI CAFE","lat":35.6956,"lon":139.691,"state":"active","id":null},{"event_id":"100196","title":"IchigoJam はじめてのセンシング Ⅰ","url":"https://nextday.connpass.com/event/100196/","shortener_url":null,"started_at":"2018-10-28T19:15:00.000+09:00","ended_at":"2018-10-28T20:40:00.000+09:00","limit_number":16,"address":"北海道札幌市白石区東札幌６条１丁目１−１","place":"札幌コンベンションセンター","lat":43.057,"lon":141.388,"state":"active","id":null},{"event_id":"79730","title":"10/20(土)~21(日)festivo WordPressオリジナルテーマ制作 Camp@東京【学生15,000円、一般20,000円】～WEBサイトのWordPress化を学ぶ15時間！PHPプログラミングステップアップ集中合宿！！～","url":"https://festivo.doorkeeper.jp/events/79730","shortener_url":"https://goo.gl/inrPeb","started_at":"2018-10-20T10:00:00.000+09:00","ended_at":"2018-10-21T19:00:00.000+09:00","limit_number":10,"address":"東京都練馬区豊玉北3-15-17","place":"起業家シェアハウス x-garden セミナールーム","lat":null,"lon":null,"state":"active","id":null},{"event_id":"428546","title":"10/27(土) 泡ハロウィン® #01 Night @clubasia #泡パ #泡パーティー #泡ハロウィン","url":"http://awapa181027night.peatix.com","shortener_url":null,"started_at":"2018-10-27T23:00:00.000+09:00","ended_at":"2018-10-30T08:59:59.000+09:00","limit_number":null,"address":"東京都渋谷区円山町1-8","place":"club asia ","lat":35.659,"lon":139.695,"state":"active","id":null},{"event_id":"428548","title":"10/31(水) 泡ハロウィン® #02 @clubasia #泡パ #泡パーティー #泡ハロウィン","url":"http://awapa181031.peatix.com","shortener_url":null,"started_at":"2018-10-31T23:00:00.000+09:00","ended_at":"2018-11-03T08:59:59.000+09:00","limit_number":null,"address":"東京都渋谷区円山町1-8","place":"club asia ","lat":35.659,"lon":139.695,"state":"active","id":null},{"event_id":"425808","title":"10月13日(土)19:00～★ 六本木 新しいウォーミングアップバーでGaitomo国際交流パーティー","url":"http://peatix.com/event/425808","shortener_url":null,"started_at":"2018-10-14T04:00:00.000+09:00","ended_at":"2018-10-16T08:59:59.000+09:00","limit_number":null,"address":"港区 六本木5-1-7 六本木ストリートビル 1F,2F","place":"MEZZO(メゾ) BAR LOUNGE 貸切パーティー","lat":35.6625,"lon":139.733,"state":"active","id":null},{"event_id":"79268","title":"大阪イノベーションハブ開催【AIアクセラレーターkansAI0.6】デモ・デイ＆交流会","url":"https://soleildatadojo.doorkeeper.jp/events/79268","shortener_url":null,"started_at":"2018-10-27T15:00:00.000+09:00","ended_at":"2018-10-27T19:00:00.000+09:00","limit_number":60,"address":"大阪市北区大深町3番1号グランフロント大阪 ナレッジキャピタルタワーC 7階","place":"大阪イノベーションハブ","lat":null,"lon":null,"state":"active","id":null},{"event_id":"422493","title":"LawTech Hackathon: Calling Law Geeks and Techies to join! #MYlegalhack","url":"http://lawtech.peatix.com","shortener_url":"https://goo.gl/chpU9D","started_at":"2018-10-20T09:00:00.000+09:00","ended_at":"2018-10-23T08:59:59.000+09:00","limit_number":null,"address":"UO business park","place":"WORQ Subang,  Unit 2-1, Level 2, The Podium, Tower 3, UOA Business Park No, 1, Jalan Pengaturcara U1/51a, Seksyen U1, 40150 Shah Alam, Selangor","lat":0.0,"lon":0.0,"state":"active","id":null},{"event_id":"424758","title":"僕らの文化祭。プロローグ２〜ラバーズハロウィン〜","url":"http://bokurano-bunkasai-prologue2.peatix.com","shortener_url":null,"started_at":"2018-10-27T10:00:00.000+09:00","ended_at":"2018-10-30T08:59:59.000+09:00","limit_number":null,"address":"新宿区新宿5丁目17−13 8・9F オリエンタルウェーブビル","place":"キリストンカフェ","lat":35.6929,"lon":139.705,"state":"active","id":null},{"event_id":"425353","title":"**Comedy Masala 8-Year Anniversary Show** | feat. DWAYNE PERKINS (USA) | as seen on NETFLIX, CONAN, JAY LENO","url":"http://8yearanniversaryshow.peatix.com","shortener_url":null,"started_at":"2018-10-03T06:00:00.000+09:00","ended_at":"2018-10-05T08:59:59.000+09:00","limit_number":null,"address":"69 Circular Road, Boat Quay, Singapore 049423","place":"HERO'S, 69 Circular Road, Singapore 049423","lat":1.28641,"lon":103.849,"state":"active","id":null},{"event_id":"425360","title":"Comedy Masala Season 9 Launch ft. JOCELYN CHIA (USA) | as seen on Gotham Comedy Live, Comedy Central \u0026 AXStv","url":"http://jocelynchia.peatix.com","shortener_url":null,"started_at":"2018-10-10T06:00:00.000+09:00","ended_at":"2018-10-12T08:59:59.000+09:00","limit_number":null,"address":"69 Circular Road, Boat Quay, Singapore 049423","place":"HERO'S, 69 Circular Road, Singapore 049423","lat":1.28641,"lon":103.849,"state":"active","id":null},{"event_id":"428108","title":"誰でも失敗しない石膏下地講座　PIGMENT LAB WORKSHOP　Tips to Make Classic Gesso Ground","url":"http://peatix.com/event/428108","shortener_url":null,"started_at":"2018-10-28T13:00:00.000+09:00","ended_at":"2018-10-31T08:59:59.000+09:00","limit_number":null,"address":"品川区 東品川2丁目5−5 TERRADA Harbor One Bldg. 1F","place":"PIGMENT","lat":35.6213,"lon":139.75,"state":"active","id":null},{"event_id":"425519","title":"特別企画！フルマラソン完走プロジェクト練習会 駒沢公園 1周年記念感謝祭イベント 無料参加特典有り","url":"http://peatix.com/event/425519","shortener_url":null,"started_at":"2018-10-14T18:00:00.000+09:00","ended_at":"2018-10-17T08:59:59.000+09:00","limit_number":null,"address":"東京都世田谷区駒沢2-11-3第二集花園ビル8F","place":"駒沢大学駅から徒歩4分のK's STUDIO","lat":35.6324,"lon":139.659,"state":"active","id":null},{"event_id":"428250","title":"10月20日（土）アイデアからビジネスを創るワークショップ「Startup Discussion」","url":"http://peatix.com/event/428250","shortener_url":null,"started_at":"2018-10-20T10:30:00.000+09:00","ended_at":"2018-10-23T08:59:59.000+09:00","limit_number":null,"address":"横浜市中区海岸通1-1","place":"波止場会館　４Ｆ小会議室Ａ","lat":35.4483,"lon":139.645,"state":"active","id":null},{"event_id":"100117","title":"Dear Venus Marche - ディア ヴィーナス マルシェ - Vol.3","url":"https://atnd.org/events/100117","shortener_url":null,"started_at":"2018-10-03T10:00:00.000+09:00","ended_at":"2018-10-03T16:00:00.000+09:00","limit_number":null,"address":"東京都八王子市横山町9-10","place":"古民家ダイニング　となりわ","lat":35.6596,"lon":139.336,"state":"closed","id":null},{"event_id":"427204","title":"IDCS Industry Dialogue Session","url":"http://idcsdialogue.peatix.com","shortener_url":null,"started_at":"2018-10-12T05:00:00.000+09:00","ended_at":"2018-10-14T08:59:59.000+09:00","limit_number":null,"address":"111 Middle Road","place":"National Design Centre","lat":1.29851,"lon":103.854,"state":"active","id":null},{"event_id":"426395","title":"「安定男子コンin水戸」2018年9月30日(日) 15:00-17:30","url":"http://peatix.com/event/426395","shortener_url":null,"started_at":"2018-10-01T00:00:00.000+09:00","ended_at":"2018-10-03T08:59:59.000+09:00","limit_number":null,"address":"茨城県水戸市宮町1-7-31 エクセルみなみ6F","place":"パパゲーノ水戸","lat":36.3701,"lon":140.477,"state":"active","id":null},{"event_id":"426307","title":"30歳以上限定「恋STORYパーティーin水戸」2018年9月30日(日) 15:00-17:30","url":"http://peatix.com/event/426307","shortener_url":null,"started_at":"2018-10-01T00:00:00.000+09:00","ended_at":"2018-10-03T08:59:59.000+09:00","limit_number":null,"address":"茨城県水戸市宮町1-7-31 エクセルみなみ6F","place":"イタリアンバイキング「パパゲーノ水戸」","lat":36.3701,"lon":140.477,"state":"active","id":null},{"event_id":"426477","title":"25歳から35歳限定「アラサーコンin盛岡」2018年9月30日(日) 15:00-17:30","url":"http://peatix.com/event/426477","shortener_url":null,"started_at":"2018-10-01T00:00:00.000+09:00","ended_at":"2018-10-03T08:59:59.000+09:00","limit_number":null,"address":"盛岡市菜園2-4-23 バーセル菜園 5F","place":"琥haku （コハク）","lat":39.7019,"lon":141.147,"state":"active","id":null},{"event_id":"426403","title":"「安定男子限定パーティーinつくば」2018年9月30日 (日) 15:00-17:30","url":"http://peatix.com/event/426403","shortener_url":null,"started_at":"2018-10-01T00:00:00.000+09:00","ended_at":"2018-10-03T08:59:59.000+09:00","limit_number":null,"address":"つくば市 竹園1-9-2 デイズタウンつくば 地下1階","place":"魚民 つくばデイズタウン店","lat":36.0779,"lon":140.116,"state":"active","id":null},{"event_id":"426415","title":"「安定男子コンin伊勢崎」2018年9月30日(日) 15:00-17:30","url":"http://peatix.com/event/426415","shortener_url":null,"started_at":"2018-10-01T00:00:00.000+09:00","ended_at":"2018-10-03T08:59:59.000+09:00","limit_number":null,"address":"伊勢崎市宮前町 モンテローザ伊勢崎ビル1F 5 62","place":"目利きの銀次 伊勢崎店","lat":36.3259,"lon":139.211,"state":"active","id":null},{"event_id":"426427","title":"25歳から35歳限定「アラサーコンin福井」2018年9月30日(日) 15:00-17:30","url":"http://peatix.com/event/426427","shortener_url":null,"started_at":"2018-10-01T00:00:00.000+09:00","ended_at":"2018-10-03T08:59:59.000+09:00","limit_number":null,"address":"福井市 中央1-4-7 木村屋中央ビル 3階、4階","place":"豊後高田どり酒場 福井西口駅前店","lat":36.062,"lon":136.221,"state":"active","id":null},{"event_id":"427711","title":"「大人の年の差コンin新潟」2018年9月30日(日) 15:00-17:30","url":"http://peatix.com/event/427711","shortener_url":null,"started_at":"2018-10-01T00:00:00.000+09:00","ended_at":"2018-10-03T08:59:59.000+09:00","limit_number":null,"address":"新潟市中央区 花園1丁目2 1, 4階","place":"白木屋 新潟駅前店","lat":37.9132,"lon":139.062,"state":"active","id":null},{"event_id":"426770","title":"「20代限定コンin宇都宮」2018年9月30日(日) 15:00-17:30","url":"http://peatix.com/event/426770","shortener_url":null,"started_at":"2018-10-01T00:00:00.000+09:00","ended_at":"2018-10-03T08:59:59.000+09:00","limit_number":null,"address":"宇都宮市東 宿郷2丁目4−1 ホテルマイステイズ宇都宮 1階","place":"魚民 宇都宮東口駅前店","lat":36.5582,"lon":139.901,"state":"active","id":null},{"event_id":"426292","title":"25歳から35歳限定「アラサーコンin郡山」2018年9月30日(日) 15:00-17:30","url":"http://peatix.com/event/426292","shortener_url":null,"started_at":"2018-10-01T00:00:00.000+09:00","ended_at":"2018-10-03T08:59:59.000+09:00","limit_number":null,"address":"郡山市駅前 7 3 2","place":"わらわら 郡山駅前店","lat":37.3984,"lon":140.387,"state":"active","id":null},{"event_id":"426413","title":"「安定男子コンin高崎」2018年9月30日(日) 15:00-17:30","url":"http://peatix.com/event/426413","shortener_url":null,"started_at":"2018-10-01T00:00:00.000+09:00","ended_at":"2018-10-03T08:59:59.000+09:00","limit_number":null,"address":"高崎市栄町14−1 イーストセンタービル","place":"魚民 高崎東口駅前店","lat":36.3217,"lon":139.015,"state":"active","id":null},{"event_id":"426297","title":"25歳から35歳限定「アラサーコンinいわき」2018年9月30日(日) 15:00-17:30","url":"http://peatix.com/event/426297","shortener_url":null,"started_at":"2018-10-01T00:00:00.000+09:00","ended_at":"2018-10-03T08:59:59.000+09:00","limit_number":null,"address":"福島県いわき市平字白銀町6-1","place":"三代目鳥メロ いわき駅前店","lat":37.0574,"lon":140.894,"state":"active","id":null},{"event_id":"426420","title":"25歳から35歳「アラサーコンin船橋」2018年9月30日(日) 15:00-17:30","url":"http://peatix.com/event/426420","shortener_url":null,"started_at":"2018-10-01T00:00:00.000+09:00","ended_at":"2018-10-03T08:59:59.000+09:00","limit_number":null,"address":"船橋市本町4丁目41−25 4.モンテローザ船橋ビル","place":"キタノイチバ 船橋南口駅前店","lat":35.699,"lon":139.986,"state":"active","id":null},{"event_id":"426475","title":"アニメ好きの街コン「ちょっと大人のアニコンin福島」2018年9月30日(日) 15:00-17:30","url":"http://peatix.com/event/426475","shortener_url":null,"started_at":"2018-10-01T00:00:00.000+09:00","ended_at":"2018-10-03T08:59:59.000+09:00","limit_number":null,"address":"福島市栄町11-30 ゼビオビルB1","place":"笑笑 福島東口駅前店","lat":37.754,"lon":140.463,"state":"active","id":null},{"event_id":"425972","title":"10月27日(土)19:00～★ 六本木 仮装して楽しむハロウィンGaitomo国際交流パーティー","url":"http://peatix.com/event/425972","shortener_url":null,"started_at":"2018-10-28T04:00:00.000+09:00","ended_at":"2018-10-30T08:59:59.000+09:00","limit_number":null,"address":"東京都港区六本木3-14-12","place":"六本木 BLACK HORSE","lat":35.6625,"lon":139.734,"state":"active","id":null},{"event_id":"426773","title":"「20代限定コンin金沢」2018年9月30日(日) 15:00-17:30","url":"http://peatix.com/event/426773","shortener_url":null,"started_at":"2018-10-01T00:00:00.000+09:00","ended_at":"2018-10-03T08:59:59.000+09:00","limit_number":null,"address":"石川県金沢市香林坊1‐1‐1 香林坊大和8F","place":"ブッフェレストラン「ザ・ダイニング　」","lat":36.563,"lon":136.654,"state":"active","id":null},{"event_id":"430193","title":"ドキュメンタリー映画『日本一幸せな従業員をつくる』自主上映会 at せんだいメディアテーク","url":"http://peatix.com/event/430193","shortener_url":null,"started_at":"2018-10-06T23:00:00.000+09:00","ended_at":"2018-10-09T08:59:59.000+09:00","limit_number":null,"address":"仙台市青葉区春日町2−1","place":"せんだいメディアテーク　７F会議室ｂ","lat":38.2656,"lon":140.866,"state":"active","id":null},{"event_id":"429903","title":"Can You Hack It 2018","url":"http://canyouhackit.peatix.com","shortener_url":"https://goo.gl/dgPNxR","started_at":"2018-10-06T04:00:00.000+09:00","ended_at":"2018-10-08T08:59:59.000+09:00","limit_number":null,"address":"6, Jalan Damanlela, Bukit Damansara, Kuala Lumpur","place":"Hong Leong Bank","lat":0.0,"lon":0.0,"state":"active","id":null},{"event_id":"425493","title":"地方創生イノベーターカンファレンス「INSPIRE 2018」｜超絶まちづくりのゴーストプロトコル 〜もう、奴らはとめられない〜","url":"http://inspire2018.peatix.com","shortener_url":null,"started_at":"2018-10-27T12:00:00.000+09:00","ended_at":"2018-10-30T08:59:59.000+09:00","limit_number":null,"address":"東京都渋谷区渋谷2丁目21−1","place":"渋谷ヒカリエホールB","lat":35.659,"lon":139.703,"state":"active","id":null},{"event_id":"429316","title":"★10月10日締め切り★RSVP by Oct 10th! 50s’ Style Celebrity Party! セレブも夢中オールディーズ＆ジルバ50年代風パーティ！","url":"http://jivecelebrityparty1020.peatix.com","shortener_url":null,"started_at":"2018-10-21T03:00:00.000+09:00","ended_at":"2018-10-23T08:59:59.000+09:00","limit_number":null,"address":"中央区銀座2−4−18 7階 アルボーレ銀座","place":"GINZA ROOTS TOKYO","lat":35.6743,"lon":139.767,"state":"active","id":null},{"event_id":"430076","title":"これが本当のデータドリブンマーケティング！広告運用における正しいデータ活用について完全攻略","url":"http://metaps-links5.peatix.com","shortener_url":null,"started_at":"2018-10-04T04:00:00.000+09:00","ended_at":"2018-10-06T08:59:59.000+09:00","limit_number":null,"address":"東京都渋谷区恵比寿4丁目20番3号","place":"トーチライトオフィス 恵比寿ガーデンプレイスタワー20階","lat":0.0,"lon":0.0,"state":"active","id":null},{"event_id":"100814","title":"石川県の防災/減災 x ITを考える！ - アーバンデータチャレンジ2018 in 石川 Vol.1","url":"https://cfk.connpass.com/event/100814/","shortener_url":"https://goo.gl/QNsWEC","started_at":"2018-10-07T13:30:00.000+09:00","ended_at":"2018-10-07T17:00:00.000+09:00","limit_number":null,"address":"石川県金沢市武蔵町14番31号","place":"ITビジネスプラザ武蔵","lat":36.5713,"lon":136.655,"state":"active","id":null},{"event_id":"79683","title":"【2018年10月2日開催】株価データ分析実践セミナー","url":"https://soleildatadojo.doorkeeper.jp/events/79683","shortener_url":null,"started_at":"2018-10-03T03:30:00.000+09:00","ended_at":"2018-10-03T06:30:00.000+09:00","limit_number":10,"address":"大阪府大阪市北区西天満二丁目5番3号(堂島深川ビル3階)","place":"SCRIBBLE OSAKA LAB（SOL）（大阪メトロ御堂筋線「淀屋橋」駅から徒歩４分）","lat":null,"lon":null,"state":"active","id":null},{"event_id":"420922","title":"ブロックチェーンハッカソン@東京理科大学2018","url":"http://tus2018-hackathon.peatix.com","shortener_url":"https://goo.gl/AmxPde","started_at":"2018-10-27T13:00:00.000+09:00","ended_at":"2018-10-30T08:59:59.000+09:00","limit_number":null,"address":"〒102-0071 東京都千代田区富士見1丁目11−2","place":"東京理科大学 富士見キャンパス","lat":35.6964,"lon":139.746,"state":"active","id":null},{"event_id":"424116","title":"《当日券あり》日本のくるみの木でパンツールをつくって、くるみパンを食べよう","url":"http://peatix.com/event/424116","shortener_url":null,"started_at":"2018-10-07T20:00:00.000+09:00","ended_at":"2018-10-10T08:59:59.000+09:00","limit_number":null,"address":"東京都世田谷区池尻1丁目5−27","place":"世田谷公園　ワークショップスペース","lat":35.6443,"lon":139.681,"state":"active","id":null},{"event_id":"430292","title":"3時間で英語の概念を変える！教科書と机を使わない新感覚英会話 Output English体験ワークショップ #7","url":"http://peatix.com/event/430292","shortener_url":null,"started_at":"2018-10-03T19:00:00.000+09:00","ended_at":"2018-10-06T08:59:59.000+09:00","limit_number":null,"address":"目黒区自由が丘1丁目3−22−B1","place":"RAISE UP STUDIO 自由が丘 レンタルスタジオ","lat":35.6095,"lon":139.671,"state":"active","id":null},{"event_id":"430283","title":"Microsoft Power BI 実践ハンズオン 入門編（2018年10月）","url":"http://powerbi201810.peatix.com","shortener_url":null,"started_at":"2018-10-25T14:00:00.000+09:00","ended_at":"2018-10-28T08:59:59.000+09:00","limit_number":null,"address":"東京都中央区銀座3丁目9 銀座3-9-4 銀座草野ビルディング 4F","place":"マイスペース 銀座マロニエ通り店","lat":35.6718,"lon":139.768,"state":"active","id":null},{"event_id":"100471","title":"【スクラムナイト#10】ふりかえりをふりかえろう","url":"https://scrumdo-kansai.connpass.com/event/100471/","shortener_url":null,"started_at":"2018-10-04T19:30:00.000+09:00","ended_at":"2018-10-04T21:30:00.000+09:00","limit_number":24,"address":"〒532-0011 大阪市淀川区西中島5-12-12 エムオーテックス新大阪ビル","place":"株式会社エムオーテックス","lat":34.7293,"lon":135.499,"state":"active","id":null},{"event_id":"430670","title":"「週末夜コンin千葉」2018年10月6日(土) 19:30-22:00","url":"http://peatix.com/event/430670","shortener_url":null,"started_at":"2018-10-07T04:30:00.000+09:00","ended_at":"2018-10-09T08:59:59.000+09:00","limit_number":null,"address":"千葉市中央区富士見1丁目2−7 千葉駅前みゆきビル 3階","place":"千年の宴 ＪＲ千葉駅前店","lat":35.6129,"lon":140.117,"state":"active","id":null},{"event_id":"430682","title":"25歳から35歳限定「アラサーパーティーin水戸」2018年10月7日(日) 19:30-22:00","url":"http://peatix.com/event/430682","shortener_url":null,"started_at":"2018-10-08T04:30:00.000+09:00","ended_at":"2018-10-10T08:59:59.000+09:00","limit_number":null,"address":"茨城県水戸市宮町1-7-31 エクセルみなみ6F","place":"パパゲーノ水戸","lat":36.3701,"lon":140.477,"state":"active","id":null},{"event_id":"430668","title":"「週末夜コンin太田」2018年10月6日(土) 19:30-22:00","url":"http://peatix.com/event/430668","shortener_url":null,"started_at":"2018-10-07T04:30:00.000+09:00","ended_at":"2018-10-09T08:59:59.000+09:00","limit_number":null,"address":"群馬県太田市飯田町1389-2 武藤ビル2F","place":"白木屋 太田南口店","lat":36.2932,"lon":139.379,"state":"active","id":null},{"event_id":"430678","title":"「20代限定コンin長野」2018年10月6日(土) 19:30-22:00","url":"http://peatix.com/event/430678","shortener_url":null,"started_at":"2018-10-07T04:30:00.000+09:00","ended_at":"2018-10-09T08:59:59.000+09:00","limit_number":null,"address":"長野市大字鶴賀南千歳町 878-5 グランヴィル南千歳2番館 1階","place":"魚民 長野千歳町通り店","lat":36.6471,"lon":138.189,"state":"active","id":null},{"event_id":"430680","title":"「30代限定コンin郡山」2018年10月7日(日) 19:30-22:00","url":"http://peatix.com/event/430680","shortener_url":null,"started_at":"2018-10-08T04:30:00.000+09:00","ended_at":"2018-10-10T08:59:59.000+09:00","limit_number":null,"address":"郡山市中町10−10","place":"魚民 郡山中町店","lat":37.398,"lon":140.384,"state":"active","id":null},{"event_id":"430685","title":"「30歳からの恋STORYパーティーinつくば」2018年10月7日(日) 19:30-22:00","url":"http://peatix.com/event/430685","shortener_url":null,"started_at":"2018-10-08T04:30:00.000+09:00","ended_at":"2018-10-10T08:59:59.000+09:00","limit_number":null,"address":"つくば市 竹園1-9-2 デイズタウンつくば 地下1階","place":"魚民 つくばデイズタウン店","lat":36.0779,"lon":140.116,"state":"active","id":null},{"event_id":"430402","title":"「週末夜コンin松江」2018年10月6日(土) 19:30-22:00","url":"http://peatix.com/event/430402","shortener_url":null,"started_at":"2018-10-07T04:30:00.000+09:00","ended_at":"2018-10-09T08:59:59.000+09:00","limit_number":null,"address":"松江市寺町198−57","place":"笑笑 松江駅前店","lat":35.4644,"lon":133.058,"state":"active","id":null},{"event_id":"425170","title":"「BBQ街コンin浦安（スカイヘブン）」2018年9月30日(日) 15:00-17:30","url":"http://peatix.com/event/425170","shortener_url":null,"started_at":"2018-10-01T00:00:00.000+09:00","ended_at":"2018-10-03T08:59:59.000+09:00","limit_number":null,"address":"浦安市北栄1丁目16−16 6F トレンディビル","place":"SKY HEAVEN（スカイヘヴン）","lat":35.6653,"lon":139.893,"state":"active","id":null},{"event_id":"98730","title":"第2回【ファミリーテックIoTLT】子どもと一緒にIoT縛りの勉強会！","url":"https://iotlt.connpass.com/event/98730/","shortener_url":null,"started_at":"2018-10-06T22:30:00.000+09:00","ended_at":"2018-10-07T01:30:00.000+09:00","limit_number":40,"address":"東京都中央区日本橋本石町３丁目３−５ 日本橋トークビル６階","place":"Japan Digital Design株式会社","lat":35.6877,"lon":139.771,"state":"active","id":null},{"event_id":"100179","title":"【豊橋会場】Space Apps Challenge Toyohashi 2018","url":"https://spaceappsjapan.connpass.com/event/100179/","shortener_url":"https://goo.gl/1vDtXY","started_at":"2018-10-20T18:00:00.000+09:00","ended_at":"2018-10-22T05:00:00.000+09:00","limit_number":30,"address":"愛知県豊橋市広小路一丁目１８　ウェルプラザユメックス５階","place":"トライアルビレッジ","lat":34.7645,"lon":137.385,"state":"active","id":null},{"event_id":"100188","title":"第18回　CoderDojo横浜","url":"https://coderdojo-yokohama.connpass.com/event/100188/","shortener_url":null,"started_at":"2018-10-08T14:00:00.000+09:00","ended_at":"2018-10-08T16:00:00.000+09:00","limit_number":null,"address":"神奈川県横浜市神奈川区鶴屋町2-24-2","place":"かながわ県民センター","lat":35.4684,"lon":139.621,"state":"active","id":null},{"event_id":"101081","title":"楽器ソンAgain！＠大阪（ハッカソン × Jam） 〜未知の楽器を作って演奏会〜 #MA_2018","url":"https://osaka.connpass.com/event/101081/","shortener_url":"https://goo.gl/jwPjnY","started_at":"2018-10-13T09:30:00.000+09:00","ended_at":"2018-10-14T18:00:00.000+09:00","limit_number":20,"address":"大阪市北区末広町3-7","place":"TAM大阪","lat":34.7019,"lon":135.51,"state":"active","id":null},{"event_id":"79979","title":"感情を大事にしながら論理的に考えてみよう！-TOCfE meets 共感的コミュニケーション-","url":"https://tocfe-kansai.doorkeeper.jp/events/79979","shortener_url":null,"started_at":"2018-10-03T04:15:00.000+09:00","ended_at":"2018-10-03T06:15:00.000+09:00","limit_number":10,"address":"大阪府大阪市北区大淀南1-6-4 大淀町スカイハイツ1120","place":"エデュケーションサロン　アジト（大阪市北区）","lat":null,"lon":null,"state":"active","id":null},{"event_id":"431079","title":"【満員御礼】第6回 さぶみっと！ヨクスル in 札幌【2018年10月19日(金)開催】","url":"http://peatix.com/event/431079","shortener_url":null,"started_at":"2018-10-19T19:00:00.000+09:00","ended_at":"2018-10-22T08:59:59.000+09:00","limit_number":null,"address":"札幌市中央区中島公園1−20","place":"豊平館","lat":43.0463,"lon":141.353,"state":"active","id":null},{"event_id":"431202","title":"【10/6 16:00〜】ーアートから知的興奮を呼び起こせ！ー【classy アート鑑賞会 vol.7】","url":"http://classy-art-event7.peatix.com","shortener_url":null,"started_at":"2018-10-07T00:50:00.000+09:00","ended_at":"2018-10-09T08:59:59.000+09:00","limit_number":null,"address":"台東区上野公園13−9","place":"東京国立博物館","lat":35.7188,"lon":139.777,"state":"active","id":null},{"event_id":"431251","title":"【オンライン講座】グーグル・アナリティクス 上級レポーティング講座 (10/16)","url":"http://peatix.com/event/431251","shortener_url":null,"started_at":"2018-10-16T10:00:00.000+09:00","ended_at":"2018-10-19T08:59:59.000+09:00","limit_number":null,"address":"日本","place":"ご自宅のPC","lat":0.0,"lon":0.0,"state":"active","id":null},{"event_id":"99842","title":"大八耐２０１８ in 東京","url":"https://daihachitai.connpass.com/event/99842/","shortener_url":null,"started_at":"2018-10-06T19:00:00.000+09:00","ended_at":"2018-10-08T05:00:00.000+09:00","limit_number":90,"address":"東京都渋谷区東1-2-20 住友不動産渋谷ファーストタワー7F コラボスペース","place":"株式会社ミクシィ コラボスペース","lat":35.658,"lon":139.709,"state":"active","id":null},{"event_id":"431895","title":"ユガワラ サイコウ ガッシュク ～あなたが湯河原を変える～","url":"http://yugawara-sg1.peatix.com","shortener_url":null,"started_at":"2018-10-27T12:30:00.000+09:00","ended_at":"2018-10-30T08:59:59.000+09:00","limit_number":null,"address":"神奈川県足柄下郡湯河原町宮上749","place":"湯河原　若草荘","lat":35.151,"lon":139.071,"state":"active","id":null},{"event_id":"432148","title":"green drinks Tokyo 「コミュニティで仕事をつくる、自由な生き方」","url":"http://peatix.com/event/432148","shortener_url":null,"started_at":"2018-10-05T04:00:00.000+09:00","ended_at":"2018-10-07T08:59:59.000+09:00","limit_number":null,"address":"台東区下谷1丁目11−15","place":"SOOO dramatic!","lat":35.7195,"lon":139.783,"state":"active","id":null},{"event_id":"432409","title":"10/10(水) イタリアンナイト@六本木 / Italian Night in Roppongi","url":"http://peatix.com/event/432409","shortener_url":null,"started_at":"2018-10-11T04:00:00.000+09:00","ended_at":"2018-10-13T08:59:59.000+09:00","limit_number":null,"address":"東京都港区六本木3−16−33","place":"Hobgoblin Roppongi","lat":35.6623,"lon":139.737,"state":"active","id":null},{"event_id":"432702","title":"第55回堀江貴文とカウンターで高級寿司を食べる【限定8名】テリヤキプレミアム鮨会","url":"http://sushikai55.peatix.com","shortener_url":null,"started_at":"2018-10-12T03:30:00.000+09:00","ended_at":"2018-10-14T08:59:59.000+09:00","limit_number":null,"address":"東京都港区麻布十番2丁目8-12","place":"鮨 麻布十番 乃南","lat":0.0,"lon":0.0,"state":"active","id":null},{"event_id":"101407","title":"World MoveIt! Day 2018 in Kashiwa-no-ha（柏の葉）","url":"https://rosjp.connpass.com/event/101407/","shortener_url":"https://goo.gl/AhZVfR","started_at":"2018-10-26T19:00:00.000+09:00","ended_at":"2018-10-27T03:00:00.000+09:00","limit_number":35,"address":"東京大学柏の葉キャンパス駅前サテライト 〒277-0871 千葉県柏市若柴","place":"東京大学柏の葉キャンパス駅前サテライト","lat":35.8947,"lon":139.953,"state":"active","id":null},{"event_id":"101343","title":"VTuberハッカソン2018 横須賀","url":"https://connpass.com/event/101343/","shortener_url":"https://goo.gl/uS5rYP","started_at":"2018-10-13T19:00:00.000+09:00","ended_at":"2018-10-14T21:00:00.000+09:00","limit_number":40,"address":"神奈川県横須賀市小川町19-5 富士ビル3階","place":"16Startups","lat":35.2811,"lon":139.673,"state":"active","id":null},{"event_id":"101438","title":"(時間変更)NASA/宇宙デー­­タ分析ハッカソン by Team AI 10/3(水)","url":"https://teamai.connpass.com/event/101438/","shortener_url":"https://goo.gl/EmX29t","started_at":"2018-10-03T19:30:00.000+09:00","ended_at":"2018-10-03T21:30:00.000+09:00","limit_number":10,"address":"","place":"Online","lat":35.6618,"lon":139.696,"state":"active","id":null},{"event_id":"80059","title":"(時間変更)NASA/宇宙デー­­タ分析ハッカソン","url":"https://team-ai.doorkeeper.jp/events/80059","shortener_url":"https://goo.gl/tPokcv","started_at":"2018-10-04T04:30:00.000+09:00","ended_at":"2018-10-04T06:30:00.000+09:00","limit_number":5,"address":"東京都渋谷区宇田川町36-17 ニューシブヤマンション202","place":"Team AIベース（ニューシブヤマンション202）","lat":null,"lon":null,"state":"active","id":null},{"event_id":"431477","title":"バタフライボード試作品（A3）を使ったアイデアソン","url":"http://asuyomi20181016.peatix.com","shortener_url":"https://goo.gl/7b8mBW","started_at":"2018-10-17T04:00:00.000+09:00","ended_at":"2018-10-19T08:59:59.000+09:00","limit_number":null,"address":"東京都大田区新蒲田1-17-25","place":"FUJITSU Knowledge Integration Base PLY（富士通ソリューションスクエア2階）","lat":35.5581,"lon":139.713,"state":"active","id":null},{"event_id":"101523","title":"BPLL #26","url":"https://bpstudy.connpass.com/event/101523/","shortener_url":null,"started_at":"2018-10-16T21:10:00.000+09:00","ended_at":"2018-10-16T22:00:00.000+09:00","limit_number":null,"address":"東京都渋谷区千駄ヶ谷5-32-7-4F","place":"株式会社ビープラウド","lat":35.6864,"lon":139.704,"state":"active","id":null},{"event_id":"101508","title":"PowerAppsでノンコーディングな勉強会＋ハッカソン！#2","url":"https://powerapps.connpass.com/event/101508/","shortener_url":"https://goo.gl/2aXQaS","started_at":"2018-10-14T18:30:00.000+09:00","ended_at":"2018-10-15T03:00:00.000+09:00","limit_number":100,"address":"東京都港区港南２丁目１６−３ (品川グランドセントラルタワー)","place":"日本マイクロソフト株式会社 品川本社","lat":35.6266,"lon":139.741,"state":"active","id":null},{"event_id":"432555","title":"10月19日(金)19:00～★ 代官山 目的別ブレスレットで出会い率アップのGaitomo国際交流パーティー","url":"http://peatix.com/event/432555","shortener_url":null,"started_at":"2018-10-19T19:00:00.000+09:00","ended_at":"2018-10-22T08:59:59.000+09:00","limit_number":null,"address":"〒150-0034, 20-20 代官山町, 渋谷区","place":"BLU JAM CAFE Daikanyama","lat":35.648,"lon":139.702,"state":"active","id":null},{"event_id":"433649","title":"NHKディレクソン in 静岡中部 〜外国人に「COOL！」と言わせる静岡中部のキャッチコピーを生み出そう！〜","url":"http://nhkdirecthon12.peatix.com","shortener_url":"https://goo.gl/LjZGpu","started_at":"2018-10-08T22:30:00.000+09:00","ended_at":"2018-10-11T08:59:59.000+09:00","limit_number":null,"address":"静岡県島田市金谷富士見町3053−2","place":"茶の都ミュージアム　多目的ホール","lat":0.0,"lon":0.0,"state":"active","id":null},{"event_id":"433663","title":"NHKディレクソン in 静岡西部 〜外国人に「COOL！」と言わせる静岡西部のキャッチコピーを生み出そう！〜","url":"http://nhkdirecthon13.peatix.com","shortener_url":"https://goo.gl/hwhHCQ","started_at":"2018-10-21T13:30:00.000+09:00","ended_at":"2018-10-24T08:59:59.000+09:00","limit_number":null,"address":"浜松市中区城北3丁目5-1","place":"静岡大学高柳記念未来技術創造館 １Ｆラウンジ","lat":0.0,"lon":0.0,"state":"active","id":null},{"event_id":"433342","title":"NHKディレクソン in 静岡東部 〜外国人に「COOL！」と言わせる静岡東部のキャッチコピーを生み出そう！〜","url":"http://nhkdirecthon11.peatix.com","shortener_url":"https://goo.gl/i5XpVS","started_at":"2018-10-06T22:30:00.000+09:00","ended_at":"2018-10-09T08:59:59.000+09:00","limit_number":null,"address":"静岡県熱海市和田浜南町5−8","place":"熱海温泉　ホテル・サンミ倶楽部　９F宴会場","lat":0.0,"lon":0.0,"state":"active","id":null},{"event_id":"432657","title":"トークンエコノミーの最新動向","url":"http://peatix.com/event/432657","shortener_url":null,"started_at":"2018-10-06T04:00:00.000+09:00","ended_at":"2018-10-08T08:59:59.000+09:00","limit_number":null,"address":"東京都中央区日本橋本町4-8-16","place":"ブロックチェーンハブ日本橋事務所 (千城ビル5階)","lat":35.6895,"lon":139.775,"state":"active","id":null},{"event_id":"433299","title":"Fw:東北 共創イベント 伝統工芸2.0　大堀相馬焼が挑戦する継承の仕組みづくり","url":"http://peatix.com/event/433299","shortener_url":"https://goo.gl/CPVqBG","started_at":"2018-10-06T22:30:00.000+09:00","ended_at":"2018-10-09T08:59:59.000+09:00","limit_number":null,"address":"福島県郡山市朝日一丁目23番7号","place":"郡山市役所 特別会議室","lat":37.401,"lon":140.36,"state":"active","id":null},{"event_id":"425117","title":"【銀座 / 10月開催】基礎から学ぶ住宅ローン～コンサルタントに聞く、住宅ローンの賢い借り方～","url":"http://peatix.com/event/425117","shortener_url":null,"started_at":"2018-10-18T19:00:00.000+09:00","ended_at":"2018-10-21T08:59:59.000+09:00","limit_number":null,"address":"中央区銀座5丁目2−1 東急プラザ銀座 6階","place":"丸福珈琲店 銀座喫茶室","lat":35.6718,"lon":139.762,"state":"active","id":null},{"event_id":"432547","title":"10月12日(金)19:00～ 渋谷 ネオラグ空間を楽しめる目的自由のGaitomo国際交流パーティー","url":"http://peatix.com/event/432547","shortener_url":null,"started_at":"2018-10-13T04:00:00.000+09:00","ended_at":"2018-10-15T08:59:59.000+09:00","limit_number":null,"address":"渋谷区道玄坂1丁目17−9 SK PLAZA ビル B1F","place":"LAUREL TOKYO","lat":35.657,"lon":139.697,"state":"active","id":null},{"event_id":"80143","title":"【10/3（水）・10（水）】初心者向け・２回で学ぶシリーズ③『NumPyと線形代数の基礎』","url":"https://soleildatadojo.doorkeeper.jp/events/80143","shortener_url":null,"started_at":"2018-10-04T04:30:00.000+09:00","ended_at":"2018-10-11T06:30:00.000+09:00","limit_number":8,"address":"大阪府大阪市北区西天満二丁目5番3号(堂島深川ビル3階)","place":"SCRIBBLE OSAKA LAB（SOL）（大阪メトロ御堂筋線「淀屋橋」駅から徒歩４分）","lat":null,"lon":null,"state":"active","id":null},{"event_id":"80162","title":"【10/3（水）・10（水）】初心者向け・２回で学ぶシリーズ①『PythonとJupyterNotebookの基礎』","url":"https://soleildatadojo.doorkeeper.jp/events/80162","shortener_url":null,"started_at":"2018-10-04T04:30:00.000+09:00","ended_at":"2018-10-11T06:30:00.000+09:00","limit_number":11,"address":"大阪府大阪市北区西天満二丁目5番3号(堂島深川ビル3階)","place":"SCRIBBLE OSAKA LAB（SOL）（大阪メトロ御堂筋線「淀屋橋」駅から徒歩４分）","lat":null,"lon":null,"state":"active","id":null},{"event_id":"80165","title":"【10/9（火）・16（火）】初心者向け・２回で学ぶシリーズ②『Pandasとデータ可視化の基礎』","url":"https://soleildatadojo.doorkeeper.jp/events/80165","shortener_url":null,"started_at":"2018-10-10T04:30:00.000+09:00","ended_at":"2018-10-17T06:30:00.000+09:00","limit_number":8,"address":"大阪府大阪市北区西天満二丁目5番3号(堂島深川ビル3階)","place":"SCRIBBLE OSAKA LAB（SOL）（大阪メトロ御堂筋線「淀屋橋」駅から徒歩４分）","lat":null,"lon":null,"state":"active","id":null},{"event_id":"80167","title":"『Python, Machine Learning \u0026 Raspberry PI』自主勉強会#5","url":"https://soleildatadojo.doorkeeper.jp/events/80167","shortener_url":null,"started_at":"2018-10-12T04:30:00.000+09:00","ended_at":"2018-10-12T06:40:00.000+09:00","limit_number":8,"address":"大阪府大阪市北区西天満二丁目5番3号(堂島深川ビル3階)","place":"SCRIBBLE OSAKA LAB（SOL）（大阪メトロ御堂筋線「淀屋橋」駅から徒歩４分）","lat":null,"lon":null,"state":"active","id":null},{"event_id":"432495","title":"《当日券あり》パンをもっと楽しみたい！簡単ディップを作って、mas/mas（マスマス）を使っておうちパーティー（試食付）","url":"http://peatix.com/event/432495","shortener_url":null,"started_at":"2018-10-08T01:00:00.000+09:00","ended_at":"2018-10-10T08:59:59.000+09:00","limit_number":null,"address":"東京都世田谷区池尻 2-4-5","place":"IID世田谷ものづくり学校 　1F 108教室","lat":35.6463,"lon":139.681,"state":"active","id":null},{"event_id":"433732","title":"【本日開催！10/18東京】meetALIVE #5 ブロックチェーンの未来　セッション参加無料","url":"http://meetalive181018.peatix.com","shortener_url":null,"started_at":"2018-10-18T17:30:00.000+09:00","ended_at":"2018-10-21T08:59:59.000+09:00","limit_number":null,"address":"東京都六本木3丁目2−1","place":"住友不動産六本木グランドタワー３６階　ウイングアーク１st","lat":35.6646,"lon":139.738,"state":"active","id":null},{"event_id":"432278","title":"SBC20『ホモ・デウス（上）テクノロジーとサピエンスの未来』読書会","url":"http://peatix.com/event/432278","shortener_url":null,"started_at":"2018-10-03T03:50:00.000+09:00","ended_at":"2018-10-05T08:59:59.000+09:00","limit_number":null,"address":"大阪市北区松ヶ枝町5-10 松茂ビル202","place":"まあるいところ","lat":34.6986,"lon":135.516,"state":"active","id":null},{"event_id":"433820","title":"自転車まちづくりセミナー「ヨーロッパのまちづくりと自転車生活」","url":"http://peatix.com/event/433820","shortener_url":null,"started_at":"2018-10-06T04:00:00.000+09:00","ended_at":"2018-10-08T08:59:59.000+09:00","limit_number":null,"address":"東京都千代田区麹町麹町3-12-11麹町田村ビル4F","place":"Patia麹町店","lat":35.6858,"lon":139.739,"state":"active","id":null},{"event_id":"431507","title":"Global Networking Night Vol.1 | 社会人のための国際交流パーティー","url":"http://gnn1.peatix.com","shortener_url":null,"started_at":"2018-10-27T19:30:00.000+09:00","ended_at":"2018-10-30T08:59:59.000+09:00","limit_number":null,"address":"東京都渋谷区神宮前5-46-15","place":"シャルール表参道","lat":35.6641,"lon":139.708,"state":"active","id":null},{"event_id":"101776","title":"富山県民協働未来創生事業　県民発公共交通オープンデータ利活用開発合宿","url":"https://code4toyama.connpass.com/event/101776/","shortener_url":"https://goo.gl/79Ef2f","started_at":"2018-10-20T13:30:00.000+09:00","ended_at":"2018-10-20T17:00:00.000+09:00","limit_number":60,"address":"富山県高岡市下関町６−１","place":"curun高岡B1ステージ","lat":36.7416,"lon":137.015,"state":"active","id":null},{"event_id":"80169","title":"『Python, Machine Learning \u0026 Raspberry PI』自主勉強会#6","url":"https://soleildatadojo.doorkeeper.jp/events/80169","shortener_url":null,"started_at":"2018-10-25T19:30:00.000+09:00","ended_at":"2018-10-25T21:40:00.000+09:00","limit_number":8,"address":"大阪府大阪市北区西天満二丁目5番3号(堂島深川ビル3階)","place":"SCRIBBLE OSAKA LAB（SOL）（大阪メトロ御堂筋線「淀屋橋」駅から徒歩４分）","lat":null,"lon":null,"state":"active","id":null},{"event_id":"80180","title":" 【再オープン・残席4】Startup Weekend Yokohama 2018秋の交流会 ～SWY9プレイベントVol.1～","url":"https://swyokohama.doorkeeper.jp/events/80180","shortener_url":null,"started_at":"2018-10-07T03:00:00.000+09:00","ended_at":"2018-10-07T06:00:00.000+09:00","limit_number":null,"address":"","place":"横浜駅周辺の居酒屋","lat":null,"lon":null,"state":"active","id":null},{"event_id":"80005","title":"【ファクトリエ山田様講演/朝日新聞共催】SDGs × XR/AI アイデアソン#3　～ テクノロジーによるモノづくりの新しいカタチ～","url":"https://future-tech-association.doorkeeper.jp/events/80005","shortener_url":"https://goo.gl/z9oKz4","started_at":"2018-10-11T04:00:00.000+09:00","ended_at":"2018-10-11T07:00:00.000+09:00","limit_number":22,"address":"〒150-0001 東京都渋谷区神宮前6丁目19-21 ホルツ細川ビル4F","place":"朝日新聞社メディアラボ渋谷分室","lat":null,"lon":null,"state":"active","id":null},{"event_id":"80248","title":"10/13(土)~14(日)festivo ホームページ作成（WordPress） Camp@東京【学生15,000円、一般20,000円】～戦うスキルを身につける15時間！WordPress集中合宿！～","url":"https://festivo.doorkeeper.jp/events/80248","shortener_url":"https://goo.gl/kXXgPz","started_at":"2018-10-13T19:30:00.000+09:00","ended_at":"2018-10-15T03:30:00.000+09:00","limit_number":7,"address":"東京都練馬区豊玉北3-15-17","place":"起業家シェアハウス x-garden セミナールーム","lat":null,"lon":null,"state":"active","id":null},{"event_id":"435549","title":"初心者向け大喜利体験スポット『ひなどり』10/25(木)テーマ「ゲームで【オオギリ脳】を鍛える！」【毎月 第２・第４木曜】","url":"http://hinadori1025.peatix.com","shortener_url":null,"started_at":"2018-10-25T19:30:00.000+09:00","ended_at":"2018-10-28T08:59:59.000+09:00","limit_number":null,"address":"東京都新宿区西新宿7-1-7","place":"『ひなどり』新宿ダイカン教室(新宿ダイカンビルＡ館 1109号室)","lat":35.6945,"lon":139.699,"state":"active","id":null},{"event_id":"435533","title":"初心者向け大喜利体験スポット『ひなどり』10/11(木)テーマ「お題をとことん読み解く」【毎月 第２・第４木曜】","url":"http://hinadori1011.peatix.com","shortener_url":null,"started_at":"2018-10-12T04:30:00.000+09:00","ended_at":"2018-10-14T08:59:59.000+09:00","limit_number":null,"address":"東京都新宿区西新宿7-1-7","place":"『ひなどり』新宿ダイカン教室(新宿ダイカンビルＡ館 1109号室)","lat":35.6945,"lon":139.699,"state":"active","id":null},{"event_id":"435060","title":"Acro+ Brunch: Urban Invasion","url":"http://acrobrunchcmcr.peatix.com","shortener_url":null,"started_at":"2018-10-20T09:45:00.000+09:00","ended_at":"2018-10-23T08:59:59.000+09:00","limit_number":null,"address":"1, Jalan Tun Mohd Fuad, Taman Tun Dr Ismail, Kuala Lumpur","place":"Common Man Coffee Roasters Kuala Lumpur","lat":3.13954,"lon":101.63,"state":"active","id":null},{"event_id":"409583","title":"第７回富山ブロックチェーン研究会講演会 [Meetup]","url":"http://peatix.com/event/409583","shortener_url":null,"started_at":"2018-10-25T16:00:00.000+09:00","ended_at":"2018-10-28T08:59:59.000+09:00","limit_number":null,"address":"富山県富山市牛島新町5番5号","place":"タワー111　21階会議室","lat":36.7033,"lon":137.216,"state":"active","id":null},{"event_id":"101594","title":"Web×IoT メイカーズチャレンジ 2018-19 in 札幌","url":"https://webiotmakers.connpass.com/event/101594/","shortener_url":"https://goo.gl/1pf5ZR","started_at":"2018-10-13T19:00:00.000+09:00","ended_at":"2018-10-15T03:00:00.000+09:00","limit_number":30,"address":"北海道札幌市中央区南１条西６丁目20−1 (ジョブキタビル8階)","place":"space360","lat":43.0586,"lon":141.348,"state":"active","id":null},{"event_id":"102034","title":"【全4回 / 第4回 】目指せ50万！ LINE BOOT AWARDS 応募しようぜ も","url":"https://kumamcn.connpass.com/event/102034/","shortener_url":null,"started_at":"2018-10-10T03:00:00.000+09:00","ended_at":"2018-10-10T06:00:00.000+09:00","limit_number":10,"address":"熊本市中央区世安町172","place":"びぷれす","lat":32.7895,"lon":130.69,"state":"active","id":null},{"event_id":"102033","title":"【全4回 / 第3回 】目指せ50万！ LINE BOOT AWARDS 応募しようぜ も","url":"https://kumamcn.connpass.com/event/102033/","shortener_url":null,"started_at":"2018-10-03T03:00:00.000+09:00","ended_at":"2018-10-03T06:00:00.000+09:00","limit_number":10,"address":"熊本市中央区世安町172","place":"びぷれす","lat":32.7895,"lon":130.69,"state":"active","id":null},{"event_id":"434517","title":"アニメ好きの街コン「アニコンin浜松」2018年10月7日(日) 15:00-17:30","url":"http://peatix.com/event/434517","shortener_url":null,"started_at":"2018-10-08T00:00:00.000+09:00","ended_at":"2018-10-10T08:59:59.000+09:00","limit_number":null,"address":"静岡県浜松市中区肴町318‐27","place":" 地中海料理　セルフィッシュ","lat":34.7062,"lon":137.729,"state":"active","id":null},{"event_id":"434170","title":"25歳から35歳限定「アラサーコンin山形」2018年10月6日(土) 19:30-22:00","url":"http://peatix.com/event/434170","shortener_url":null,"started_at":"2018-10-07T04:30:00.000+09:00","ended_at":"2018-10-09T08:59:59.000+09:00","limit_number":null,"address":"山形市香澄町1丁目15−28 ホテルニュー最上屋","place":"魚民 山形駅前店","lat":38.2497,"lon":140.329,"state":"active","id":null},{"event_id":"434182","title":"週末夜コンin盛岡　2018年10月6日(土) 19:30-22:00","url":"http://peatix.com/event/434182","shortener_url":null,"started_at":"2018-10-07T04:30:00.000+09:00","ended_at":"2018-10-09T08:59:59.000+09:00","limit_number":null,"address":"盛岡市菜園2-4-23","place":"琥haku （コハク）","lat":39.7019,"lon":141.147,"state":"active","id":null},{"event_id":"434500","title":"「週末夜コンinつくば」2018年10月6日(土) 19:30-22:00","url":"http://peatix.com/event/434500","shortener_url":null,"started_at":"2018-10-07T04:30:00.000+09:00","ended_at":"2018-10-09T08:59:59.000+09:00","limit_number":null,"address":"つくば市吾妻1丁目6−1","place":"月の宴 つくばクレオスクエアＭＯＧ店","lat":36.0814,"lon":140.111,"state":"active","id":null},{"event_id":"434524","title":"「週末夜コンin長野」2018年10月7日(日) 19:30-22:00","url":"http://peatix.com/event/434524","shortener_url":null,"started_at":"2018-10-08T04:30:00.000+09:00","ended_at":"2018-10-10T08:59:59.000+09:00","limit_number":null,"address":"長野市大字鶴賀南千歳町 878-5 グランヴィル南千歳2番館 1階","place":"魚民 長野千歳町通り店","lat":36.6471,"lon":138.189,"state":"active","id":null},{"event_id":"435604","title":"25歳から35歳「アラサーコンin金沢」2018年10月8日(月) 15:00-17:30","url":"http://peatix.com/event/435604","shortener_url":null,"started_at":"2018-10-09T00:00:00.000+09:00","ended_at":"2018-10-11T08:59:59.000+09:00","limit_number":null,"address":"石川県金沢市香林坊1‐1‐1 香林坊大和8F","place":"ブッフェレストラン「ザ・ダイニング　」","lat":36.563,"lon":136.654,"state":"active","id":null},{"event_id":"434168","title":"「安定男子コンin山形」2018年10月6日(土) 15:00-17:30","url":"http://peatix.com/event/434168","shortener_url":null,"started_at":"2018-10-07T00:00:00.000+09:00","ended_at":"2018-10-09T08:59:59.000+09:00","limit_number":null,"address":"山形市香澄町1丁目15−28 ホテルニュー最上屋","place":"魚民 山形駅前店","lat":38.2497,"lon":140.329,"state":"active","id":null},{"event_id":"434207","title":"「週末夜コンin松江」2018年10月6日(土) 19:30-22:00","url":"http://peatix.com/event/434207","shortener_url":null,"started_at":"2018-10-07T04:30:00.000+09:00","ended_at":"2018-10-09T08:59:59.000+09:00","limit_number":null,"address":"松江市寺町198−57","place":"笑笑 松江駅前店","lat":35.4644,"lon":133.058,"state":"active","id":null},{"event_id":"435572","title":"「週末夜コンin松本」2018年10月7日(日) 19:30-22:00","url":"http://peatix.com/event/435572","shortener_url":null,"started_at":"2018-10-08T04:30:00.000+09:00","ended_at":"2018-10-10T08:59:59.000+09:00","limit_number":null,"address":"松本市深志1丁目2−31 SPICAビル","place":"笑笑 松本東口駅前店","lat":36.2307,"lon":137.966,"state":"active","id":null},{"event_id":"435584","title":"25歳から35歳限定「アラサーパーティーin水戸」2018年10月8日(月) 15:00-17:30","url":"http://peatix.com/event/435584","shortener_url":null,"started_at":"2018-10-09T00:00:00.000+09:00","ended_at":"2018-10-11T08:59:59.000+09:00","limit_number":null,"address":"茨城県水戸市宮町1-7-31 エクセルみなみ6F","place":"パパゲーノ水戸","lat":36.3701,"lon":140.477,"state":"active","id":null},{"event_id":"435596","title":"25歳から35歳限定「アラサーコンin静岡」2018年10月8日(月) 15:00-17:30","url":"http://peatix.com/event/435596","shortener_url":null,"started_at":"2018-10-09T00:00:00.000+09:00","ended_at":"2018-10-11T08:59:59.000+09:00","limit_number":null,"address":"静岡市葵区 御幸町8-3 パレスV 1階","place":"目利きの銀次 静岡北口駅前店","lat":34.9732,"lon":138.387,"state":"active","id":null},{"event_id":"435623","title":"「週末夜コンinいわき」2018年10月13日(土) 19:30-22:00","url":"http://peatix.com/event/435623","shortener_url":null,"started_at":"2018-10-14T04:30:00.000+09:00","ended_at":"2018-10-16T08:59:59.000+09:00","limit_number":null,"address":"いわき市 平字田町1-1 レストランビル3F","place":"JAPANESE DINING 和民 いわき駅前店","lat":37.057,"lon":140.893,"state":"active","id":null},{"event_id":"434163","title":"「加茂水族館デートコンin鶴岡」2018年10月21日(日) 12:00-17:30","url":"http://peatix.com/event/434163","shortener_url":null,"started_at":"2018-10-21T21:00:00.000+09:00","ended_at":"2018-10-24T08:59:59.000+09:00","limit_number":null,"address":"山形県鶴岡市今泉大久保656","place":"加茂水族館（集合：正門前／売店前）","lat":38.7622,"lon":139.726,"state":"active","id":null},{"event_id":"434247","title":"20代限定「社会人男子コンin鶴岡」2018年10月7日(日) 19:30-22:00","url":"http://peatix.com/event/434247","shortener_url":null,"started_at":"2018-10-08T04:30:00.000+09:00","ended_at":"2018-10-10T08:59:59.000+09:00","limit_number":null,"address":"山形県鶴岡市末広町2-41 YS鶴岡駅前ビル 1F","place":"千年の宴　鶴岡駅前店","lat":38.7397,"lon":139.838,"state":"active","id":null},{"event_id":"434499","title":"「週末夜コンin郡山」2018年10月6日(土) 19:30-22:00","url":"http://peatix.com/event/434499","shortener_url":null,"started_at":"2018-10-07T04:30:00.000+09:00","ended_at":"2018-10-09T08:59:59.000+09:00","limit_number":null,"address":"郡山市中町10−10","place":"魚民 郡山中町店","lat":37.398,"lon":140.384,"state":"active","id":null},{"event_id":"434514","title":"男女20代限定「社会人男子コンinいわき」2018年10月7日(日) 15:00-17:30","url":"http://peatix.com/event/434514","shortener_url":null,"started_at":"2018-10-08T00:00:00.000+09:00","ended_at":"2018-10-10T08:59:59.000+09:00","limit_number":null,"address":"福島県いわき市平字白銀町6-1","place":"三代目鳥メロ いわき駅前店","lat":37.0574,"lon":140.894,"state":"active","id":null},{"event_id":"435606","title":"「アラサーコンin長野」2018年10月8日(月) 15:00-17:30","url":"http://peatix.com/event/435606","shortener_url":null,"started_at":"2018-10-09T00:00:00.000+09:00","ended_at":"2018-10-11T08:59:59.000+09:00","limit_number":null,"address":"長野市大字鶴賀南千歳町 878-5 グランヴィル南千歳2番館 1階","place":"魚民 長野千歳町通り店","lat":36.6471,"lon":138.189,"state":"active","id":null},{"event_id":"434122","title":"25歳から35歳限定「アラサーコンin松本」2018年9月30日(日) 15:00-17:30","url":"http://peatix.com/event/434122","shortener_url":null,"started_at":"2018-10-01T00:00:00.000+09:00","ended_at":"2018-10-03T08:59:59.000+09:00","limit_number":null,"address":"松本市深志1丁目2−31 SPICAビル","place":"笑笑 松本東口駅前店","lat":36.2307,"lon":137.966,"state":"active","id":null},{"event_id":"102160","title":"(時間変更)自然言語データ分析ハッカソン by Team AI 10/10(水)","url":"https://teamai.connpass.com/event/102160/","shortener_url":"https://goo.gl/ukJMCC","started_at":"2018-10-11T04:30:00.000+09:00","ended_at":"2018-10-11T06:30:00.000+09:00","limit_number":10,"address":"","place":"Online","lat":35.6618,"lon":139.696,"state":"active","id":null},{"event_id":"101907","title":"名古ゲ部ゲームジャム　10月6日（土）～10月7日（日）","url":"https://nagogebu.connpass.com/event/101907/","shortener_url":"https://goo.gl/Jey6SD","started_at":"2018-10-06T10:00:00.000+09:00","ended_at":"2018-10-07T18:00:00.000+09:00","limit_number":12,"address":"愛知県名古屋市中区丸の内３丁目５－３４（セントラルコーポ５０３号室）","place":"名古屋ゲーム制作部(セントラルコーポ 503号室)","lat":35.1773,"lon":136.906,"state":"active","id":null},{"event_id":"80319","title":"(時間変更)自然言語データ分析ハッカソン","url":"https://team-ai.doorkeeper.jp/events/80319","shortener_url":"https://goo.gl/DdoAVU","started_at":"2018-10-11T04:30:00.000+09:00","ended_at":"2018-10-11T06:30:00.000+09:00","limit_number":4,"address":"東京都渋谷区宇田川町36-17 ニューシブヤマンション202","place":"Team AIベース（ニューシブヤマンション202）","lat":null,"lon":null,"state":"active","id":null},{"event_id":"434601","title":"MOTION GALLERY Crossing #1　都市と地方を行き交う人たちの増やし方","url":"http://peatix.com/event/434601","shortener_url":null,"started_at":"2018-10-14T00:00:00.000+09:00","ended_at":"2018-10-16T08:59:59.000+09:00","limit_number":null,"address":"江東区三好1丁目7−14 リトル トーキョー","place":"リトルトーキョー","lat":35.6801,"lon":139.8,"state":"active","id":null},{"event_id":"429671","title":"【マーケター巌流島】マーケティング業界の活性化と若手マーケターの育成を目指して、オールナイトで討論します！@渋谷","url":"http://marketer-ganryujima.peatix.com","shortener_url":null,"started_at":"2018-10-06T06:00:00.000+09:00","ended_at":"2018-10-08T08:59:59.000+09:00","limit_number":null,"address":"渋谷区道玄坂2丁目27−2 トウワ道玄坂ビル 1F","place":"FIGHT CLUB 428","lat":35.6594,"lon":139.698,"state":"active","id":null},{"event_id":"435167","title":"【10/11夜 開催】新しい時代のリーダーが向き合う「理想」と「現実」","url":"http://happinessatwork011.peatix.com","shortener_url":null,"started_at":"2018-10-12T04:00:00.000+09:00","ended_at":"2018-10-14T08:59:59.000+09:00","limit_number":null,"address":"東京都港区港南1-2-70","place":"コクヨ 品川SSTライブオフィス（品川シーズンテラス18F）","lat":35.6326,"lon":139.742,"state":"active","id":null},{"event_id":"431898","title":"Bumpy Lens 〜劇場で出会ったクリエイティブな人たち〜 #6","url":"http://bumpy-lens006.peatix.com","shortener_url":null,"started_at":"2018-10-17T19:00:00.000+09:00","ended_at":"2018-10-20T08:59:59.000+09:00","limit_number":null,"address":"千代田区 有楽町2-5-1","place":"阪急メンズ東京 8Fイベントルーム","lat":35.6737,"lon":139.763,"state":"active","id":null},{"event_id":"436315","title":"☆TokyoDecadance DX Halloween 2018☆","url":"http://halloween-decadance-2018.peatix.com","shortener_url":null,"started_at":"2018-10-20T22:30:00.000+09:00","ended_at":"2018-10-23T08:59:59.000+09:00","limit_number":null,"address":"中央区日本橋室町2丁目4−3 4 階 日本橋室町野村ビル","place":"XEX 日本橋","lat":35.6873,"lon":139.774,"state":"active","id":null},{"event_id":"435133","title":"Live English Standup Comedy Show in Tokyo (Asian Comedians Night)","url":"http://peatix.com/event/435133","shortener_url":null,"started_at":"2018-10-21T04:15:00.000+09:00","ended_at":"2018-10-23T08:59:59.000+09:00","limit_number":null,"address":"東京都墨田区東駒形 2-20-10","place":"浅草スマイルバー","lat":0.0,"lon":0.0,"state":"active","id":null},{"event_id":"435188","title":"Creative Non-fiction Workshop with John Burnside","url":"http://johnburnsidews.peatix.com","shortener_url":null,"started_at":"2018-10-06T20:00:00.000+09:00","ended_at":"2018-10-09T08:59:59.000+09:00","limit_number":null,"address":"1 Old Parliament Ln, Former Parliament House and Annex Building, Singapore 179429","place":"Council Room @ The Arts House ","lat":1.28868,"lon":103.851,"state":"active","id":null},{"event_id":"436289","title":"「週末夜コンin宇都宮」2018年10月13日(土) 19:30-22:00","url":"http://peatix.com/event/436289","shortener_url":null,"started_at":"2018-10-14T04:30:00.000+09:00","ended_at":"2018-10-16T08:59:59.000+09:00","limit_number":null,"address":"宇都宮市駅前通り1丁目5−2","place":"白木屋 ＪＲ宇都宮西口駅前店","lat":36.5595,"lon":139.897,"state":"active","id":null},{"event_id":"436311","title":"「週末夜コンin福井」2018年10月13日(土) 19:30-22:00","url":"http://peatix.com/event/436311","shortener_url":null,"started_at":"2018-10-14T04:30:00.000+09:00","ended_at":"2018-10-16T08:59:59.000+09:00","limit_number":null,"address":"福井市中央1丁目4−7 木村屋中央ビル 3階4階","place":"豊後高田どり酒場 福井西口駅前店","lat":36.062,"lon":136.221,"state":"active","id":null},{"event_id":"436291","title":"「週末夜コンin太田」2018年10月13日(土) 19:30-22:00","url":"http://peatix.com/event/436291","shortener_url":null,"started_at":"2018-10-14T04:30:00.000+09:00","ended_at":"2018-10-16T08:59:59.000+09:00","limit_number":null,"address":"群馬県太田市飯田町1389-2 武藤ビル2F","place":"白木屋 太田南口店","lat":36.2932,"lon":139.379,"state":"active","id":null},{"event_id":"436330","title":"25歳から35歳限定「アラサーコンin郡山」2018年10月14日(日) 15:00-17:30","url":"http://peatix.com/event/436330","shortener_url":null,"started_at":"2018-10-15T00:00:00.000+09:00","ended_at":"2018-10-17T08:59:59.000+09:00","limit_number":null,"address":"郡山市 駅前2-3-12 越後屋プラザ 2階","place":"山内農場 郡山駅前店","lat":37.3982,"lon":140.387,"state":"active","id":null},{"event_id":"434521","title":"25歳から35歳限定「アラサーコンin富山」2018年10月7日(日) 19:00-21:00","url":"http://peatix.com/event/434521","shortener_url":null,"started_at":"2018-10-08T04:00:00.000+09:00","ended_at":"2018-10-10T08:59:59.000+09:00","limit_number":null,"address":"富山市総曲輪3丁目8−番 6号大和富山店 6F","place":"ザ・ブッフェ 大和富山","lat":36.6894,"lon":137.213,"state":"active","id":null},{"event_id":"435586","title":"「安定男子限定パーティーinつくば」2018年10月8日 (月) 15:00-17:30","url":"http://peatix.com/event/435586","shortener_url":null,"started_at":"2018-10-09T00:00:00.000+09:00","ended_at":"2018-10-11T08:59:59.000+09:00","limit_number":null,"address":"つくば市吾妻1丁目6−1","place":"月の宴 つくばクレオスクエアＭＯＧ店","lat":36.0814,"lon":140.111,"state":"active","id":null},{"event_id":"435598","title":"「30代限定コンin船橋」2018年10月8日(月) 15:00-17:30","url":"http://peatix.com/event/435598","shortener_url":null,"started_at":"2018-10-09T00:00:00.000+09:00","ended_at":"2018-10-11T08:59:59.000+09:00","limit_number":null,"address":"船橋市 本町4-41-25 4.モンテローザ船橋ビル 6階","place":"美食厨房白木屋 船橋南口駅前店","lat":35.699,"lon":139.986,"state":"active","id":null},{"event_id":"435625","title":"25歳から35歳限定「アラサーパーティーin水戸」2018年10月13日(土) 19:30-22:00","url":"http://peatix.com/event/435625","shortener_url":null,"started_at":"2018-10-14T04:30:00.000+09:00","ended_at":"2018-10-16T08:59:59.000+09:00","limit_number":null,"address":"茨城県水戸市宮町1-7-31 エクセルみなみ6F","place":"パパゲーノ水戸","lat":36.3701,"lon":140.477,"state":"active","id":null},{"event_id":"434177","title":"「週末夜コンin鶴岡」2018年10月6日(土) 19:30-22:00","url":"http://peatix.com/event/434177","shortener_url":null,"started_at":"2018-10-07T04:30:00.000+09:00","ended_at":"2018-10-09T08:59:59.000+09:00","limit_number":null,"address":"鶴岡市末広町2-41 YS鶴岡駅前ビル 1階","place":"千年の宴 鶴岡駅前店","lat":38.7397,"lon":139.838,"state":"active","id":null},{"event_id":"436313","title":"「大人の年の差コンin福井」2018年10月13日(土) 19:30-22:00","url":"http://peatix.com/event/436313","shortener_url":null,"started_at":"2018-10-14T04:30:00.000+09:00","ended_at":"2018-10-16T08:59:59.000+09:00","limit_number":null,"address":"福井市中央1丁目4−7 木村屋中央ビル 3階4階","place":"豊後高田どり酒場 福井西口駅前店","lat":36.062,"lon":136.221,"state":"active","id":null},{"event_id":"99082","title":"増枠！【DLLAB ハンズオン@福岡】機械学習のモデルを学習＆デプロイまで体験！","url":"https://dllab.connpass.com/event/99082/","shortener_url":null,"started_at":"2018-10-21T22:00:00.000+09:00","ended_at":"2018-10-22T04:00:00.000+09:00","limit_number":50,"address":"〒810-0041 福岡県福岡市中央区大名2丁目6番11号","place":"Fukuoka Growth Next イベントスペース","lat":33.589,"lon":130.395,"state":"active","id":null},{"event_id":"99081","title":"増枠！福岡 Machine Learning/Deep Learning Meetup #2","url":"https://dllab.connpass.com/event/99081/","shortener_url":null,"started_at":"2018-10-20T23:00:00.000+09:00","ended_at":"2018-10-21T03:00:00.000+09:00","limit_number":80,"address":"〒810-0041 福岡県福岡市中央区大名2丁目6番11号","place":"Fukuoka Growth Next イベントスペース","lat":33.589,"lon":130.395,"state":"active","id":null},{"event_id":"102321","title":"京都アジャイル勉強会#85 オープン・ジャム","url":"https://kyoaja.connpass.com/event/102321/","shortener_url":null,"started_at":"2018-10-09T19:30:00.000+09:00","ended_at":"2018-10-09T21:30:00.000+09:00","limit_number":20,"address":"京都府京都市中京区高宮町206(御池ビル8階)","place":"はてな","lat":35.0112,"lon":135.762,"state":"active","id":null},