[{"event_id":"662412","title":"ワールドワーク　〜葛藤・対立を変容させていくための対話促進アプローチ〜「ジェンダー・セクシュアリティ」をめぐる様々な声 (2019)","url":"http://worldworkgender2019.peatix.com","shortener_url":null,"started_at":"2019-10-12T13:00:00.000+09:00","ended_at":"2019-10-15T08:59:59.000+09:00","limit_number":null,"address":"山梨県北杜市高根町清里3545","place":"キープ協会　清泉寮　ハリスホール","lat":35.9125,"lon":138.44,"state":"active","id":null},{"event_id":"662495","title":"★ドネーションチケット★　ワールドワークLABOの活動を応援しよう！〜葛藤・対立を変容させていくための対話促進アプローチ〜","url":"http://wwlabodonation2019.peatix.com","shortener_url":null,"started_at":"2019-10-12T00:00:00.000+09:00","ended_at":"2019-10-14T08:59:59.000+09:00","limit_number":null,"address":"長野県","place":"ドネーションチケット","lat":36.6513,"lon":138.181,"state":"active","id":null},{"event_id":"696358","title":"スポーツ栄養講座「アスリートの食事2019・実践編」第２回（2019年10月26日)","url":"http://peatix.com/event/696358","shortener_url":null,"started_at":"2019-10-26T10:00:00.000+09:00","ended_at":"2019-10-29T08:59:59.000+09:00","limit_number":null,"address":"東京都中央区築地3-5-10","place":"日刊スポーツ新聞社","lat":35.668,"lon":139.774,"state":"active","id":null},{"event_id":"696344","title":"スポーツ栄養講座「アスリートの食事2019・実践編」第２回（2019年10月24日)","url":"http://peatix.com/event/696344","shortener_url":null,"started_at":"2019-10-24T13:00:00.000+09:00","ended_at":"2019-10-27T08:59:59.000+09:00","limit_number":null,"address":"東京都中央区築地3-5-10","place":"日刊スポーツ新聞社","lat":35.668,"lon":139.774,"state":"active","id":null},{"event_id":"737628","title":"【ぶっちゃけ途上国支援で飯くってけるんですか？】NPO代表がお答えします。 =NPO/国際協力のリアルトーク＝in 名古屋","url":"http://realseminar1008.peatix.com","shortener_url":null,"started_at":"2019-10-08T19:00:00.000+09:00","ended_at":"2019-10-11T08:59:59.000+09:00","limit_number":null,"address":"名古屋市中村区那古野1丁目47−1","place":"名古屋国際センター","lat":35.1728,"lon":136.89,"state":"active","id":null},{"event_id":"813536","title":"【ぶっちゃけ途上国支援で飯くってけるんですか？】NPO代表がお答えします。 =NPO/国際協力のリアルトーク＝ in大阪","url":"http://realseminar1006.peatix.com","shortener_url":null,"started_at":"2019-10-06T15:45:00.000+09:00","ended_at":"2019-10-09T08:59:59.000+09:00","limit_number":null,"address":"大阪府大阪市北区堂山町1-5三共梅田ビル","place":"大阪レンタルスペース","lat":0.0,"lon":0.0,"state":"active","id":null},{"event_id":"94739","title":"【今年は関西で初開催】スタンフォード大学d.Schoolのインストラクターが教えるデザイン思考ワークショップ","url":"https://designthinking.doorkeeper.jp/events/94739","shortener_url":null,"started_at":"2019-10-23T09:30:00.000+09:00","ended_at":"2019-10-24T18:00:00.000+09:00","limit_number":55,"address":"大阪府大阪市北区鶴野町1番5号","place":"関西大学梅田キャンパスKANDAI Me RISE","lat":null,"lon":null,"state":"active","id":null},{"event_id":"1042130","title":"10/19(土)~20(日)festivo はじめてのプログラミング Camp@広島【学生20,000円、一般25,000円】～戦うスキルを身につける15時間！プログラミング概要からPHP/SQL集中合宿！～","url":"http://peatix.com/event/1042130","shortener_url":"https://bit.ly/2XVHYWt","started_at":"2019-10-19T10:00:00.000+09:00","ended_at":"2019-10-22T08:59:59.000+09:00","limit_number":null,"address":"広島市中区広瀬北町3-11 和光広瀬ビル4F","place":"ソアラビジネスポート セミナールーム","lat":34.4033,"lon":132.448,"state":"active","id":null},{"event_id":"1126079","title":"【ぶっちゃけ途上国支援で飯くってけるんですか？】NPO代表がお答えします。 =NPO/国際協力のリアルトーク＝","url":"http://realseminar1014.peatix.com","shortener_url":null,"started_at":"2019-10-14T15:45:00.000+09:00","ended_at":"2019-10-17T08:59:59.000+09:00","limit_number":null,"address":"東京都台東区入谷1-27-4プラーズ入谷","place":"入谷ホール","lat":35.7221,"lon":139.786,"state":"active","id":null},{"event_id":"1207077","title":"【次世代型リトミック教室】\"音楽の力\"でお子さまの新たな一面を発見してみませんか？","url":"http://peatix.com/event/1207077","shortener_url":null,"started_at":"2019-10-27T11:30:00.000+09:00","ended_at":"2019-10-30T08:59:59.000+09:00","limit_number":null,"address":"神奈川県川崎市中原区新丸子町749-6 GSハイム102","place":"武蔵小杉会場【レッスンスタジオ「話芸写」】","lat":35.5804,"lon":139.66,"state":"active","id":null},{"event_id":"1206903","title":"【次世代型リトミック教室】\"音楽の力\"で、子どもの可能性を伸ばしてみませんか？","url":"http://peatix.com/event/1206903","shortener_url":null,"started_at":"2019-10-13T11:30:00.000+09:00","ended_at":"2019-10-16T08:59:59.000+09:00","limit_number":null,"address":"神奈川県川崎市新丸子町749-6 GSハイム102","place":"武蔵小杉会場【レッスンスタジオ「話芸写」】","lat":35.5804,"lon":139.66,"state":"active","id":null},{"event_id":"1298974","title":"10/13(日)~14(祝)festivo WordPressオリジナルテーマ制作（WPカスタマイズ） Camp@東京【学生20,000円、一般25,000円】～WEBサイトのWordPress化を学ぶ15時間！PHPプログラミングステップアップ集中合宿！！～","url":"http://peatix.com/event/1298974","shortener_url":"https://bit.ly/2YSRy86","started_at":"2019-10-13T10:00:00.000+09:00","ended_at":"2019-10-16T08:59:59.000+09:00","limit_number":null,"address":"東京都練馬区豊玉北3-15-17","place":"起業家シェアハウス x-garden セミナールーム","lat":35.7329,"lon":139.661,"state":"active","id":null},{"event_id":"95969","title":"《大阪開催》【10/12（土）開講！第8期生募集】データ分析教育講座《10−12月》","url":"https://soleildatadojo.doorkeeper.jp/events/95969","shortener_url":null,"started_at":"2019-10-12T10:00:00.000+09:00","ended_at":"2019-12-21T17:10:00.000+09:00","limit_number":20,"address":"大阪府大阪市北区西天満2−5−3(堂島深川ビル3F)","place":"Scrrible Osaka Lab（大阪メトロ御堂筋線「淀屋橋」駅より徒歩4分／京阪電鉄中之島線「大江橋」駅徒歩2分）","lat":null,"lon":null,"state":"active","id":null},{"event_id":"96273","title":"WikipediaTown沼津＃15＆マッピングパーティー UDC2019","url":"https://0168e91711e4c480d710c70399.doorkeeper.jp/events/96273","shortener_url":null,"started_at":"2019-10-06T09:30:00.000+09:00","ended_at":"2019-10-06T17:00:00.000+09:00","limit_number":null,"address":"","place":"","lat":null,"lon":null,"state":"active","id":null},{"event_id":"95331","title":"［初開催］StartupWeekend関門","url":"https://swkanmon.doorkeeper.jp/events/95331","shortener_url":null,"started_at":"2019-10-18T18:00:00.000+09:00","ended_at":"2019-10-20T20:00:00.000+09:00","limit_number":60,"address":"福岡県 北九州市門司区東港町4-68","place":"［金日］ZATTA ZISSE / ［土］uzuhouse","lat":null,"lon":null,"state":"active","id":null},{"event_id":"1308089","title":"【次世代型リトミック教室】 \"音楽の力\"で、子どもの可能性を伸ばしてみませんか？","url":"http://peatix.com/event/1308089","shortener_url":null,"started_at":"2019-10-19T11:00:00.000+09:00","ended_at":"2019-10-22T08:59:59.000+09:00","limit_number":null,"address":"神奈川県川崎市中原区小杉陣屋町1丁目23−7","place":"武蔵小杉【ダンススタジオR】","lat":35.5858,"lon":139.659,"state":"active","id":null},{"event_id":"92442","title":"Startup Weekend 浜松 8th＠静岡大学","url":"https://swhamamatsu.doorkeeper.jp/events/92442","shortener_url":null,"started_at":"2019-10-11T18:00:00.000+09:00","ended_at":"2019-10-13T21:30:00.000+09:00","limit_number":40,"address":"静岡県浜松市中区城北3丁目5−1","place":"静岡大学　浜松キャンパス　高柳記念未来技術創造館　＆　共通学部棟１１室","lat":null,"lon":null,"state":"active","id":null},{"event_id":"1309711","title":"南魚沼・湯沢あとつぎアイデアソン","url":"http://peatix.com/event/1309711","shortener_url":"https://bit.ly/2Hl46PC","started_at":"2019-10-19T11:00:00.000+09:00","ended_at":"2019-10-22T08:59:59.000+09:00","limit_number":null,"address":"中央区京橋3丁目1−1 東京スクエアガーデン6階","place":"シティラボ東京（City Lab TOKYO）","lat":35.676,"lon":139.769,"state":"active","id":null},{"event_id":"1311917","title":"【参加無料】やまがたの『仕事』と『暮らし』に触れてみませんか？～ＵＩターン就職から地域おこし協力隊まで～","url":"http://peatix.com/event/1311917","shortener_url":null,"started_at":"2019-10-19T17:30:00.000+09:00","ended_at":"2019-10-22T08:59:59.000+09:00","limit_number":null,"address":"千代田区有楽町2丁目10−1 東京交通会館8階","place":"ふるさと回帰支援センター","lat":35.6748,"lon":139.764,"state":"active","id":null},{"event_id":"1306248","title":"『台東鳥瞰』03号刊行記念イベント「落語と長屋」〜柳屋小満ん師匠による落語とトークイベント〜","url":"http://taitochokan3.peatix.com","shortener_url":null,"started_at":"2019-10-18T18:30:00.000+09:00","ended_at":"2019-10-21T08:59:59.000+09:00","limit_number":null,"address":"台東区台東区雷門2丁目18−9","place":"浅草文化観光センター","lat":35.7107,"lon":139.797,"state":"active","id":null},{"event_id":"97044","title":"10/13(日)~14(祝)festivo WordPressオリジナルテーマ制作（WPカスタマイズ） Camp@東京【学生20,000円、一般25,000円】～WEBサイトのWordPress化を学ぶ15時間！PHPプログラミングステップアップ集中合宿！！～","url":"https://festivo.doorkeeper.jp/events/97044","shortener_url":"https://bit.ly/2NG4Xi6","started_at":"2019-10-13T10:00:00.000+09:00","ended_at":"2019-10-14T19:00:00.000+09:00","limit_number":10,"address":"東京都練馬区豊玉北3-15-17","place":"起業家シェアハウス x-garden セミナールーム","lat":null,"lon":null,"state":"active","id":null},{"event_id":"97066","title":"Startup Weekend えひめ vol.9（スタートアップ ウイークエンド愛媛） ","url":"https://swehime.doorkeeper.jp/events/97066","shortener_url":null,"started_at":"2019-10-25T18:30:00.000+09:00","ended_at":"2019-10-27T21:00:00.000+09:00","limit_number":65,"address":"愛媛県松山市二番町3丁目7番地12","place":"サイボウズ株式会社　松山オフィス","lat":null,"lon":null,"state":"active","id":null},{"event_id":"96394","title":"【開催延期】スタートアップウィークエンド信州 in 上田 \"こらぼれーしょん\"@まちなかキャンパスうえだ 〜学生とのコラボで上田から新しい価値をつくる54時間〜","url":"https://swshinshu.doorkeeper.jp/events/96394","shortener_url":null,"started_at":"2019-10-11T18:00:00.000+09:00","ended_at":"2019-10-13T21:00:00.000+09:00","limit_number":30,"address":"〒386-0012 長野県上田市中央2-5-10  丸陽ビル1階","place":"まちなかキャンパスうえだ","lat":null,"lon":null,"state":"active","id":null},{"event_id":"145820","title":"熊ゆに Unityもくもく会　2019/10/6（日）","url":"https://kumauni.connpass.com/event/145820/","shortener_url":null,"started_at":"2019-10-06T13:00:00.000+09:00","ended_at":"2019-10-06T17:00:00.000+09:00","limit_number":10,"address":"熊本県熊本市 中央区下通１丁目１２−２７","place":"未来会議室","lat":32.7998,"lon":130.708,"state":"active","id":null},{"event_id":"97135","title":"WikipediaTown函南","url":"https://0168e91711e4c480d710c70399.doorkeeper.jp/events/97135","shortener_url":null,"started_at":"2019-10-13T09:30:00.000+09:00","ended_at":"2019-10-13T17:00:00.000+09:00","limit_number":15,"address":"静岡県 田方郡函南町上沢字田中107","place":"かんなみ知恵の和館（函南町立図書館）","lat":null,"lon":null,"state":"active","id":null},{"event_id":"1311484","title":"STARRY NIGHT JAM vol.48　星語り 秋の夜長の星空散歩","url":"http://snj48.peatix.com","shortener_url":null,"started_at":"2019-10-26T16:00:00.000+09:00","ended_at":"2019-10-29T08:59:59.000+09:00","limit_number":null,"address":"福岡市中央区 六本松4丁目2−1","place":"福岡市科学館","lat":33.5774,"lon":130.378,"state":"active","id":null},{"event_id":"1316225","title":"足底筋膜炎や足首周辺の痛みで走れないランナーのための痛み改善教室(4名限定少人数制開催。走りません) 千葉県柏市 FLAT柏","url":"http://peatix.com/event/1316225","shortener_url":null,"started_at":"2019-10-26T13:00:00.000+09:00","ended_at":"2019-10-29T08:59:59.000+09:00","limit_number":null,"address":"千葉県柏市柏4-4-5メープル柏201","place":"【集合/受付】千葉県柏市 鍼灸マッサージ院FLAT柏","lat":35.863,"lon":139.974,"state":"active","id":null},{"event_id":"1316501","title":"ランニングマガジン・クリール サブ３＆310＆3.5達成企画　第3弾”通い合宿”＠東京","url":"http://alaplustraining.peatix.com","shortener_url":null,"started_at":"2019-10-05T09:30:00.000+09:00","ended_at":"2019-10-08T08:59:59.000+09:00","limit_number":null,"address":"足立区千住桜木2-2-1","place":"帝京科学大学千住キャンパス陸上競技場　\u0026     荒川河川敷","lat":35.7537,"lon":139.79,"state":"active","id":null},{"event_id":"1318300","title":"南アフリカスモールビジネスの始め方 第4回ビジネス勉強会  「南アでわしも考えた～仮想通貨でソーシャルグッドやれるんちゃう？」","url":"http://sajp04.peatix.com","shortener_url":null,"started_at":"2019-10-01T19:00:00.000+09:00","ended_at":"2019-10-04T08:59:59.000+09:00","limit_number":null,"address":"港区麻布台2-2-122 三貴 ビル 2F","place":"ブルー バオバブ アフリカ Blue Baobab Africa","lat":35.6587,"lon":139.743,"state":"active","id":null},{"event_id":"97232","title":"［無料］アイデアソン「2030年の熊本を想像してみよう！」","url":"https://swkumamoto.doorkeeper.jp/events/97232","shortener_url":"https://bit.ly/2MWju9J","started_at":"2019-10-06T17:00:00.000+09:00","ended_at":"2019-10-06T20:00:00.000+09:00","limit_number":20,"address":"〒860-0807 熊本県熊本市中央区下通1丁目12−27, CORE21下通ビル","place":"未来会議室","lat":null,"lon":null,"state":"active","id":null},{"event_id":"1318284","title":"法社会制度ハッカソン （スマートシティと未来のまちづくり）","url":"http://peatix.com/event/1318284","shortener_url":"https://bit.ly/2NRiraJ","started_at":"2019-10-05T14:00:00.000+09:00","ended_at":"2019-10-08T08:59:59.000+09:00","limit_number":null,"address":"真鶴町真鶴504−1","place":"コミュニティ真鶴","lat":35.1559,"lon":139.139,"state":"active","id":null},{"event_id":"145481","title":"アウトドアエンジニア愛好会＠ゆいまーる淡路島～瀬戸内海が見える自然の中でエンジニア合宿in 淡路島～","url":"https://connpass.com/event/145481/","shortener_url":"https://bit.ly/2LpwAdz","started_at":"2019-10-17T15:00:00.000+09:00","ended_at":"2019-10-19T10:00:00.000+09:00","limit_number":10,"address":"〒656-1512 兵庫県淡路市北山2069","place":"ゆいまーる淡路島","lat":34.47,"lon":134.859,"state":"active","id":null},{"event_id":"97349","title":"デザイン☆ラボ（みしまみらい研究所）","url":"https://0168e91711e4c480d710c70399.doorkeeper.jp/events/97349","shortener_url":null,"started_at":"2019-10-10T18:30:00.000+09:00","ended_at":"2019-10-10T21:30:00.000+09:00","limit_number":null,"address":"みしま未来研究所、中央町6-2","place":"","lat":null,"lon":null,"state":"active","id":null},{"event_id":"1320459","title":"＜甲状腺エコーのご経験がある方へ！スキルアップをしませんか？＞","url":"http://peatix.com/event/1320459","shortener_url":null,"started_at":"2019-10-25T18:30:00.000+09:00","ended_at":"2019-10-28T08:59:59.000+09:00","limit_number":null,"address":"台東区台東4丁目8−7 ヒューリック仲御徒町ビル8階","place":"メドフィット【MEDFit】","lat":35.7061,"lon":139.777,"state":"active","id":null},{"event_id":"1323165","title":"10/20(日) soar cafe event 〜心と体に優しいお茶で“回復じかん”を過ごせるカフェ","url":"http://event20191020.peatix.com","shortener_url":null,"started_at":"2019-10-20T13:00:00.000+09:00","ended_at":"2019-10-23T08:59:59.000+09:00","limit_number":null,"address":"渋谷区渋谷1丁目23−21","place":"渋谷キャスト","lat":35.6626,"lon":139.703,"state":"active","id":null},{"event_id":"1321196","title":"スマホ・仕事・人間関係で疲れていませんか？音による癒しの日本最大級イベント「ISBAシンギングボウル倍音ライブ」","url":"http://191018.peatix.com","shortener_url":null,"started_at":"2019-10-18T15:00:00.000+09:00","ended_at":"2019-10-21T08:59:59.000+09:00","limit_number":null,"address":"渋谷区神宮前5丁目53−67","place":"東京ウィメンズプラザ","lat":35.6633,"lon":139.708,"state":"active","id":null},{"event_id":"1320121","title":"【特別招待講演】頭埋込み型ブレインコンピュータインタフェースのフランスの取り組みと日本における実装の可能性","url":"http://peatix.com/event/1320121","shortener_url":null,"started_at":"2019-10-04T14:30:00.000+09:00","ended_at":"2019-10-07T08:59:59.000+09:00","limit_number":null,"address":"東京都渋谷区恵比寿南3-5-7","place":"株式会社デジタルガレージ本社9階","lat":35.6463,"lon":139.704,"state":"active","id":null},{"event_id":"146707","title":"プリッカソン #9 (プリリズ/プリパラ/プリチャン)","url":"https://prickathon.connpass.com/event/146707/","shortener_url":"https://bit.ly/34zbIIn","started_at":"2019-10-06T10:00:00.000+09:00","ended_at":"2019-10-06T20:00:00.000+09:00","limit_number":null,"address":"東京都千代田区平河町2-5-3 Nagatacho GRiD ","place":"Nagatacho GRiD Space0","lat":35.6798,"lon":139.74,"state":"active","id":null},{"event_id":"1321130","title":"新潟で農業・林業を始めませんか？～新規就農・就業チャレンジフェア～","url":"http://challengefair011026.peatix.com","shortener_url":null,"started_at":"2019-10-26T13:00:00.000+09:00","ended_at":"2019-10-29T08:59:59.000+09:00","limit_number":null,"address":"長岡市坂之上町2丁目1-1","place":"長岡商工会議所　３階ホール","lat":37.4487,"lon":138.849,"state":"active","id":null},{"event_id":"1323867","title":"【東京・中目黒開催】『電磁波ストレスマネジメント講座』 〜むやみに電磁波を心配するのは、もうやめませんか？〜","url":"http://peatix.com/event/1323867","shortener_url":null,"started_at":"2019-10-20T10:30:00.000+09:00","ended_at":"2019-10-23T08:59:59.000+09:00","limit_number":null,"address":"東京都目黒区上目黒2丁目9‐36","place":"プレマルシェ・スタジオ中目黒","lat":35.6432,"lon":139.699,"state":"active","id":null},{"event_id":"948286","title":"【東京・中目黒開催】ボディワーカーが教える『ストレスマネジメント講座』 ストレスを解消しようとして、  ストレスを溜めていませんか？","url":"http://peatix.com/event/948286","shortener_url":null,"started_at":"2019-10-19T14:00:00.000+09:00","ended_at":"2019-10-22T08:59:59.000+09:00","limit_number":null,"address":"東京都目黒区上目黒2丁目9‐36","place":"プレマルシェ・スタジオ中目黒","lat":35.6432,"lon":139.699,"state":"active","id":null},{"event_id":"1324751","title":"＜シャントエコーを学びませんか？「プローブを握ったことがない方」「ステップアップしたい方」におすすめです！＞","url":"http://peatix.com/event/1324751","shortener_url":null,"started_at":"2019-10-20T14:30:00.000+09:00","ended_at":"2019-10-23T08:59:59.000+09:00","limit_number":null,"address":"台東区台東4丁目8−7 ヒューリック仲御徒町ビル8階","place":"メドフィット【MEDFit】","lat":35.7061,"lon":139.777,"state":"active","id":null},{"event_id":"1324999","title":"1Day完結の認定講座「おから再活プロデューサー」仕込みのいらないエコ味噌作りの講師になる！あなたもお教室を開催しませんか？","url":"http://okaramiso-syowacho.peatix.com","shortener_url":null,"started_at":"2019-10-18T10:00:00.000+09:00","ended_at":"2019-10-21T08:59:59.000+09:00","limit_number":null,"address":"大阪府阿倍野区阪南町1-54-15","place":"大阪のお料理教室 ゆる和食®","lat":34.634,"lon":135.513,"state":"active","id":null},{"event_id":"97587","title":"a-blog cms 勉強会 in 大阪 2019/10","url":"https://ablogcms-osaka.doorkeeper.jp/events/97587","shortener_url":null,"started_at":"2019-10-09T14:00:00.000+09:00","ended_at":"2019-10-09T18:00:00.000+09:00","limit_number":14,"address":"大阪市淀川区十三東1-17-13 水交ビル 1F","place":"JUSO COWORKING","lat":null,"lon":null,"state":"active","id":null},{"event_id":"664547","title":"【増枠しました】#SAKETech - 日本酒を飲むシーンを面白くするアイテムをかたちにするアイデアソン","url":"http://campfire-saketech.peatix.com","shortener_url":"https://bit.ly/2LpLQqY","started_at":"2019-10-01T19:00:00.000+09:00","ended_at":"2019-10-04T08:59:59.000+09:00","limit_number":null,"address":"東京都千代田区神田練塀町3 富士ソフト秋葉原ビル12F","place":"DMM.make AKIBA","lat":35.7003,"lon":139.774,"state":"active","id":null},{"event_id":"1322657","title":"「感じる知性」からはじめよう！ ～ドキュメンタリー映画「じねん」上映会 ＆「本の企画、一緒に考えませんか？」会議vol.1.5～","url":"http://kanjiruchisei5.peatix.com","shortener_url":null,"started_at":"2019-10-02T18:15:00.000+09:00","ended_at":"2019-10-05T08:59:59.000+09:00","limit_number":null,"address":"東京都中央区日本橋2-7-1 東京日本橋タワー10F","place":"日本能率協会マネジメントセンター","lat":35.6819,"lon":139.774,"state":"active","id":null},{"event_id":"1323065","title":"【受付終了】フリーランス・複業人材求む！！10/25-26 福岡＆九州の企業と働こう！個人の時代に向けたフリーランス×企業マッチング合宿＠福岡・福津市","url":"http://freelance-fukuokafukutsu1910.peatix.com","shortener_url":"https://bit.ly/2NZWlmC","started_at":"2019-10-25T11:30:00.000+09:00","ended_at":"2019-10-28T08:59:59.000+09:00","limit_number":null,"address":"Japan","place":"福間駅","lat":33.7638,"lon":130.487,"state":"active","id":null},{"event_id":"1326914","title":"10/6（日）\u003c初心者大歓迎！\u003e苔のテラリウム作ってみませんか？","url":"http://peatix.com/event/1326914","shortener_url":null,"started_at":"2019-10-06T13:00:00.000+09:00","ended_at":"2019-10-09T08:59:59.000+09:00","limit_number":null,"address":"志木市本町5丁目26−1 マルイ 3階","place":"NATURIM(ナチュリム)","lat":35.8232,"lon":139.574,"state":"active","id":null},{"event_id":"1325634","title":"【満員御礼】10月5日（土）13:00~16:00　かものはしで一緒にボランティアをしませんか？@恵比寿","url":"http://peatix.com/event/1325634","shortener_url":null,"started_at":"2019-10-05T13:00:00.000+09:00","ended_at":"2019-10-08T08:59:59.000+09:00","limit_number":null,"address":"東京都渋谷区広尾5-23-5 長谷部第一ビル402号室","place":"かものはしプロジェクト事務所（恵比寿）","lat":35.6485,"lon":139.718,"state":"active","id":null},{"event_id":"108769","title":"【関西初開催】アウトドアエンジニア愛好会＠ゆいまーる淡路島～瀬戸内海が見える自然の中でエンジニア合宿in 淡路島～","url":"https://atnd.org/events/108769","shortener_url":"https://bit.ly/2O0uhQ3","started_at":"2019-10-17T15:00:00.000+09:00","ended_at":"2019-10-19T10:00:00.000+09:00","limit_number":10,"address":"〒656-1512 兵庫県淡路市北山2069","place":"ゆいまーる淡路島","lat":34.47,"lon":134.859,"state":"closed","id":null},{"event_id":"1327532","title":"音楽をＤＩＹしませんか？～あなただけのオリジナルの曲を作ろう！～","url":"http://peatix.com/event/1327532","shortener_url":null,"started_at":"2019-10-20T10:30:00.000+09:00","ended_at":"2019-10-23T08:59:59.000+09:00","limit_number":null,"address":"東京都新宿区新宿5丁目11-20 伊土ビル301号室","place":"新宿三丁目 みらいスペース","lat":35.6934,"lon":139.708,"state":"active","id":null},{"event_id":"1325014","title":"1Day完結の認定講座「おから再活プロデューサー」仕込みのいらないエコ味噌作りの講師になる！あなたもお教室を開催しませんか？","url":"http://okaramiso-tadaoka.peatix.com","shortener_url":null,"started_at":"2019-10-19T09:00:00.000+09:00","ended_at":"2019-10-22T08:59:59.000+09:00","limit_number":null,"address":"大阪府泉北郡忠岡町北出2-9-44","place":"手作りパンunokaパン教室","lat":34.4825,"lon":135.408,"state":"active","id":null},{"event_id":"146474","title":"第28回　CoderDojo横浜","url":"https://coderdojo-yokohama.connpass.com/event/146474/","shortener_url":null,"started_at":"2019-10-05T14:00:00.000+09:00","ended_at":"2019-10-05T16:00:00.000+09:00","limit_number":null,"address":"神奈川県横浜市神奈川区鶴屋町2-24-2","place":"かながわ県民センター","lat":35.4684,"lon":139.621,"state":"active","id":null},{"event_id":"1328275","title":"【無料】リアルタイムに図解する楽描（らくがき） 体験会 #楽描ワイワイ  （定例：毎月第２日曜日）","url":"http://rkgkyy-20191013.peatix.com","shortener_url":null,"started_at":"2019-10-13T09:30:00.000+09:00","ended_at":"2019-10-16T08:59:59.000+09:00","limit_number":null,"address":"千代田区紀尾井町1−2 17F","place":"LODGE","lat":35.6797,"lon":139.737,"state":"active","id":null},{"event_id":"140626","title":"【乾杯スタートで居酒屋ハック！】養老乃瀧ハッカソン2019","url":"https://yorohack.connpass.com/event/140626/","shortener_url":"https://bit.ly/2O9Mue6","started_at":"2019-10-26T09:30:00.000+09:00","ended_at":"2019-10-27T20:00:00.000+09:00","limit_number":50,"address":"東京都豊島区西池袋 1-10-15","place":"養老乃瀧 池袋 ","lat":35.7294,"lon":139.709,"state":"active","id":null},{"event_id":"147118","title":"はこだてハッカソン@ #ヒーローズリーグ 2019 by MA","url":"https://mashupawards.connpass.com/event/147118/","shortener_url":"https://bit.ly/30fxhiV","started_at":"2019-10-05T10:00:00.000+09:00","ended_at":"2019-10-06T17:30:00.000+09:00","limit_number":35,"address":"北海道函館市亀田中野町116番地2","place":"はこだて未来大学 エレクトロニクス工房 ","lat":41.8418,"lon":140.767,"state":"active","id":null},{"event_id":"147508","title":"[Math \u0026 Coding #06] グラフニューラルネット入門/ GPT2(自然言語生成)の応用","url":"https://math-coding.connpass.com/event/147508/","shortener_url":null,"started_at":"2019-10-05T13:00:00.000+09:00","ended_at":"2019-10-05T17:30:00.000+09:00","limit_number":35,"address":"〒606-8507 京都府京都市左京区聖護院川原町５４","place":"京都大学医学部附属病院 先端医療機器開発・臨床研究センター(リンク先案内図80番の建物)","lat":35.0197,"lon":135.778,"state":"active","id":null},{"event_id":"144763","title":"ゲームジャム高梁2019","url":"https://okauni.connpass.com/event/144763/","shortener_url":"https://bit.ly/2O9Mta2","started_at":"2019-10-26T09:00:00.000+09:00","ended_at":"2019-10-27T20:00:00.000+09:00","limit_number":76,"address":"〒716-0007 岡山県高梁市奥万田町３７５２−１","place":"吉備国際大学 国際交流会館","lat":34.7959,"lon":133.623,"state":"active","id":null},{"event_id":"1324659","title":"【中止！】奥大和アイデアソン（アーバンデータチャレンジ2019奈良ブロック）","url":"http://udc2019-nara2.peatix.com","shortener_url":"https://bit.ly/2O9MquS","started_at":"2019-10-12T13:00:00.000+09:00","ended_at":"2019-10-15T08:59:59.000+09:00","limit_number":null,"address":"吉野町大字上市207","place":"三奇楼","lat":34.3954,"lon":135.855,"state":"active","id":null},{"event_id":"1329818","title":"農山漁村アイデアソン「農村インポッシブル in 東京」〜突き抜けたアイデアで、新しい農村をつくる〜｜農林水産省×INSPIRE","url":"http://nouson-in-possible-tokyo.peatix.com","shortener_url":"https://bit.ly/2O4nXXL","started_at":"2019-10-12T10:00:00.000+09:00","ended_at":"2019-10-15T08:59:59.000+09:00","limit_number":null,"address":"東京都千代田区霞が関1-2-1","place":"農林水産省 講堂","lat":35.6738,"lon":139.752,"state":"active","id":null},{"event_id":"1327697","title":"【SOMEDAYCRAZY】幸せをつくる仕事/目の前の人を幸せにする生き方はじめませんか.","url":"http://someday1017.peatix.com","shortener_url":null,"started_at":"2019-10-17T19:30:00.000+09:00","ended_at":"2019-10-20T08:59:59.000+09:00","limit_number":null,"address":"〒150-0001 東京都渋谷区神宮前5丁目6−15","place":"IWAI OMOTESANDO","lat":35.6658,"lon":139.708,"state":"active","id":null},{"event_id":"1324899","title":"10/5（土）参加無料【あなたのアイデアで地方創生しませんか？】地域課題解決チャレンジサミット","url":"http://colorful1005.peatix.com","shortener_url":null,"started_at":"2019-10-05T17:00:00.000+09:00","ended_at":"2019-10-08T08:59:59.000+09:00","limit_number":null,"address":"千代田区大手町2丁目6−2","place":"TRAVEL HUB MIX","lat":35.685,"lon":139.77,"state":"active","id":null},{"event_id":"97894","title":"第3回バカゲージャム","url":"https://igda-ryukyus.doorkeeper.jp/events/97894","shortener_url":"https://bit.ly/2O6ttcm","started_at":"2019-10-13T09:00:00.000+09:00","ended_at":"2019-10-14T19:00:00.000+09:00","limit_number":30,"address":"沖縄県中頭郡西原町字千原1番地","place":"琉球大学工学部地域創生総合研究棟(新棟)508教室","lat":null,"lon":null,"state":"active","id":null},{"event_id":"97895","title":"第3回バカゲージャム　前夜祭　","url":"https://igda-ryukyus.doorkeeper.jp/events/97895","shortener_url":null,"started_at":"2019-10-12T17:00:00.000+09:00","ended_at":"2019-10-12T19:30:00.000+09:00","limit_number":35,"address":"沖縄県中頭郡西原町字千原1番地","place":"琉球大学工学部地域創生総合研究棟(新棟)508教室","lat":null,"lon":null,"state":"active","id":null},{"event_id":"108714","title":"CURRY HACKATHON OKAYAMA Vol.1","url":"https://atnd.org/events/108714","shortener_url":"https://bit.ly/2O6tyga","started_at":"2019-10-26T13:00:00.000+09:00","ended_at":"2019-10-26T16:30:00.000+09:00","limit_number":12,"address":"岡山市北区奉還町2-2-1","place":"岡山国際交流センター 5F 調理実習室","lat":34.6683,"lon":133.916,"state":"closed","id":null},{"event_id":"1325607","title":"NRIハッカソン bit.Connect2019 - Hack for Bazaar -","url":"http://bitconnect2019.peatix.com","shortener_url":"https://bit.ly/2O6twF4","started_at":"2019-10-19T09:00:00.000+09:00","ended_at":"2019-10-22T08:59:59.000+09:00","limit_number":null,"address":"千代田区1 大手町1丁目1番2号","place":"3×3 Lab Future","lat":35.6861,"lon":139.762,"state":"active","id":null},{"event_id":"1330776","title":"10/26(土)~27(日)festivo ホームページ作成（WordPress） Camp@東京【学生20,000円、一般25,000円（税別）】～戦うスキルを身につける15時間！WordPress集中合宿！～","url":"http://peatix.com/event/1330776","shortener_url":"https://bit.ly/2Oa57hV","started_at":"2019-10-26T10:30:00.000+09:00","ended_at":"2019-10-29T08:59:59.000+09:00","limit_number":null,"address":"東京都練馬区豊玉北3-15-17","place":"起業家シェアハウス x-garden セミナールーム","lat":35.7329,"lon":139.661,"state":"active","id":null},{"event_id":"1319579","title":"中止：【予約不要/無料】健康クイズに答えて、適塩（てきえん）スープを試食しよう！新たな時代に健康スイッチON！","url":"http://setagayapandaigaku2019-setagayaku.peatix.com","shortener_url":null,"started_at":"2019-10-13T11:00:00.000+09:00","ended_at":"2019-10-16T08:59:59.000+09:00","limit_number":null,"address":"東京都世田谷区池尻2‒3‒11","place":"せたがや がやがや館 3F","lat":35.6467,"lon":139.682,"state":"active","id":null},{"event_id":"148185","title":"アウトドアエンジニア愛好会＠キャンピィだいとう～空気の澄んだ自然の中でエンジニア合宿in 大東市～","url":"https://connpass.com/event/148185/","shortener_url":"https://bit.ly/31GEIMq","started_at":"2019-10-17T13:00:00.000+09:00","ended_at":"2019-10-19T10:00:00.000+09:00","limit_number":null,"address":"大阪府大東市大字龍間1846","place":"キャンピィだいとう","lat":34.7209,"lon":135.657,"state":"active","id":null},{"event_id":"148252","title":"わたし達の未来をつくるアイデアソン【視覚障害を持つ方編（東京版）】","url":"https://connpass.com/event/148252/","shortener_url":"https://bit.ly/31EDqSn","started_at":"2019-10-19T10:00:00.000+09:00","ended_at":"2019-10-19T17:00:00.000+09:00","limit_number":30,"address":"東京都新宿区市谷本村町3-26 ホワイトレジデンス1階","place":"ワイム貸会議室 市ヶ谷","lat":35.6796,"lon":139.737,"state":"active","id":null},{"event_id":"148253","title":"わたし達の未来をつくるハッカソン【視覚障害を持つ方編（東京版）】","url":"https://connpass.com/event/148253/","shortener_url":"https://bit.ly/31FTK57","started_at":"2019-10-27T10:00:00.000+09:00","ended_at":"2019-10-27T17:00:00.000+09:00","limit_number":30,"address":"東京都新宿区市谷本村町3-26 ホワイトレジデンス1階","place":"ワイム貸会議室 市ヶ谷","lat":35.6796,"lon":139.737,"state":"active","id":null},{"event_id":"148144","title":"Oculus Connect 6 Meetup","url":"https://facebookdevelopercircle.connpass.com/event/148144/","shortener_url":"https://bit.ly/30fSIA2","started_at":"2019-10-11T19:00:00.000+09:00","ended_at":"2019-10-11T21:00:00.000+09:00","limit_number":30,"address":"東京都中央区銀座1-8-19（キラリトギンザ１１F）","place":"BINARYSTAR株式会社","lat":35.6744,"lon":139.769,"state":"active","id":null},{"event_id":"97946","title":"10/26(土)~27(日)festivo ホームページ作成（WordPress） Camp@東京【学生20,000円、一般25,000円】～戦うスキルを身につける15時間！WordPress集中合宿！～","url":"https://festivo.doorkeeper.jp/events/97946","shortener_url":"https://bit.ly/31EKZbB","started_at":"2019-10-26T10:30:00.000+09:00","ended_at":"2019-10-27T18:30:00.000+09:00","limit_number":10,"address":"東京都練馬区豊玉北3-15-17","place":"起業家シェアハウス x-garden セミナールーム","lat":null,"lon":null,"state":"active","id":null},{"event_id":"1331808","title":"開業後のリーガルリスクマネジメント【飲食店を中心に】知りませんでしたでは済まされない！弁護士が教える1時間シリーズ Vol.4","url":"http://peatix.com/event/1331808","shortener_url":null,"started_at":"2019-10-24T18:30:00.000+09:00","ended_at":"2019-10-27T08:59:59.000+09:00","limit_number":null,"address":"福岡市中央区大名2丁目6−11","place":"福岡市スタートアップカフェ","lat":33.5889,"lon":130.395,"state":"active","id":null},{"event_id":"1327014","title":"丸屋九兵衛トークライブ【Soul Food Assassins vol.12】大坂なおみ培養計画はそのままゲット・アウト！／続・八村塁も鈴木武蔵も「外人やーん」in ディストピア・ジャパン","url":"http://sfa12.peatix.com","shortener_url":null,"started_at":"2019-10-22T14:00:00.000+09:00","ended_at":"2019-10-25T08:59:59.000+09:00","limit_number":null,"address":"千代田区神田美土代町11−2 第一東英ビルB1","place":"会員制多目的サロンレタス","lat":35.6937,"lon":139.766,"state":"active","id":null},{"event_id":"1281337","title":"締切直前！《参加費無料》「大丈夫だと思っていませんか？あなたの会社の残業代！」未払残業請求対策セミナー","url":"http://assist-zan.peatix.com","shortener_url":null,"started_at":"2019-10-03T13:20:00.000+09:00","ended_at":"2019-10-06T08:59:59.000+09:00","limit_number":null,"address":"東京都新宿区高田馬場1-29-9","place":"ワイム貸会議室　高田馬場　Room E","lat":35.7111,"lon":139.704,"state":"active","id":null},{"event_id":"1328022","title":"音楽をＤＩＹしませんか？～あなただけのオリジナル曲を作ろう！～","url":"http://peatix.com/event/1328022","shortener_url":null,"started_at":"2019-10-21T10:30:00.000+09:00","ended_at":"2019-10-24T08:59:59.000+09:00","limit_number":null,"address":"東京都新宿区新宿5丁目11-20 伊土ビル301号室","place":"みらいスペース","lat":35.6934,"lon":139.708,"state":"active","id":null},{"event_id":"1332275","title":"【次世代型リトミック教室】\"音楽の力\"で、子どもの可能性を伸ばしてみませんか？","url":"http://peatix.com/event/1332275","shortener_url":null,"started_at":"2019-10-26T11:00:00.000+09:00","ended_at":"2019-10-29T08:59:59.000+09:00","limit_number":null,"address":"神奈川県川崎市中原区小杉陣屋町1丁目23−7","place":"武蔵小杉【ダンススタジオR】","lat":35.5858,"lon":139.659,"state":"active","id":null},{"event_id":"147616","title":"2019年10月期AITC勉強会「身近になったAI開発シリーズ第9回」","url":"https://aitc-seminar.connpass.com/event/147616/","shortener_url":null,"started_at":"2019-10-17T18:30:00.000+09:00","ended_at":"2019-10-17T21:30:00.000+09:00","limit_number":30,"address":"東京都渋谷区代々木1-22-1　代々木1丁目ビル","place":"ジャパンシステム株式会社","lat":35.6811,"lon":139.702,"state":"active","id":null},{"event_id":"148513","title":"子ども向けプログラミングクラブ コーダー道場甲府#27","url":"https://coderdojokofu.connpass.com/event/148513/","shortener_url":null,"started_at":"2019-10-26T12:20:00.000+09:00","ended_at":"2019-10-26T13:40:00.000+09:00","limit_number":13,"address":"山梨県甲府市北口２丁目８番１号","place":"山梨県立図書館","lat":35.6685,"lon":138.57,"state":"active","id":null},{"event_id":"1312843","title":"合宿形式で学ぶ、写真KJ法ワークショップ","url":"http://peatix.com/event/1312843","shortener_url":null,"started_at":"2019-10-24T13:30:00.000+09:00","ended_at":"2019-10-27T08:59:59.000+09:00","limit_number":null,"address":"794-1403 愛媛県今治市上浦町甘崎 1538","place":"オオミシマスペース","lat":34.2433,"lon":133.051,"state":"active","id":null},{"event_id":"1334290","title":"ドラマや映画から未来を考えてみよう、『サブカルの想像力は資本主義を超えるか』を読む。１０月の「本で遊ぶじかん」","url":"http://sugoi20191016.peatix.com","shortener_url":null,"started_at":"2019-10-16T19:00:00.000+09:00","ended_at":"2019-10-19T08:59:59.000+09:00","limit_number":null,"address":"東京都目黒区青葉台3丁目15-15 BUENA CASA 青葉台302","place":"株式会社SUGOI","lat":0.0,"lon":0.0,"state":"active","id":null},{"event_id":"1333706","title":"集客につなげるビジネス活用講座「バリアフリー×接客応対」～あなたのコミュニケーションスキルを上げてみませんか？～","url":"http://peatix.com/event/1333706","shortener_url":null,"started_at":"2019-10-13T10:45:00.000+09:00","ended_at":"2019-10-16T08:59:59.000+09:00","limit_number":null,"address":"千代田区神田錦町3丁目21","place":"ちよだプラットフォームスクウェア","lat":35.6915,"lon":139.762,"state":"active","id":null},{"event_id":"1328017","title":"やりたいことがある！マネ活でなりたい自分になる一歩を踏み出しませんか？","url":"http://peatix.com/event/1328017","shortener_url":null,"started_at":"2019-10-26T10:00:00.000+09:00","ended_at":"2019-10-29T08:59:59.000+09:00","limit_number":null,"address":"東京都新宿区大久保2-4-12 新宿ラムダックスビル","place":"弊社セミナールーム","lat":0.0,"lon":0.0,"state":"active","id":null},{"event_id":"1327647","title":"【3時間で履歴書に書ける資格が取れる！「ソーシャルマナー３級認定講座」】まずはここから学びませんか？","url":"http://peatix.com/event/1327647","shortener_url":null,"started_at":"2019-10-29T10:00:00.000+09:00","ended_at":"2019-11-01T08:59:59.000+09:00","limit_number":null,"address":"杉並区西荻北3丁目21−5","place":"Kokopluscafe","lat":35.7048,"lon":139.6,"state":"active","id":null},{"event_id":"1330315","title":"週末朝活☆江戸で楽しむおばんざいクラス。#15 秋のセンスアップお弁当（まるべん）と、冷めても美味しい和ハーブ唐揚げ。","url":"http://obanzai201910.peatix.com","shortener_url":null,"started_at":"2019-10-13T10:30:00.000+09:00","ended_at":"2019-10-16T08:59:59.000+09:00","limit_number":null,"address":"世田谷区尾山台3-3-10","place":"サロンエルマール","lat":35.6034,"lon":139.656,"state":"active","id":null},{"event_id":"148784","title":"Kaggle メディカルデータ分析ハッカソン by Team AI 10/5(土)","url":"https://teamai.connpass.com/event/148784/","shortener_url":"https://bit.ly/2lJlSEL","started_at":"2019-10-05T16:00:00.000+09:00","ended_at":"2019-10-05T18:00:00.000+09:00","limit_number":15,"address":"","place":"Online","lat":35.6618,"lon":139.696,"state":"active","id":null},{"event_id":"148721","title":"〈中止〉Kamakura Mok Mok Hack 59","url":"https://kamkura-mokmok.connpass.com/event/148721/","shortener_url":null,"started_at":"2019-10-12T11:00:00.000+09:00","ended_at":"2019-10-12T13:00:00.000+09:00","limit_number":7,"address":"神奈川県 鎌倉市由比ガ浜1丁目12-8","place":"HOUSE YUIGAHAMA","lat":35.3202,"lon":139.55,"state":"active","id":null},{"event_id":"98110","title":"【レベルと目的に応じて2冊の本で学ぶ】DeepLearning勉強会#9","url":"https://soleildatadojo.doorkeeper.jp/events/98110","shortener_url":null,"started_at":"2019-10-09T19:30:00.000+09:00","ended_at":"2019-10-09T21:30:00.000+09:00","limit_number":10,"address":"大阪府大阪市北区西天満二丁目5番3号(堂島深川ビル3階)","place":"SCRIBBLE OSAKA LAB（SOL）（大阪メトロ御堂筋線「淀屋橋」駅から徒歩４分）","lat":null,"lon":null,"state":"active","id":null},{"event_id":"1335578","title":"【東京10月開催】05：提案の説得力を高める「ユーザー視点のUI設計＆提案書」","url":"http://peatix.com/event/1335578","shortener_url":null,"started_at":"2019-10-20T13:00:00.000+09:00","ended_at":"2019-10-23T08:59:59.000+09:00","limit_number":null,"address":"千代田区内神田3丁目24−5","place":"エッサム神田ホール２号館","lat":35.6925,"lon":139.769,"state":"active","id":null},{"event_id":"1335580","title":"06【東京10月開催】初めてでもできる！「説得力ある分析＆評価レポート」V2","url":"http://peatix.com/event/1335580","shortener_url":null,"started_at":"2019-10-27T10:00:00.000+09:00","ended_at":"2019-10-30T08:59:59.000+09:00","limit_number":null,"address":"東京都千代田区内神田3-24-5","place":"エッサム神田ホール２号館 ７階会議室","lat":35.6924,"lon":139.769,"state":"active","id":null},{"event_id":"1335574","title":"01【東京10月開催】ユーザー視点のUIデザインへのヒント「街中のサイン表示」","url":"http://peatix.com/event/1335574","shortener_url":null,"started_at":"2019-10-06T13:00:00.000+09:00","ended_at":"2019-10-09T08:59:59.000+09:00","limit_number":null,"address":"千代田区神田鍛冶町3丁目2−2","place":"エッサム神田ホール1号館","lat":35.6935,"lon":139.771,"state":"active","id":null},{"event_id":"1335576","title":"02【東京10月開催】UIデザインの常識を改める「認知学から学ぶUIの基本」","url":"http://peatix.com/event/1335576","shortener_url":null,"started_at":"2019-10-06T15:45:00.000+09:00","ended_at":"2019-10-09T08:59:59.000+09:00","limit_number":null,"address":"千代田区神田鍛冶町3丁目2−2","place":"エッサム神田ホール1号館","lat":35.6935,"lon":139.771,"state":"active","id":null},{"event_id":"1335567","title":"【東京体験版10月】初心者歓迎！他では絶対教えてくれない！楽しく学ぶユーザー視点のUIデザイン","url":"http://peatix.com/event/1335567","shortener_url":null,"started_at":"2019-10-04T19:00:00.000+09:00","ended_at":"2019-10-07T08:59:59.000+09:00","limit_number":null,"address":"千代田区神田鍛冶町3丁目2−2","place":"エッサム神田ホール1号館","lat":35.6935,"lon":139.771,"state":"active","id":null},{"event_id":"148297","title":"Firebase Startup #1 @piece of cake","url":"https://firebase-community.connpass.com/event/148297/","shortener_url":"https://bit.ly/2nCgt31","started_at":"2019-10-27T10:00:00.000+09:00","ended_at":"2019-10-27T18:00:00.000+09:00","limit_number":80,"address":"東京都港区北青山3-1-2 青山セント・シオンビル4階（メトロ 外苑前駅 から 徒歩約５分）","place":"pieceofcake HALL","lat":35.6693,"lon":139.715,"state":"active","id":null},{"event_id":"98180","title":"『Python, Machine Learning \u0026 Raspberry PI』もくもく会#33","url":"https://soleildatadojo.doorkeeper.jp/events/98180","shortener_url":null,"started_at":"2019-10-16T19:30:00.000+09:00","ended_at":"2019-10-16T21:30:00.000+09:00","limit_number":8,"address":"大阪府大阪市北区西天満二丁目5番3号(堂島深川ビル3階)","place":"SCRIBBLE OSAKA LAB（SOL）（大阪メトロ御堂筋線「淀屋橋」駅から徒歩４分）","lat":null,"lon":null,"state":"active","id":null},{"event_id":"1324705","title":"～山手線沿いで複業を～JR東日本と共に山手線沿線の魅力的な体験を提供しませんか？東京感動線×TABICA　山手線の暮らしを旅しよう　体験造成のための説明会 10月2日　夜の部","url":"http://tokyomoving-introduction4.peatix.com","shortener_url":null,"started_at":"2019-10-02T18:30:00.000+09:00","ended_at":"2019-10-05T08:59:59.000+09:00","limit_number":null,"address":"千代田区平河町2丁目5−3","place":"Nagatacho GRiD","lat":35.6798,"lon":139.74,"state":"active","id":null},{"event_id":"1324700","title":"～山手線沿いで複業を～JR東日本と共に山手線沿線の魅力的な体験を提供しませんか？東京感動線×TABICA　山手線の暮らしを旅しよう　体験造成のための説明会 10月2日　昼の部","url":"http://tokyomoving-introduction3.peatix.com","shortener_url":null,"started_at":"2019-10-02T13:00:00.000+09:00","ended_at":"2019-10-05T08:59:59.000+09:00","limit_number":null,"address":"千代田区平河町2丁目5−3","place":"Nagatacho GRiD","lat":35.6798,"lon":139.74,"state":"active","id":null},{"event_id":"148176","title":"ブロックチェーンアイデアソン","url":"https://tech-cafe.connpass.com/event/148176/","shortener_url":"https://bit.ly/2nPYw0N","started_at":"2019-10-26T10:00:00.000+09:00","ended_at":"2019-10-26T17:00:00.000+09:00","limit_number":20,"address":"福岡県福岡市早良区百道浜3-8-33","place":"福岡システムLSI総合開発センター","lat":33.5912,"lon":130.351,"state":"active","id":null},{"event_id":"1330008","title":"【参加無料！】10/8遠恋複業、はじめませんか？～岩手県とお付き合いしてくださる複業人材を募集します～","url":"http://iwate-enren20191008.peatix.com","shortener_url":null,"started_at":"2019-10-08T19:00:00.000+09:00","ended_at":"2019-10-11T08:59:59.000+09:00","limit_number":null,"address":"千代田区麹町1丁目4−4 2階","place":"LIFULL HUB","lat":35.6844,"lon":139.743,"state":"active","id":null},{"event_id":"149257","title":"【中止決定】エンジニアのたまり場・出張編(2019.10)","url":"https://code4nara.connpass.com/event/149257/","shortener_url":"https://bit.ly/2mc4fOg","started_at":"2019-10-12T17:30:00.000+09:00","ended_at":"2019-10-13T08:00:00.000+09:00","limit_number":null,"address":"奈良県吉野郡吉野町上市207","place":"ゲストハウス　三奇楼","lat":34.3951,"lon":135.855,"state":"active","id":null},{"event_id":"149262","title":"子どものためのプログラミングクラブ コーダー道場韮崎 #7","url":"https://coderdojo-nirasaki.connpass.com/event/149262/","shortener_url":null,"started_at":"2019-10-27T13:30:00.000+09:00","ended_at":"2019-10-27T15:40:00.000+09:00","limit_number":13,"address":"山梨県韮崎市若宮一丁目2番50号","place":"韮崎市民交流センター","lat":35.7117,"lon":138.45,"state":"active","id":null},{"event_id":"98104","title":"【台風により中止】クラウドファンディングの始め方","url":"https://swtokyo.doorkeeper.jp/events/98104","shortener_url":null,"started_at":"2019-10-12T13:00:00.000+09:00","ended_at":"2019-10-12T16:00:00.000+09:00","limit_number":10,"address":"東京都港区南青山6-10-11","place":"Wesley Center #201","lat":null,"lon":null,"state":"active","id":null},{"event_id":"149362","title":"第20回 PCNひろしま こどもプログラミング教室","url":"https://pcn-hiroshima.connpass.com/event/149362/","shortener_url":null,"started_at":"2019-10-27T10:30:00.000+09:00","ended_at":"2019-10-27T12:30:00.000+09:00","limit_number":14,"address":"オンライン","place":"オンライン","lat":34.3941,"lon":132.459,"state":"active","id":null},{"event_id":"98105","title":"アイデアのデザイン","url":"https://swtokyo.doorkeeper.jp/events/98105","shortener_url":null,"started_at":"2019-10-13T13:00:00.000+09:00","ended_at":"2019-10-13T16:00:00.000+09:00","limit_number":10,"address":"東京都港区南青山6-10-11","place":"Wesley Center #201","lat":null,"lon":null,"state":"active","id":null},{"event_id":"149456","title":"Kaggle 自然言語データ分析ハッカソン by Team AI 10/19(土)","url":"https://teamai.connpass.com/event/149456/","shortener_url":"https://bit.ly/2mlLSGw","started_at":"2019-10-19T16:00:00.000+09:00","ended_at":"2019-10-19T18:00:00.000+09:00","limit_number":15,"address":"","place":"Online","lat":35.6618,"lon":139.696,"state":"active","id":null},{"event_id":"1319210","title":"【10月受付中！】秋本番、会社帰りや休日に、オンライン英会話を試してみませんか？リラックスしてどうぞ【グローバル企業で導入多数】","url":"http://offline201910vipabc01.peatix.com","shortener_url":null,"started_at":"2019-10-01T11:00:00.000+09:00","ended_at":"2019-10-04T08:59:59.000+09:00","limit_number":null,"address":"東京都千代田区神田三崎町2-20-5","place":"VIPABC東京本社　JR水道橋駅徒歩1分　住友不動産水道橋西口ビル7階","lat":35.7016,"lon":139.753,"state":"active","id":null},{"event_id":"149637","title":"デザイン思考に基づいて行う、競わないハッカソン〜","url":"https://hackathon.connpass.com/event/149637/","shortener_url":"https://bit.ly/2mH7JZj","started_at":"2019-10-26T11:30:00.000+09:00","ended_at":"2019-10-26T20:00:00.000+09:00","limit_number":20,"address":"東京都渋谷区道玄坂 1-22-7道玄坂ピア10F","place":"Loftwork COOOP10","lat":35.6561,"lon":139.696,"state":"active","id":null},{"event_id":"147977","title":"福井ハッカソン@ #ヒーローズリーグ 2019 by MA","url":"https://mashupawards.connpass.com/event/147977/","shortener_url":"https://bit.ly/2mCYR6O","started_at":"2019-10-21T18:30:00.000+09:00","ended_at":"2019-10-22T19:00:00.000+09:00","limit_number":40,"address":"福井県福井県坂井市丸岡町熊堂3-7-1-16","place":"福井県産業情報センター","lat":36.1098,"lon":136.273,"state":"active","id":null},{"event_id":"98342","title":"【10/8（火）・15（火）】初心者向け・２回で学ぶシリーズ①『PythonとJupyterNotebookの基礎』","url":"https://soleildatadojo.doorkeeper.jp/events/98342","shortener_url":null,"started_at":"2019-10-08T19:30:00.000+09:00","ended_at":"2019-10-15T21:30:00.000+09:00","limit_number":10,"address":"大阪府大阪市北区西天満二丁目5番3号(堂島深川ビル3階)","place":"SCRIBBLE OSAKA LAB（SOL）（大阪メトロ御堂筋線「淀屋橋」駅から徒歩４分）","lat":null,"lon":null,"state":"active","id":null},{"event_id":"98343","title":"［海外］StartupWeekend説明会","url":"https://swosaka.doorkeeper.jp/events/98343","shortener_url":null,"started_at":"2019-10-27T10:00:00.000+09:00","ended_at":"2019-10-27T12:00:00.000+09:00","limit_number":null,"address":"大阪府大阪市北区鶴野町1-5","place":"関西大学梅田キャンパス2階 StartupCafeOsaka","lat":null,"lon":null,"state":"active","id":null},{"event_id":"1337454","title":"P7:1SMA Butter Kaya Dance Jam | Got To Move 2019","url":"http://p71sma-dance-jam.peatix.com","shortener_url":null,"started_at":"2019-10-27T15:00:00.000+09:00","ended_at":"2019-10-30T08:59:59.000+09:00","limit_number":null,"address":"2 Jurong East Central 1","place":"JCube","lat":1.33314,"lon":103.74,"state":"active","id":null},{"event_id":"1337363","title":"【しごとバー神田1周年記念】天職ってなんだろう？ナイト","url":"http://shigotobar-kanda1010.peatix.com","shortener_url":null,"started_at":"2019-10-10T19:30:00.000+09:00","ended_at":"2019-10-13T08:59:59.000+09:00","limit_number":null,"address":"錦町ブンカイサン 1-2F, 3 Chome-15番地 Kanda Nishikicho, Chiyoda City","place":"風土はfoodから","lat":35.6918,"lon":139.762,"state":"active","id":null},{"event_id":"1335179","title":"【ガイド実務研修】千葉市 ガイド希望者向け ～あなただけの千葉市を紹介しませんか？～","url":"http://peatix.com/event/1335179","shortener_url":null,"started_at":"2019-10-26T13:30:00.000+09:00","ended_at":"2019-10-29T08:59:59.000+09:00","limit_number":null,"address":"千葉県千葉市中央区富士見1-1-1","place":"ハロー会議室千葉駅前　RoomB","lat":35.6127,"lon":140.116,"state":"active","id":null},{"event_id":"1300994","title":"【ホームシェア実務研修】千葉市 ホームシェアホスト希望者向け ～新しい出会いと交流を楽しみませんか？～","url":"http://sharechiba1026am.peatix.com","shortener_url":null,"started_at":"2019-10-26T10:00:00.000+09:00","ended_at":"2019-10-29T08:59:59.000+09:00","limit_number":null,"address":"千葉県千葉市中央区富士見1-1-1","place":"ハロー会議室千葉駅前　RoomB","lat":35.6127,"lon":140.116,"state":"active","id":null},{"event_id":"149701","title":"サウンドミニハッカソン#6 VRサウンドもくもく会","url":"https://effectorhack.connpass.com/event/149701/","shortener_url":"https://bit.ly/2oFrcKj","started_at":"2019-10-14T13:00:00.000+09:00","ended_at":"2019-10-14T18:00:00.000+09:00","limit_number":8,"address":"111-0053 東京都台東区浅草橋2-28-12  ＮＫグリーンビル4F","place":"MyDearest株式会社","lat":35.6999,"lon":139.787,"state":"active","id":null},{"event_id":"1339300","title":"スマートモビリティチャレンジ”サービスアイデアソン” in KYOTO","url":"http://peatix.com/event/1339300","shortener_url":"https://bit.ly/2nKbQo5","started_at":"2019-10-19T10:00:00.000+09:00","ended_at":"2019-10-22T08:59:59.000+09:00","limit_number":null,"address":"京都市下京区 四条通り 室町東入函谷鉾町78番地","place":"京都経済センター","lat":35.0034,"lon":135.758,"state":"active","id":null},{"event_id":"1334970","title":"【hairlogy】#7 予約リストをあなたの大好きなお客様でいっぱいにしませんか10月","url":"http://hairlogy191015.peatix.com","shortener_url":null,"started_at":"2019-10-15T14:15:00.000+09:00","ended_at":"2019-10-18T08:59:59.000+09:00","limit_number":null,"address":"東京都渋谷区神宮前5丁目13−1","place":"ホワイト（WHiTE）","lat":35.6664,"lon":139.707,"state":"active","id":null},{"event_id":"1339524","title":"【10/30無料】あなたらしい美意識に基づく経営の意思決定を体験してみませんか 【修士研究協力体験モニター募集】","url":"http://coconoma-prototype2.peatix.com","shortener_url":null,"started_at":"2019-10-30T18:30:00.000+09:00","ended_at":"2019-11-02T08:59:59.000+09:00","limit_number":null,"address":"新宿区市谷田町1丁目4","place":"武蔵野美術大学市ヶ谷キャンパス","lat":35.6929,"lon":139.736,"state":"active","id":null},{"event_id":"1338957","title":"【10/24無料】あなたらしい美意識に基づく経営の意思決定を体験してみませんか 【修士研究協力体験モニター募集】","url":"http://coconoma-prototype1.peatix.com","shortener_url":null,"started_at":"2019-10-24T18:30:00.000+09:00","ended_at":"2019-10-27T08:59:59.000+09:00","limit_number":null,"address":"新宿区市谷田町1丁目4","place":"武蔵野美術大学市ヶ谷キャンパス","lat":35.6929,"lon":139.736,"state":"active","id":null},{"event_id":"146801","title":"【福岡】LINE Smart City ハッカソン！","url":"https://line.connpass.com/event/146801/","shortener_url":"https://bit.ly/2IAaBiv","started_at":"2019-10-26T09:00:00.000+09:00","ended_at":"2019-10-27T18:00:00.000+09:00","limit_number":60,"address":"福岡県福岡市博多区博多駅中央街8-1 JRJP博多ビル12F","place":"LINE Fukuoka株式会社 カフェスペース","lat":33.5882,"lon":130.419,"state":"active","id":null},{"event_id":"149739","title":"スクラム道関西 オープン・ジャム","url":"https://scrumdo-kansai.connpass.com/event/149739/","shortener_url":null,"started_at":"2019-10-08T19:30:00.000+09:00","ended_at":"2019-10-08T21:30:00.000+09:00","limit_number":25,"address":"大阪府大阪市北区鶴野町1-9 (梅田ゲートタワー7階)","place":"株式会社ラクス 大阪オフィス","lat":34.7068,"lon":135.501,"state":"active","id":null},{"event_id":"1339761","title":"ビール片手に考えナイト～つまみになるおむすびの具ってなんだろう？～","url":"http://peatix.com/event/1339761","shortener_url":null,"started_at":"2019-10-16T19:30:00.000+09:00","ended_at":"2019-10-19T08:59:59.000+09:00","limit_number":null,"address":"中央区日本橋本町3丁目11−10","place":"おむすびスタンドANDON","lat":35.6889,"lon":139.777,"state":"active","id":null},{"event_id":"1339840","title":"これからのシモキタの話し〜「下北線路街」ってどうなっていくんですか？〜","url":"http://peatix.com/event/1339840","shortener_url":null,"started_at":"2019-10-16T19:30:00.000+09:00","ended_at":"2019-10-19T08:59:59.000+09:00","limit_number":null,"address":"中央区日本橋本町3丁目11−10","place":"おむすびスタンドANDON","lat":35.6889,"lon":139.777,"state":"active","id":null},{"event_id":"1342237","title":"新オフィス移転!!これから加速するスタートアップの現状を見にきませんか？","url":"http://peatix.com/event/1342237","shortener_url":null,"started_at":"2019-10-24T19:30:00.000+09:00","ended_at":"2019-10-27T08:59:59.000+09:00","limit_number":null,"address":"東京都品川区西五反田1-32-2","place":"アルコープビル3F","lat":0.0,"lon":0.0,"state":"active","id":null},{"event_id":"150074","title":"Space Apps Challenge Tokyo 2019 Hackathon","url":"https://spaceappsjapan.connpass.com/event/150074/","shortener_url":"https://bit.ly/2oPEDYk","started_at":"2019-10-19T10:00:00.000+09:00","ended_at":"2019-10-20T19:00:00.000+09:00","limit_number":20,"address":"東京都中央区日本橋浜町3-42-3 住友不動産浜町ビル 7階","place":"GROOVE X株式会社","lat":35.6867,"lon":139.791,"state":"active","id":null},{"event_id":"98755","title":"良いアイデアの作り方","url":"https://swtokyo.doorkeeper.jp/events/98755","shortener_url":null,"started_at":"2019-10-27T13:00:00.000+09:00","ended_at":"2019-10-27T15:00:00.000+09:00","limit_number":20,"address":"大阪府大阪市北区鶴野町1-5","place":"関西大学梅田キャンパス2階 StartupCafeOsaka","lat":null,"lon":null,"state":"active","id":null},{"event_id":"1342984","title":"かっ飛びゴルフ塾セミナー2019秋 合宿参加者様専用","url":"http://peatix.com/event/1342984","shortener_url":null,"started_at":"2019-10-19T13:30:00.000+09:00","ended_at":"2019-10-22T08:59:59.000+09:00","limit_number":null,"address":"神戸市中央区北野町1丁目5−7","place":"北野クラブ","lat":34.7022,"lon":135.193,"state":"active","id":null},{"event_id":"1343991","title":"文香 Workshop   〜　香木で和の香りをつくりませんか？　　〜","url":"http://peatix.com/event/1343991","shortener_url":null,"started_at":"2019-10-20T13:30:00.000+09:00","ended_at":"2019-10-23T08:59:59.000+09:00","limit_number":null,"address":"大阪市西区南堀江1-14-23","place":"寺カフェ茶庭　（萬福寺境内）","lat":0.0,"lon":0.0,"state":"active","id":null},{"event_id":"148955","title":"わいわいswiftc #15","url":"https://iosdiscord.connpass.com/event/148955/","shortener_url":"https://bit.ly/2LUealH","started_at":"2019-10-17T19:30:00.000+09:00","ended_at":"2019-10-17T22:00:00.000+09:00","limit_number":50,"address":"東京都港区六本木6-10-1(六本木ヒルズ森タワー21F)","place":"株式会社メルカリ","lat":35.6587,"lon":139.732,"state":"active","id":null},{"event_id":"147126","title":"TokyoUppersBoost in Kanda ~おすすめツールの情報交換会~","url":"https://mht-code.connpass.com/event/147126/","shortener_url":null,"started_at":"2019-10-12T14:00:00.000+09:00","ended_at":"2019-10-12T20:00:00.000+09:00","limit_number":27,"address":"東京都千代田区神田錦町３丁目２２−８　小笠原ビル３Ｆ","place":"トキラルーム","lat":35.6938,"lon":139.761,"state":"active","id":null},{"event_id":"150490","title":"Kaggle NASA/宇宙データ分析ハッカソン by Team AI 10/26(土)","url":"https://teamai.connpass.com/event/150490/","shortener_url":"https://bit.ly/2on0oim","started_at":"2019-10-26T16:00:00.000+09:00","ended_at":"2019-10-26T18:00:00.000+09:00","limit_number":18,"address":"","place":"Online","lat":35.6618,"lon":139.696,"state":"active","id":null},{"event_id":"98803","title":"【ハンズオン】HTML＋CSS＋JavaScriptを使ってタイピングゲームを作ろう！＠駒沢大学前","url":"https://079b6c31b6971a2978c6fd92bd.doorkeeper.jp/events/98803","shortener_url":"https://bit.ly/33h55Jv","started_at":"2019-10-26T14:00:00.000+09:00","ended_at":"2019-10-26T19:00:00.000+09:00","limit_number":10,"address":"東京都世田谷区駒沢5丁目26−7 コマザワパークサイドテラスノース3F","place":"株式会社ALCHEMY","lat":null,"lon":null,"state":"active","id":null},{"event_id":"108981","title":"【ハンズオン】HTML＋CSS＋JavaScriptを使ってタイピングゲームを作ろう！＠駒沢大学前","url":"https://atnd.org/events/108981","shortener_url":"https://bit.ly/2ocNiEt","started_at":"2019-10-26T14:00:00.000+09:00","ended_at":"2019-10-26T19:00:00.000+09:00","limit_number":10,"address":"東京都世田谷区駒沢5丁目26−7 コマザワパークサイドテラスノース3F","place":"株式会社ALCHEMY","lat":35.6271,"lon":139.656,"state":"closed","id":null},{"event_id":"1317930","title":"[参加無料] キッズ歯ッカソン©︎ 親子体験ワークショップ@NoMaps","url":"http://kidshackathon-nomaps2019.peatix.com","shortener_url":null,"started_at":"2019-10-19T10:30:00.000+09:00","ended_at":"2019-10-22T08:59:59.000+09:00","limit_number":null,"address":"札幌市中央区北1条","place":"札幌駅前通地下歩行空間","lat":43.0634,"lon":141.351,"state":"active","id":null},{"event_id":"1340729","title":"＼「法人就業シリーズ第１弾」農業法人で働いてみませんか？／ ［移住就業セミナー相談会　～農業法人への就業（就職）～］","url":"http://peatix.com/event/1340729","shortener_url":null,"started_at":"2019-10-20T13:00:00.000+09:00","ended_at":"2019-10-23T08:59:59.000+09:00","limit_number":null,"address":"東京都千代田区有楽町2-10-1","place":"東京交通会館３階グリーンルーム","lat":35.6749,"lon":139.764,"state":"active","id":null},{"event_id":"150566","title":"ふくもく会 その57　〜荒ぶる季節のヒーローどもよ。〜","url":"https://fukumoku.connpass.com/event/150566/","shortener_url":"https://bit.ly/2p5hEZi","started_at":"2019-10-17T19:00:00.000+09:00","ended_at":"2019-10-17T21:00:00.000+09:00","limit_number":20,"address":"インターネット上","place":"インターネット上","lat":36.1098,"lon":136.273,"state":"active","id":null},{"event_id":"1336194","title":"信州おちょこ会議 〜オリジナル日本酒を仕込む、KURABITO体験しませんか？〜（全4回）","url":"http://shinsyu-ochokokaigi.peatix.com","shortener_url":null,"started_at":"2019-10-21T02:00:00.000+09:00","ended_at":"2019-10-23T08:59:59.000+09:00","limit_number":null,"address":"中央区銀座5丁目6−5","place":"銀座ＮＡＧＡＮＯ 移住・交流センター","lat":35.6712,"lon":139.764,"state":"active","id":null},{"event_id":"149073","title":"TokyoUppersBoost in Kanda ~ビジネス書読書会~","url":"https://mht-code.connpass.com/event/149073/","shortener_url":null,"started_at":"2019-10-26T23:00:00.000+09:00","ended_at":"2019-10-27T05:00:00.000+09:00","limit_number":27,"address":"東京都千代田区神田錦町３丁目２２−８　小笠原ビル３Ｆ","place":"トキラルーム","lat":35.6938,"lon":139.761,"state":"active","id":null},{"event_id":"147943","title":"TokyoUppersBoost in Shibuya ~ポートフォリオ/スキルシートレビュー会~","url":"https://mht-code.connpass.com/event/147943/","shortener_url":null,"started_at":"2019-10-19T23:00:00.000+09:00","ended_at":"2019-10-20T05:00:00.000+09:00","limit_number":30,"address":"東京都渋谷区神南1-20-15","place":"Blenda Tiara","lat":35.6622,"lon":139.7,"state":"active","id":null},{"event_id":"98905","title":"『Python, Machine Learning \u0026 Raspberry PI』もくもく会#34","url":"https://soleildatadojo.doorkeeper.jp/events/98905","shortener_url":null,"started_at":"2019-10-31T19:30:00.000+09:00","ended_at":"2019-10-31T21:30:00.000+09:00","limit_number":8,"address":"大阪府大阪市北区西天満二丁目5番3号(堂島深川ビル3階)","place":"SCRIBBLE OSAKA LAB（SOL）（大阪メトロ御堂筋線「淀屋橋」駅から徒歩４分）","lat":null,"lon":null,"state":"active","id":null},{"event_id":"109341","title":"Main303pk","url":"https://atnd.org/events/109341","shortener_url":null,"started_at":"2019-10-10T00:00:00.000+09:00","ended_at":"2019-10-12T08:59:59.000+09:00","limit_number":null,"address":"","place":"","lat":null,"lon":null,"state":"closed","id":null},{"event_id":"1337980","title":"CGってなんだ？東京 #1","url":"http://whatiscg.peatix.com","shortener_url":null,"started_at":"2019-10-25T19:00:00.000+09:00","ended_at":"2019-10-28T08:59:59.000+09:00","limit_number":null,"address":"千代田区九段南1丁目5−5","place":"（株）ボーンデジタル","lat":35.6949,"lon":139.752,"state":"active","id":null},{"event_id":"1337148","title":"「木」と正面から向き合いませんか　～建築材としての「木」の神秘～","url":"http://peatix.com/event/1337148","shortener_url":null,"started_at":"2019-10-16T19:00:00.000+09:00","ended_at":"2019-10-19T08:59:59.000+09:00","limit_number":null,"address":"新宿区市谷田町1丁目14","place":"DNPプラザ","lat":35.6934,"lon":139.737,"state":"active","id":null},{"event_id":"150924","title":"上場ゴールハッカソン","url":"https://zeniket.connpass.com/event/150924/","shortener_url":"https://bit.ly/314QBdS","started_at":"2019-10-15T19:00:00.000+09:00","ended_at":"2019-10-15T22:00:00.000+09:00","limit_number":5,"address":"大阪市北区曽根崎2丁目10-15　4階","place":"底辺亭","lat":34.7007,"lon":135.501,"state":"active","id":null},{"event_id":"98909","title":"コミュニティの育て方","url":"https://swtokyo.doorkeeper.jp/events/98909","shortener_url":null,"started_at":"2019-10-31T19:00:00.000+09:00","ended_at":"2019-10-31T21:00:00.000+09:00","limit_number":10,"address":"東京都港区南青山6-10-11","place":"Wesley Center #201","lat":null,"lon":null,"state":"active","id":null},{"event_id":"109354","title":"GPS jammer protect our location","url":"https://atnd.org/events/109354","shortener_url":null,"started_at":"2019-10-11T02:00:00.000+09:00","ended_at":"2019-10-19T01:30:00.000+09:00","limit_number":1000,"address":"118mancheste, Apt. No. or Suite No.","place":"gps jammer","lat":53.4808,"lon":-2.24263,"state":"closed","id":null},{"event_id":"1335394","title":"【 ＡＱＵＡ Global Laundromat Hack!】アイデアソンフォーム","url":"http://aqualaundromat3.peatix.com","shortener_url":"https://bit.ly/2IFAyNl","started_at":"2019-10-26T11:00:00.000+09:00","ended_at":"2019-10-29T08:59:59.000+09:00","limit_number":null,"address":"東京都 港区 北青山3-5-6","place":"G's ACADEMY TOKYO BASE","lat":35.6672,"lon":139.714,"state":"active","id":null},{"event_id":"1348794","title":"新潟大学\"すごい人\"飲み会 Vol.2 ～新大OBOGと就活のアレコレ話しませんか？in新潟～","url":"http://ngtsugonomi2-niigata.peatix.com","shortener_url":null,"started_at":"2019-10-27T13:00:00.000+09:00","ended_at":"2019-10-30T08:59:59.000+09:00","limit_number":null,"address":"新潟市西区坂井738-1","place":"\"よみかきそろばんカフェ\"《新潟大学発フリースペースプロジェクト》","lat":0.0,"lon":0.0,"state":"active","id":null},{"event_id":"1328398","title":"\\芝生でゆっくりお茶しませんか？/  秋のシバヒロゆる煎茶会　～お茶のある日常を見つけてみよう～","url":"http://peatix.com/event/1328398","shortener_url":null,"started_at":"2019-10-27T13:00:00.000+09:00","ended_at":"2019-10-30T08:59:59.000+09:00","limit_number":null,"address":"町田市中町1丁目20−23","place":"町田シバヒロ","lat":35.5486,"lon":139.447,"state":"active","id":null},{"event_id":"151061","title":"Kamakura Mok Mok Hack 59 リバイバル","url":"https://kamkura-mokmok.connpass.com/event/151061/","shortener_url":null,"started_at":"2019-10-19T11:00:00.000+09:00","ended_at":"2019-10-19T13:00:00.000+09:00","limit_number":7,"address":"神奈川県 鎌倉市由比ガ浜1丁目12-8","place":"HOUSE YUIGAHAMA","lat":35.3202,"lon":139.55,"state":"active","id":null},{"event_id":"109376","title":"PKV Poker Situs Judi QQ Online Pkv Games Apk Terbaik","url":"https://atnd.org/events/109376","shortener_url":null,"started_at":"2019-10-11T00:30:00.000+09:00","ended_at":"2019-10-31T04:00:00.000+09:00","limit_number":null,"address":"Jln. MT. Haryono, No. Ganjil 97 dst Sumatera Utara","place":"MEDAN, INDONESIA","lat":3.58739,"lon":98.6864,"state":"closed","id":null},{"event_id":"1342815","title":"起業・複業セミナー＆個別相談会「ちょ～どいい働き方を考えたいあなた、新潟で始めませんか？」","url":"http://peatix.com/event/1342815","shortener_url":null,"started_at":"2019-10-20T11:00:00.000+09:00","ended_at":"2019-10-23T08:59:59.000+09:00","limit_number":null,"address":"千代田区有楽町2丁目10−1 東京交通会館8階","place":"ふるさと回帰支援センター","lat":35.6748,"lon":139.764,"state":"active","id":null},{"event_id":"1342393","title":"「普通ってなんか嫌だ」大学生活をアップデートする社会への力試しを！ハタチのインターンに行ってみよ。","url":"http://hatachinointern01.peatix.com","shortener_url":null,"started_at":"2019-10-20T19:00:00.000+09:00","ended_at":"2019-10-23T08:59:59.000+09:00","limit_number":null,"address":"東京都渋谷区西原3-19-10 アパートメント上原 B1F","place":"自分らしさを表現するシェアスペース“ラシクる”@代々木上原","lat":35.6709,"lon":139.68,"state":"active","id":null},{"event_id":"1344355","title":"「18時間で作る新規事業案」ブロックチェーン・ビジネスアイデアソン#8","url":"http://blockchainbusinessideathon10.peatix.com","shortener_url":"https://bit.ly/2OIQFgY","started_at":"2019-10-19T10:00:00.000+09:00","ended_at":"2019-10-22T08:59:59.000+09:00","limit_number":null,"address":"中央区1丁目8−19 キラリトギンザ 11階","place":"BINARYSTAR 株式会社","lat":35.6744,"lon":139.769,"state":"active","id":null},{"event_id":"99071","title":"【レベルと目的に応じて2冊の本で学ぶ】DeepLearning勉強会#10","url":"https://soleildatadojo.doorkeeper.jp/events/99071","shortener_url":null,"started_at":"2019-10-23T19:30:00.000+09:00","ended_at":"2019-10-23T21:30:00.000+09:00","limit_number":10,"address":"大阪府大阪市北区西天満二丁目5番3号(堂島深川ビル3階)","place":"SCRIBBLE OSAKA LAB（SOL）（大阪メトロ御堂筋線「淀屋橋」駅から徒歩４分）","lat":null,"lon":null,"state":"active","id":null},{"event_id":"99072","title":"【大阪開催】みんなでKaggleもくもく会#5","url":"https://soleildatadojo.doorkeeper.jp/events/99072","shortener_url":null,"started_at":"2019-10-27T13:00:00.000+09:00","ended_at":"2019-10-27T16:30:00.000+09:00","limit_number":10,"address":"大阪府大阪市北区西天満二丁目5番3号(堂島深川ビル3階)","place":"SCRIBBLE OSAKA LAB（SOL）（大阪メトロ御堂筋線「淀屋橋」駅から徒歩４分）","lat":null,"lon":null,"state":"active","id":null},{"event_id":"150703","title":"スクラム道関西 オープン・ジャム","url":"https://scrumdo-kansai.connpass.com/event/150703/","shortener_url":null,"started_at":"2019-10-21T19:30:00.000+09:00","ended_at":"2019-10-21T21:30:00.000+09:00","limit_number":18,"address":"大阪府大阪市北区同心1-11-6 1F","place":"株式会社タンバリン","lat":34.7016,"lon":135.515,"state":"active","id":null},{"event_id":"151439","title":"[秋葉原] Unityもくもく勉強会×1週間ゲームジャム追込＆打上会","url":"https://weeyble-game.connpass.com/event/151439/","shortener_url":"https://bit.ly/2ORuSUo","started_at":"2019-10-20T18:00:00.000+09:00","ended_at":"2019-10-20T22:00:00.000+09:00","limit_number":8,"address":"東京都千代田区神田須田町２丁目１９−２３ (野村第３ビル ４階)","place":"コワーキングスペース秋葉原Weeyble","lat":35.6966,"lon":139.772,"state":"active","id":null},{"event_id":"1351793","title":"ワークショップイベント 「めぞん梅の湯を作ろう！ 収納チェア作り」","url":"http://maison-umenoy-03.peatix.com","shortener_url":null,"started_at":"2019-10-19T13:00:00.000+09:00","ended_at":"2019-10-22T08:59:59.000+09:00","limit_number":null,"address":"東京都荒川区西尾久2-32","place":"めぞん梅の湯（マスミ美容室 2F,3F ）","lat":35.7482,"lon":139.762,"state":"active","id":null},{"event_id":"1320159","title":"【10月後半の受付中！】外国人プロ講師のオンライン英語レッスンを試してみませんか？個室で受けられます【水道橋駅徒歩1分】","url":"http://offline201910vipabc02.peatix.com","shortener_url":null,"started_at":"2019-10-16T11:00:00.000+09:00","ended_at":"2019-10-19T08:59:59.000+09:00","limit_number":null,"address":"東京都千代田区神田三崎町2-20-5","place":"VIPABC東京本社　JR水道橋駅徒歩1分　住友不動産水道橋西口ビル7階","lat":35.7016,"lon":139.753,"state":"active","id":null},{"event_id":"1345110","title":"真備クリーン作戦in川辺","url":"http://peatix.com/event/1345110","shortener_url":null,"started_at":"2019-10-26T09:30:00.000+09:00","ended_at":"2019-10-29T08:59:59.000+09:00","limit_number":null,"address":"真備町川辺2271","place":"真備町川辺ローソンから南高架下付近","lat":0.0,"lon":0.0,"state":"active","id":null},{"event_id":"1346531","title":"ビジネスゲーム型「財務JAM」無料体験セミナー","url":"http://peatix.com/event/1346531","shortener_url":null,"started_at":"2019-10-18T17:00:00.000+09:00","ended_at":"2019-10-21T08:59:59.000+09:00","limit_number":null,"address":"国際新赤坂ビル東館, 11階, 2丁目-14-27 赤坂, 港区","place":"博報堂ラーニングスタジオ","lat":35.6722,"lon":139.737,"state":"active","id":null},{"event_id":"148051","title":"Roppongi.unity #5 in メルカリ@六本木ヒルズ","url":"https://roppongiunity.connpass.com/event/148051/","shortener_url":"https://bit.ly/2pBR0aE","started_at":"2019-10-23T19:30:00.000+09:00","ended_at":"2019-10-23T22:30:00.000+09:00","limit_number":114,"address":"東京都港区六本木6-10-1 (六本木ヒルズ森タワー)","place":"株式会社メルカリ 18F イベントスペース","lat":35.6604,"lon":139.729,"state":"active","id":null},{"event_id":"1354240","title":"はっとり♡かんなの似顔絵やさん inテンサイフェスタ","url":"http://kanna-hattori-tensai.peatix.com","shortener_url":null,"started_at":"2019-10-25T12:00:00.000+09:00","ended_at":"2019-10-28T08:59:59.000+09:00","limit_number":null,"address":"渋谷区20 渋谷区神宮前3-20-2 デザインフェスタギャラリーイースト","place":"デザインフェスタギャラリー イースト","lat":35.6705,"lon":139.708,"state":"active","id":null},{"event_id":"1352710","title":"\u003c追加募集・参加無料\u003e【横浜で複業スタートしませんか？】南区・磯子区フィールドワーク【#複活】","url":"http://fukukatsu1022.peatix.com","shortener_url":null,"started_at":"2019-10-22T10:00:00.000+09:00","ended_at":"2019-10-25T08:59:59.000+09:00","limit_number":null,"address":"神奈川県横浜市磯子区杉田2丁目1-9","place":"京急杉田駅","lat":35.3836,"lon":139.616,"state":"active","id":null},{"event_id":"152396","title":"Kamakura Mok Mok Hack 60 - 鎌倉もくもく会","url":"https://kamkura-mokmok.connpass.com/event/152396/","shortener_url":null,"started_at":"2019-10-26T11:00:00.000+09:00","ended_at":"2019-10-26T13:00:00.000+09:00","limit_number":7,"address":"神奈川県 鎌倉市由比ガ浜1丁目12-8","place":"HOUSE YUIGAHAMA","lat":35.3202,"lon":139.55,"state":"active","id":null},{"event_id":"122763","title":"4th 長崎 Software Quality and Development Gathering","url":"https://nagasaki-it-engineers.connpass.com/event/122763/","shortener_url":null,"started_at":"2019-10-25T10:30:00.000+09:00","ended_at":"2019-10-25T18:30:00.000+09:00","limit_number":42,"address":"長崎市出島町2-11","place":"CO-DEJIMA","lat":32.742,"lon":129.872,"state":"active","id":null},{"event_id":"152263","title":"kyoto.ex Farewell mokumoku Night","url":"https://kyotoex.connpass.com/event/152263/","shortener_url":null,"started_at":"2019-10-27T18:00:00.000+09:00","ended_at":"2019-10-27T20:00:00.000+09:00","limit_number":null,"address":"京都府京都市中京区河原町通蛸薬師下ル奈良屋町302","place":"上島珈琲店 河原町店","lat":35.0059,"lon":135.769,"state":"active","id":null},{"event_id":"1349088","title":"橋本久仁彦センセ、大学生の悩み、どうやって聞いていたんですか〜？◉オンライン視聴用","url":"http://kunichan1027.peatix.com","shortener_url":null,"started_at":"2019-10-27T19:00:00.000+09:00","ended_at":"2019-10-30T08:59:59.000+09:00","limit_number":null,"address":"郡山市堂前町17−15 大秀ビル 106","place":"Local Snack SHOKU SHOKU FUKUSHIMA","lat":37.3953,"lon":140.38,"state":"active","id":null},{"event_id":"109598","title":" could speed up the clearance of landmines","url":"https://atnd.org/events/109598","shortener_url":null,"started_at":"2019-10-25T00:00:00.000+09:00","ended_at":"2019-10-27T08:59:59.000+09:00","limit_number":null,"address":"","place":"","lat":null,"lon":null,"state":"closed","id":null},{"event_id":"1348235","title":"【10/27（日）マルシェも開催！】和歌山全域をぎゅっと凝縮！魅力をあじわう 「わかやま移住ジャム」","url":"http://peatix.com/event/1348235","shortener_url":null,"started_at":"2019-10-27T11:00:00.000+09:00","ended_at":"2019-10-30T08:59:59.000+09:00","limit_number":null,"address":"千代田区有楽町2丁目10−1","place":"東京交通会館","lat":35.675,"lon":139.764,"state":"active","id":null},{"event_id":"1352435","title":"※5名限定※新入社員のオンボーディングについて情報交換しませんか？HeaRoom#20","url":"http://peatix.com/event/1352435","shortener_url":null,"started_at":"2019-10-24T17:00:00.000+09:00","ended_at":"2019-10-27T08:59:59.000+09:00","limit_number":null,"address":"品川区西五反田1-32-2-アルコーブビル3F","place":"HeaR株式会社","lat":35.6242,"lon":139.722,"state":"active","id":null},{"event_id":"1353648","title":"【5名限定】採用担当者同士で選考辞退率を下げる面接について語りませんか？","url":"http://peatix.com/event/1353648","shortener_url":null,"started_at":"2019-10-29T17:00:00.000+09:00","ended_at":"2019-11-01T08:59:59.000+09:00","limit_number":null,"address":"品川区西五反田1-32-2-アルコーブビル3F","place":"HeaR株式会社","lat":35.6242,"lon":139.722,"state":"active","id":null},{"event_id":"1362044","title":"OCHA.0 -お茶でマインドフルネス-","url":"http://peatix.com/event/1362044","shortener_url":null,"started_at":"2019-10-31T15:00:00.000+09:00","ended_at":"2019-11-03T08:59:59.000+09:00","limit_number":null,"address":"4F, 2 Chome-5−1 Marunouchi, Chiyoda City","place":"point 0 marunouchi","lat":35.68,"lon":139.763,"state":"active","id":null},{"event_id":"109812","title":"Abschalten von UAV-WLAN-Signalen durch einen drohne störsender","url":"https://atnd.org/events/109812","shortener_url":null,"started_at":"2019-10-11T03:30:00.000+09:00","ended_at":"2019-10-19T02:00:00.000+09:00","limit_number":1000,"address":"8 Fabrikstrasse","place":"gps jammer","lat":46.9535,"lon":7.42272,"state":"closed","id":null},{"event_id":"1300372882921455616","title":"クルマとスマホをなかよくするSDLアプリコンテスト","url":"https://sdl-contest.com","shortener_url":"https://bit.ly/3jyteTP","started_at":"2019-10-19T09:00:00.000+09:00","ended_at":"2021-03-09T09:00:00.000+09:00","limit_number":null,"address":null,"place":"online","lat":null,"lon":null,"state":"active","id":null},{"event_id":"9233659123","title":"Buckhead Professional Women's Chapter of ABWA (Monthly Meeting) - VIRTUAL","url":"https://www.eventbrite.com/e/buckhead-professional-womens-chapter-of-abwa-monthly-meeting-virtual-tickets-9233659123","shortener_url":null,"started_at":"2019-10-22T00:30:00.000+09:00","ended_at":"2021-12-21T03:00:00.000+09:00","limit_number":null,"address":null,"place":"online","lat":null,"lon":null,"state":"active","id":null},{"event_id":"70790547433","title":"Discover Apprenticeships \u0026 Skilled Trades","url":"https://www.eventbrite.ca/e/discover-apprenticeships-skilled-trades-tickets-70790547433","shortener_url":null,"started_at":"2019-10-18T02:30:00.000+09:00","ended_at":"2022-08-24T05:00:00.000+09:00","limit_number":null,"address":null,"place":"online","lat":null,"lon":null,"state":"active","id":null},{"event_id":"9233659123","title":"Buckhead Professional Women's Chapter of ABWA (Monthly Meeting)","url":"https://www.eventbrite.com/e/buckhead-professional-womens-chapter-of-abwa-monthly-meeting-tickets-9233659123","shortener_url":null,"started_at":"2019-10-22T00:30:00.000+09:00","ended_at":"2022-12-20T03:00:00.000+09:00","limit_number":null,"address":null,"place":"online","lat":null,"lon":null,"state":"active","id":null},{"event_id":"72421425433","title":"Virtual Employer Showcase (EST) - Columbus","url":"https://www.eventbrite.com/e/virtual-employer-showcase-est-columbus-tickets-72421425433","shortener_url":null,"started_at":"2019-10-23T01:30:00.000+09:00","ended_at":"2022-07-23T04:00:00.000+09:00","limit_number":null,"address":null,"place":"online","lat":null,"lon":null,"state":"active","id":null},{"event_id":"72421425433","title":"Employer Showcase (EST) - Columbus","url":"https://www.eventbrite.com/e/employer-showcase-est-columbus-tickets-72421425433","shortener_url":null,"started_at":"2019-10-23T01:30:00.000+09:00","ended_at":"2022-07-23T04:00:00.000+09:00","limit_number":null,"address":null,"place":"online","lat":null,"lon":null,"state":"active","id":null}]