[{"event_id":"96809","title":"【また!?】温泉合宿 in 箱根 【四回目】","url":"https://svrkcho.connpass.com/event/96809/","shortener_url":"https://goo.gl/diSe7T","started_at":"2019-02-02T13:00:00.000+09:00","ended_at":"2019-02-03T12:00:00.000+09:00","limit_number":41,"address":"神奈川県足柄下郡箱根町木賀1014","place":"KKR宮ノ下","lat":35.2455,"lon":139.055,"state":"active","id":null},{"event_id":"415598","title":"STARRY NIGHT JAM vol.25「手嶌葵スペシャルライブ」【振替公演】","url":"http://snj25.peatix.com","shortener_url":null,"started_at":"2019-02-02T17:00:00.000+09:00","ended_at":"2019-02-05T08:59:59.000+09:00","limit_number":null,"address":"福岡市中央区 六本松4丁目2−1","place":"福岡市科学館","lat":33.5774,"lon":130.378,"state":"active","id":null},{"event_id":"415199","title":"スポーツ栄養講座「アスリートの食事2018・実践編」第３回（2019年2月9日）","url":"http://peatix.com/event/415199","shortener_url":null,"started_at":"2019-02-09T10:00:00.000+09:00","ended_at":"2019-02-12T08:59:59.000+09:00","limit_number":null,"address":"東京都中央区築地3-5-10","place":"日刊スポーツ新聞社","lat":35.668,"lon":139.774,"state":"active","id":null},{"event_id":"418957","title":"スポーツ栄養講座「アスリートの食事2018・実践編」第３回（2019年2月13日）","url":"http://peatix.com/event/418957","shortener_url":null,"started_at":"2019-02-13T13:00:00.000+09:00","ended_at":"2019-02-16T08:59:59.000+09:00","limit_number":null,"address":"東京都中央区築地3-5-10","place":"日刊スポーツ新聞社","lat":35.668,"lon":139.774,"state":"active","id":null},{"event_id":"431118","title":"第6回 さぶみっと！ヨクスル in 高松【2019年2月19日(火)開催】","url":"http://peatix.com/event/431118","shortener_url":null,"started_at":"2019-02-19T19:00:00.000+09:00","ended_at":"2019-02-22T08:59:59.000+09:00","limit_number":null,"address":"会場未定","place":"会場未定","lat":0.0,"lon":0.0,"state":"active","id":null},{"event_id":"445700","title":"締め切りました【観劇イベント】Bumpy Lens -in theatre- 劇場で出会ったクリエイティブな人たち","url":"http://love-never-dies.peatix.com","shortener_url":null,"started_at":"2019-02-04T13:30:00.000+09:00","ended_at":"2019-02-07T08:59:59.000+09:00","limit_number":null,"address":"千代田区有楽町1丁目1−1","place":"日生劇場","lat":35.6732,"lon":139.758,"state":"active","id":null},{"event_id":"566754","title":"【2/18(月)18時～】集中力アップトレーニング！","url":"http://peatix.com/event/566754","shortener_url":null,"started_at":"2019-02-18T18:00:00.000+09:00","ended_at":"2019-02-21T08:59:59.000+09:00","limit_number":null,"address":"〒102-0072 東京都千代田区飯田橋2-9-3 かすがビル6階","place":"東京都千代田区飯田橋２-９-３　かすがビル６階","lat":35.6999,"lon":139.749,"state":"active","id":null},{"event_id":"570460","title":"（年内割引12/31〆切　通常チケット2/1〆切）脚力不問！初心者歓迎！大村コーチと行くツール・ド・おきなわ実戦対策合宿in名護2019","url":"http://peatix.com/event/570460","shortener_url":null,"started_at":"2019-02-09T12:00:00.000+09:00","ended_at":"2019-02-12T08:59:59.000+09:00","limit_number":null,"address":"今帰仁村 字天底666−1","place":"Bistro Taishou（大笑）","lat":26.6696,"lon":127.988,"state":"active","id":null},{"event_id":"569326","title":"IMR研修会 in 沖縄　～リカバリー全国フォーラム地方版分科会～","url":"http://peatix.com/event/569326","shortener_url":null,"started_at":"2019-02-03T10:00:00.000+09:00","ended_at":"2019-02-06T08:59:59.000+09:00","limit_number":null,"address":"沖縄県浦添市経塚346","place":"平安病院 5階 多目的ホール","lat":26.2351,"lon":127.725,"state":"active","id":null},{"event_id":"487318","title":"アートと笑いの境界線　2/2（土）開催：しりあがり寿、会田誠、ジャルジャル、千原徹也、倉本美津留、現代アーティストが出演","url":"http://yokohamaartrally-1.peatix.com","shortener_url":null,"started_at":"2019-02-02T12:00:00.000+09:00","ended_at":"2019-02-05T08:59:59.000+09:00","limit_number":null,"address":"神奈川県横浜市中区本町1−6","place":"横浜市開港記念会館","lat":35.4473,"lon":139.641,"state":"active","id":null},{"event_id":"573027","title":"2月10日(日)18:00～★ 青山【シングル限定】優雅なセレブラウンジでGaitomo国際交流パーティー","url":"http://peatix.com/event/573027","shortener_url":null,"started_at":"2019-02-10T18:00:00.000+09:00","ended_at":"2019-02-13T08:59:59.000+09:00","limit_number":null,"address":"東京都港区北青山3-2-5","place":"青山 Aoyama Lounge ","lat":35.6689,"lon":139.715,"state":"active","id":null},{"event_id":"573041","title":"2月11日(月祝)18:00～★ 赤坂見附【１人参加限定】アクセス抜群Gaitomo国際交流パーティー","url":"http://peatix.com/event/573041","shortener_url":null,"started_at":"2019-02-11T18:00:00.000+09:00","ended_at":"2019-02-14T08:59:59.000+09:00","limit_number":null,"address":"5階-C, TS共和六番館, 3丁目-21-番14号 赤坂, 港区","place":"FIORE-フィオーレ-赤坂見附店","lat":35.6768,"lon":139.736,"state":"active","id":null},{"event_id":"574021","title":"【参加費無料・懇親会あり】管理職ゼロの組織が実践する新しい目標管理の形とは？","url":"http://peatix.com/event/574021","shortener_url":null,"started_at":"2019-02-21T16:00:00.000+09:00","ended_at":"2019-02-24T08:59:59.000+09:00","limit_number":null,"address":"東京都台東区浅草橋5-20-8 CSタワー7階","place":"株式会社ISAO","lat":35.7014,"lon":139.781,"state":"active","id":null},{"event_id":"83667","title":"2/2(土)~3(日)festivo ホームページ作成（WordPress） Camp@東京【学生15,000円、一般20,000円】～戦うスキルを身につける15時間！WordPress集中合宿！～","url":"https://festivo.doorkeeper.jp/events/83667","shortener_url":"https://goo.gl/cJhYFw","started_at":"2019-02-02T10:30:00.000+09:00","ended_at":"2019-02-03T18:30:00.000+09:00","limit_number":1,"address":"東京都練馬区豊玉北3-15-17","place":"起業家シェアハウス x-garden セミナールーム","lat":35.7329,"lon":139.661,"state":"active","id":null},{"event_id":"575513","title":"2/2(土)~3(日)festivo ホームページ作成（WordPress） Camp@東京【学生15,000円、一般20,000円】～戦うスキルを身につける15時間！WordPress集中合宿！～","url":"http://peatix.com/event/575513","shortener_url":"https://goo.gl/jmJ94G","started_at":"2019-02-02T10:30:00.000+09:00","ended_at":"2019-02-05T08:59:59.000+09:00","limit_number":null,"address":"東京都練馬区豊玉北3-15-17","place":"起業家シェアハウス x-garden セミナールーム","lat":35.7329,"lon":139.661,"state":"active","id":null},{"event_id":"575047","title":"2月23日（土）ソロビズ「起業の適性検査」","url":"http://tekisei190223.peatix.com","shortener_url":null,"started_at":"2019-02-23T09:10:00.000+09:00","ended_at":"2019-02-26T08:59:59.000+09:00","limit_number":null,"address":"横浜市中区海岸通1-1","place":"波止場会館　４F小会議室Ａ（日本大通り駅 徒歩５分）","lat":35.4484,"lon":139.645,"state":"active","id":null},{"event_id":"575500","title":"東京マラソン、名古屋ウィメンズマラソンに向けたマラソン短期強化スクール⑥ レース当日に向けた栄養、サプリメント講習会＆2時間走 皇居","url":"http://peatix.com/event/575500","shortener_url":null,"started_at":"2019-02-09T09:00:00.000+09:00","ended_at":"2019-02-12T08:59:59.000+09:00","limit_number":null,"address":"東京都千代田区神田錦町3-21","place":"【集合/受付】ランニングステーションRUNCUBE","lat":35.6915,"lon":139.762,"state":"active","id":null},{"event_id":"111688","title":"【報酬10万円】新生ハッカソン","url":"https://connpass.com/event/111688/","shortener_url":"https://goo.gl/1CVePm","started_at":"2019-02-18T19:00:00.000+09:00","ended_at":"2019-03-01T03:30:00.000+09:00","limit_number":null,"address":"東京都千代田区外神田三丁目12番8号","place":"東京　秋葉原（新生フィナンシャル本社）※最終日に限り、日本橋（新生銀行本店）","lat":35.7,"lon":139.771,"state":"active","id":null},{"event_id":"577915","title":"Where to Party in Tokyo night time Best Nightclub Nightlife International AitaiParty DiATokyo Roppongi Disco Meet Japanese Girls Travelers Tourists meetup Every Friday Saturday public holiday Dance club Aitai Party","url":"http://where-to-party-in-tokyo-night-time-nightlife-nightclub-girls.peatix.com","shortener_url":null,"started_at":"2019-02-01T23:55:00.000+09:00","ended_at":"2019-02-04T08:59:59.000+09:00","limit_number":null,"address":"Minatoku Roppongi 3-8-15 Tokyo","place":"DiA Tokyo Roppongi","lat":35.6634,"lon":139.734,"state":"active","id":null},{"event_id":"102497","title":"2019年02月02日『アイの物語』合宿読書会","url":"https://atnd.org/events/102497","shortener_url":"https://goo.gl/Jp295u","started_at":"2019-02-02T15:00:00.000+09:00","ended_at":"2019-02-03T09:30:00.000+09:00","limit_number":15,"address":"京都府南丹市園部町新町51-1","place":"京都府南丹市園部町『かいちや』","lat":35.1071,"lon":135.479,"state":"closed","id":null},{"event_id":"579014","title":"未来の仏教ラボ事例研究会「期限付き墓地(レンタル墓)」","url":"http://fbl20190205.peatix.com","shortener_url":null,"started_at":"2019-02-05T15:00:00.000+09:00","ended_at":"2019-02-08T08:59:59.000+09:00","limit_number":null,"address":"東京都港区虎ノ門3-25-1","place":"梅上山 光明寺","lat":35.6624,"lon":139.745,"state":"active","id":null},{"event_id":"579470","title":"Japan Party Tokyo night time Best Nightclub Nightlife AitaiParty DiATokyo Roppongi Disco Meet Japanese Girls Travelers Tourists meetup Every Friday Saturday public holiday Dance club Aitai Party","url":"http://japan-tokyo-party-roppongi.peatix.com","shortener_url":null,"started_at":"2019-02-23T23:55:00.000+09:00","ended_at":"2019-02-26T08:59:59.000+09:00","limit_number":null,"address":"Minatoku Roppongi 3-8-15 Tokyo","place":"DiA Tokyo Roppongi","lat":35.6634,"lon":139.734,"state":"active","id":null},{"event_id":"83800","title":"［再増枠］StartupWeekend Tokyo Robotics 2nd@Microsoft","url":"https://swtokyo.doorkeeper.jp/events/83800","shortener_url":null,"started_at":"2019-02-22T18:00:00.000+09:00","ended_at":"2019-02-24T21:00:00.000+09:00","limit_number":110,"address":"108-0075 東京都港区港南2丁目16−3 品川グランドセントラルタワー","place":"日本マイクロソフト品川本社","lat":35.6267,"lon":139.74,"state":"active","id":null},{"event_id":"578155","title":"2月2日(土)19:00～★ 心斎橋 駅近の隠れ家ラウンジでオリジナルGaitomo国際交流パーティー","url":"http://peatix.com/event/578155","shortener_url":null,"started_at":"2019-02-02T19:00:00.000+09:00","ended_at":"2019-02-05T08:59:59.000+09:00","limit_number":null,"address":"大阪市中央区東心斎橋1-18-6","place":"心斎橋 Singles Bar Eden ","lat":34.6738,"lon":135.503,"state":"active","id":null},{"event_id":"579980","title":"Comedy Masala ft. RO CAMPBELL (AUS) | as featured on SBS TV \u0026 BBC Radio","url":"http://rocampbellcomedymasala.peatix.com","shortener_url":null,"started_at":"2019-02-12T21:00:00.000+09:00","ended_at":"2019-02-15T08:59:59.000+09:00","limit_number":null,"address":"69 Circular Road, Boat Quay, Singapore 049423","place":"HERO'S, 69 Circular Road, Singapore 049423","lat":1.28641,"lon":103.849,"state":"active","id":null},{"event_id":"580167","title":"Comedy Masala ft. JoJo Smith (UK) | as seen on ITV \u0026 The Edinburgh Fringe Festival","url":"http://jojosmith.peatix.com","shortener_url":null,"started_at":"2019-02-19T21:00:00.000+09:00","ended_at":"2019-02-22T08:59:59.000+09:00","limit_number":null,"address":"69 Circular Road, Boat Quay, Singapore 049423","place":"HERO'S, 69 Circular Road, Singapore 049423","lat":1.28641,"lon":103.849,"state":"active","id":null},{"event_id":"578056","title":"STARRY NIGHT JAM vol.33 坂本美雨＋haruka nakamuraスペシャルライブ","url":"http://snj33.peatix.com","shortener_url":null,"started_at":"2019-02-16T17:00:00.000+09:00","ended_at":"2019-02-19T08:59:59.000+09:00","limit_number":null,"address":"福岡市中央区 六本松4丁目2−1","place":"福岡市科学館","lat":33.5774,"lon":130.378,"state":"active","id":null},{"event_id":"580035","title":"Tokyo Party night time Best Nightclub Nightlife International AitaiParty DiATokyo Japan Roppongi Disco Meet Japanese Girls Travelers Tourists meetup Every Friday Saturday public holiday Dance club Aitai Party (複製)","url":"http://tokyo-party-japan-nightlife-disco-international.peatix.com","shortener_url":null,"started_at":"2019-02-23T23:55:00.000+09:00","ended_at":"2019-02-26T08:59:59.000+09:00","limit_number":null,"address":"Minatoku Roppongi 3-8-15 Tokyo","place":"DiA Tokyo Roppongi","lat":35.6634,"lon":139.734,"state":"active","id":null},{"event_id":"577100","title":"第56回こんぼ亭月例会「働く人も、雇用主もうれしい 超短時間雇用とはナンだ？」","url":"http://peatix.com/event/577100","shortener_url":null,"started_at":"2019-02-16T13:00:00.000+09:00","ended_at":"2019-02-19T08:59:59.000+09:00","limit_number":null,"address":"東京都江戸川区船堀4-1-1","place":"タワーホール船堀","lat":35.6844,"lon":139.865,"state":"active","id":null},{"event_id":"580891","title":"みんなでバンカラ！どこよりも参加しやすい音楽交流会 Vol.1","url":"http://bankara.peatix.com","shortener_url":null,"started_at":"2019-02-24T13:00:00.000+09:00","ended_at":"2019-02-27T08:59:59.000+09:00","limit_number":null,"address":"港区六本木7丁目14−1 5F 東李閣ビル","place":"UTAIBA / ウタイバ","lat":35.6641,"lon":139.731,"state":"active","id":null},{"event_id":"570136","title":"家族まるごと支援と家族のリカバリー in 名古屋　～リカバリ―フォーラム地方版分科会～","url":"http://peatix.com/event/570136","shortener_url":null,"started_at":"2019-02-10T13:00:00.000+09:00","ended_at":"2019-02-13T08:59:59.000+09:00","limit_number":null,"address":"名古屋市中村区名駅南1丁目19-27","place":"オルバースビル4階　会議室","lat":35.1668,"lon":136.887,"state":"active","id":null},{"event_id":"580898","title":"TRAFFIC LIGHT PARTY! (SAT) トラフィック・ライト パーティー！（土）","url":"http://peatix.com/event/580898","shortener_url":null,"started_at":"2019-02-02T19:00:00.000+09:00","ended_at":"2019-02-05T08:59:59.000+09:00","limit_number":null,"address":"東京都港区六本木3-14-9 ユア六本木2F","place":"Bar Propaganda (2F)","lat":35.6623,"lon":139.735,"state":"active","id":null},{"event_id":"580897","title":"FRIDAY NIGHT PUB CRAWL!","url":"http://peatix.com/event/580897","shortener_url":null,"started_at":"2019-02-01T19:00:00.000+09:00","ended_at":"2019-02-04T08:59:59.000+09:00","limit_number":null,"address":"東京都港区六本木3-14-9 ユア六本木2F","place":"Bar Propaganda (2F)","lat":35.6623,"lon":139.735,"state":"active","id":null},{"event_id":"580942","title":"S.A.D. Singles Awareness Day Pub Crawl! (SAT)　シングルズ・パーティー（土）","url":"http://peatix.com/event/580942","shortener_url":null,"started_at":"2019-02-09T19:00:00.000+09:00","ended_at":"2019-02-12T08:59:59.000+09:00","limit_number":null,"address":"東京都港区六本木3-14-9 ユア六本木2F","place":"Bar Propaganda (2F)","lat":35.6623,"lon":139.735,"state":"active","id":null},{"event_id":"580961","title":"GLOW PARTY! (FRI) グロウパーティー（金）","url":"http://peatix.com/event/580961","shortener_url":null,"started_at":"2019-02-22T19:00:00.000+09:00","ended_at":"2019-02-25T08:59:59.000+09:00","limit_number":null,"address":"東京都港区六本木3-14-9 ユア六本木2F","place":"Bar Propaganda (2F)","lat":35.6623,"lon":139.735,"state":"active","id":null},{"event_id":"580949","title":"VALENTINES DAY PUB CRAWL! (SAT) バレンタイン・パーティー（土）LADIES 50% OFF ALL NIGHT!","url":"http://peatix.com/event/580949","shortener_url":null,"started_at":"2019-02-16T19:00:00.000+09:00","ended_at":"2019-02-19T08:59:59.000+09:00","limit_number":null,"address":"東京都港区六本木3-14-9 ユア六本木2F","place":"Bar Propaganda (2F)","lat":35.6623,"lon":139.735,"state":"active","id":null},{"event_id":"580941","title":"S.A.D. Singles Awareness Day Pub Crawl! (FRI)　シングルズ・パーティー（金）","url":"http://peatix.com/event/580941","shortener_url":null,"started_at":"2019-02-08T19:00:00.000+09:00","ended_at":"2019-02-11T08:59:59.000+09:00","limit_number":null,"address":"東京都港区六本木3-14-9 ユア六本木2F","place":"Bar Propaganda (2F)","lat":35.6623,"lon":139.735,"state":"active","id":null},{"event_id":"580948","title":"VALENTINES DAY PUB CRAWL! (FRI) バレンタイン・パーティー（金）LADIES 50% OFF ALL NIGHT!","url":"http://peatix.com/event/580948","shortener_url":null,"started_at":"2019-02-15T19:00:00.000+09:00","ended_at":"2019-02-18T08:59:59.000+09:00","limit_number":null,"address":"東京都港区六本木3-14-9 ユア六本木2F","place":"Bar Propaganda (2F)","lat":35.6623,"lon":139.735,"state":"active","id":null},{"event_id":"580962","title":"GLOW PARTY! (SAT) グロウパーティー（土）","url":"http://peatix.com/event/580962","shortener_url":null,"started_at":"2019-02-23T19:00:00.000+09:00","ended_at":"2019-02-26T08:59:59.000+09:00","limit_number":null,"address":"東京都港区六本木3-14-9 ユア六本木2F","place":"Bar Propaganda (2F)","lat":35.6623,"lon":139.735,"state":"active","id":null},{"event_id":"581489","title":"【英語発音矯正塾@銀座】2/16~ 毎週土曜日×10週間集中講座","url":"http://peatix.com/event/581489","shortener_url":null,"started_at":"2019-02-16T14:00:00.000+09:00","ended_at":"2019-02-19T08:59:59.000+09:00","limit_number":null,"address":"〒104-0061 東京都中央区銀座3-9-4","place":"マイスペース銀座マロニエ通り店","lat":35.6718,"lon":139.768,"state":"active","id":null},{"event_id":"582321","title":"ポケモンカードゲーム チャンピオンズリーグ2019 千葉(公認大会)","url":"http://peatix.com/event/582321","shortener_url":null,"started_at":"2019-02-17T07:30:00.000+09:00","ended_at":"2019-02-19T08:59:59.000+09:00","limit_number":null,"address":"千葉県千葉市美浜区中瀬2-1","place":"幕張メッセ　展示ホール11","lat":35.6475,"lon":140.035,"state":"active","id":null},{"event_id":"582809","title":"油絵具入門講座 PIGMENT LAB WORKSHOP Introduction to Oil Painting","url":"http://peatix.com/event/582809","shortener_url":null,"started_at":"2019-02-01T19:00:00.000+09:00","ended_at":"2019-02-04T08:59:59.000+09:00","limit_number":null,"address":"品川区 東品川2丁目5−5 TERRADA Harbor One Bldg. 1F","place":"PIGMENT","lat":35.6213,"lon":139.75,"state":"active","id":null},{"event_id":"582815","title":"岩絵具入門講座 PIGMENT LAB WORKSHOP Introduction of Mineral Pigments","url":"http://peatix.com/event/582815","shortener_url":null,"started_at":"2019-02-08T19:00:00.000+09:00","ended_at":"2019-02-11T08:59:59.000+09:00","limit_number":null,"address":"品川区 東品川2丁目5−5 TERRADA Harbor One Bldg. 1F","place":"PIGMENT","lat":35.6213,"lon":139.75,"state":"active","id":null},{"event_id":"580310","title":"Comedy Masala ft. Artur Akhmetzyanov (RUS)","url":"http://arturakhmetzyanov.peatix.com","shortener_url":null,"started_at":"2019-02-26T21:00:00.000+09:00","ended_at":"2019-03-01T08:59:59.000+09:00","limit_number":null,"address":"69 Circular Road, Boat Quay, Singapore 049423","place":"HERO'S, 69 Circular Road, Singapore 049423","lat":1.28641,"lon":103.849,"state":"active","id":null},{"event_id":"582818","title":"料紙づくり PIGMENT LAB WORKSHOP Creating Original Ryo-shi","url":"http://peatix.com/event/582818","shortener_url":null,"started_at":"2019-02-09T13:00:00.000+09:00","ended_at":"2019-02-12T08:59:59.000+09:00","limit_number":null,"address":"品川区 東品川2丁目5−5 TERRADA Harbor One Bldg. 1F","place":"PIGMENT","lat":35.6213,"lon":139.75,"state":"active","id":null},{"event_id":"582822","title":"水晶を使ったオリジナル水彩絵具作り PIGMENT LAB WORKSHOP Creating Original Paints","url":"http://peatix.com/event/582822","shortener_url":null,"started_at":"2019-02-16T13:00:00.000+09:00","ended_at":"2019-02-19T08:59:59.000+09:00","limit_number":null,"address":"品川区 東品川2丁目5−5 TERRADA Harbor One Bldg. 1F","place":"PIGMENT","lat":35.6213,"lon":139.75,"state":"active","id":null},{"event_id":"582811","title":"離乳食インストラクター協会2級講座【オンライン】 2019年2月27日","url":"http://peatix.com/event/582811","shortener_url":null,"started_at":"2019-02-27T12:30:00.000+09:00","ended_at":"2019-03-02T08:59:59.000+09:00","limit_number":null,"address":"兵庫県西宮市","place":"離乳食インストラクター協会","lat":34.7376,"lon":135.342,"state":"active","id":null},{"event_id":"582829","title":"日本絵画秘伝技法講座 胡粉・岩絵具 PIGMENT LAB WORKSHOP Japanese Painting Workshop -Secret Behind the Gofun (shell powder) and Mineral Pigment","url":"http://peatix.com/event/582829","shortener_url":null,"started_at":"2019-02-10T13:00:00.000+09:00","ended_at":"2019-02-13T08:59:59.000+09:00","limit_number":null,"address":"品川区 東品川2丁目5−5 TERRADA Harbor One Bldg. 1F","place":"PIGMENT","lat":35.6213,"lon":139.75,"state":"active","id":null},{"event_id":"583781","title":"箔入門講座 PIGMENT LAB WORKSHOP Introduction to Metal Leaf","url":"http://peatix.com/event/583781","shortener_url":null,"started_at":"2019-02-15T19:00:00.000+09:00","ended_at":"2019-02-18T08:59:59.000+09:00","limit_number":null,"address":"品川区 東品川2丁目5−5 TERRADA Harbor One Bldg. 1F","place":"PIGMENT","lat":35.6213,"lon":139.75,"state":"active","id":null},{"event_id":"583868","title":"テンペラ絵具入門講座 PIGMENT LAB WORKSHOP Introduction to Tempera Painting","url":"http://peatix.com/event/583868","shortener_url":null,"started_at":"2019-02-22T19:00:00.000+09:00","ended_at":"2019-02-25T08:59:59.000+09:00","limit_number":null,"address":"品川区 東品川2丁目5−5 TERRADA Harbor One Bldg. 1F","place":"PIGMENT","lat":35.6213,"lon":139.75,"state":"active","id":null},{"event_id":"583858","title":"西洋画中級講座  -風景画- PIGMENT LAB WORKSHOP  西洋画中級講座  -風景画-","url":"http://peatix.com/event/583858","shortener_url":null,"started_at":"2019-02-03T13:00:00.000+09:00","ended_at":"2019-02-06T08:59:59.000+09:00","limit_number":null,"address":"品川区 東品川2丁目5−5 TERRADA Harbor One Bldg. 1F","place":"PIGMENT","lat":35.6213,"lon":139.75,"state":"active","id":null},{"event_id":"583805","title":"黄金背景テンペラ画技法 PIGMENT LAB WORKSHOP Workshop for Water gilding","url":"http://peatix.com/event/583805","shortener_url":null,"started_at":"2019-02-23T13:00:00.000+09:00","ended_at":"2019-02-26T08:59:59.000+09:00","limit_number":null,"address":"品川区 東品川2丁目5−5 TERRADA Harbor One Bldg. 1F","place":"PIGMENT","lat":35.6213,"lon":139.75,"state":"active","id":null},{"event_id":"583789","title":"岩絵具入門講座 PIGMENT LAB WORKSHOP Introduction to Mineral Pigments","url":"http://peatix.com/event/583789","shortener_url":null,"started_at":"2019-02-20T13:00:00.000+09:00","ended_at":"2019-02-23T08:59:59.000+09:00","limit_number":null,"address":"品川区 東品川2丁目5−5 TERRADA Harbor One Bldg. 1F","place":"PIGMENT","lat":35.6213,"lon":139.75,"state":"active","id":null},{"event_id":"584188","title":"2019/02/16-すぐに活かせる！似合うアクセサリーの見つけ方レッスン／浜離宮・芳梅亭／コト。","url":"http://koto-20190216-3.peatix.com","shortener_url":null,"started_at":"2019-02-16T12:00:00.000+09:00","ended_at":"2019-02-19T08:59:59.000+09:00","limit_number":null,"address":"中央区浜離宮庭園1−1","place":"浜離宮恩賜庭園","lat":35.6597,"lon":139.763,"state":"active","id":null},{"event_id":"113463","title":"冬休みにPyxelでレトロゲームをつくってみる会 #Python","url":"https://connpass.com/event/113463/","shortener_url":null,"started_at":"2019-02-02T19:00:00.000+09:00","ended_at":"2019-02-02T21:00:00.000+09:00","limit_number":null,"address":"","place":"あなたのいるところ","lat":null,"lon":null,"state":"active","id":null},{"event_id":"584450","title":"CancerX Summit 2019","url":"http://cancerxsummit2019.peatix.com","shortener_url":null,"started_at":"2019-02-03T09:30:00.000+09:00","ended_at":"2019-02-06T08:59:59.000+09:00","limit_number":null,"address":"東京都千代田区有楽町1-1-2","place":"東京ミッドタウン日比谷 6階 BASE Q Hall＆Kitchen","lat":0.0,"lon":0.0,"state":"active","id":null},{"event_id":"339066","title":"2.23-24英語集中講座〜マルチリンガルメソッド2day合宿 in 金沢","url":"http://kanazawa223.peatix.com","shortener_url":null,"started_at":"2019-02-23T11:00:00.000+09:00","ended_at":"2019-02-26T08:59:59.000+09:00","limit_number":null,"address":"石川県金沢市堅町","place":"Kaname Inn Tataemachi","lat":36.5588,"lon":136.655,"state":"active","id":null},{"event_id":"583583","title":"#09 United Medical Leaders Tokyo 〜 医師人気 SNS の中の人〜","url":"http://09uml-tokyo.peatix.com","shortener_url":null,"started_at":"2019-02-09T16:45:00.000+09:00","ended_at":"2019-02-12T08:59:59.000+09:00","limit_number":null,"address":"千代田区神田駿河台4丁目6 3 階 御茶ノ水 ソラシティ アカデミア","place":"デジタルハリウッド大学","lat":35.6986,"lon":139.766,"state":"active","id":null},{"event_id":"584081","title":"2月23日（土）アイデアからビジネスを創るワークショップ「Startup Discussion」","url":"http://peatix.com/event/584081","shortener_url":null,"started_at":"2019-02-23T10:30:00.000+09:00","ended_at":"2019-02-26T08:59:59.000+09:00","limit_number":null,"address":"横浜市中区海岸通1-1","place":"波止場会館　４Ｆ小会議室Ａ（日本大通り駅 徒歩５分）","lat":35.4483,"lon":139.645,"state":"active","id":null},{"event_id":"585358","title":"POP JAM SESSION （女性＆男性ボーカル曲中心・社会人のバンドサークル） #41","url":"http://peatix.com/event/585358","shortener_url":null,"started_at":"2019-02-16T15:30:00.000+09:00","ended_at":"2019-02-19T08:59:59.000+09:00","limit_number":null,"address":"新宿区西新宿7丁目16−7","place":"スタジオノード 新宿店","lat":35.6962,"lon":139.698,"state":"active","id":null},{"event_id":"580008","title":"TSUBAME HACK !　～産地の未来をHACK!する～","url":"http://tsubamehack2018-3.peatix.com","shortener_url":null,"started_at":"2019-02-02T10:00:00.000+09:00","ended_at":"2019-02-05T08:59:59.000+09:00","limit_number":null,"address":"新潟県燕市吉田日之出町1-1","place":"燕市民交流センター","lat":37.6857,"lon":138.88,"state":"active","id":null},{"event_id":"578802","title":"Where to Party in Tokyo night time Best Nightclub Nightlife International AitaiParty DiATokyo Roppongi Disco Meet Japanese Girls Travelers Tourists meetup Every Friday Saturday public holiday Dance club Aitai Party (複製)","url":"http://japan-nightlife-tokyo-nightclub-dicso-roppongi.peatix.com","shortener_url":null,"started_at":"2019-02-23T23:45:00.000+09:00","ended_at":"2019-02-26T08:59:59.000+09:00","limit_number":null,"address":"Minatoku Roppongi 3-8-15 Tokyo","place":"DiA Tokyo Roppongi","lat":35.6634,"lon":139.734,"state":"active","id":null},{"event_id":"585576","title":"【先着12名】フリーランス・個人事業主のための「確定申告ワーケーション」 in 奄美大島","url":"http://amamikakuteishinkoku.peatix.com","shortener_url":null,"started_at":"2019-02-05T16:00:00.000+09:00","ended_at":"2019-02-08T08:59:59.000+09:00","limit_number":null,"address":"奄美市笠利町大字須野95","place":"伝泊 高倉のある宿","lat":28.4756,"lon":129.705,"state":"active","id":null},{"event_id":"585903","title":"＃僕らのSnapmart ポートレート撮影オフ会 Part３@ism_campus","url":"http://oursnapmart03.peatix.com","shortener_url":null,"started_at":"2019-02-23T14:00:00.000+09:00","ended_at":"2019-02-26T08:59:59.000+09:00","limit_number":null,"address":"東京都渋谷区道玄坂1-22-12","place":"ism campus (長島第一ビル 3F)","lat":35.6566,"lon":139.696,"state":"active","id":null},{"event_id":"581964","title":"Singles Awareness Day aka S.A.D. PARTY! (FRI) シングルズ・パーティー（金）","url":"http://peatix.com/event/581964","shortener_url":null,"started_at":"2019-02-08T19:00:00.000+09:00","ended_at":"2019-02-11T08:59:59.000+09:00","limit_number":null,"address":"大阪市中央区東心斎橋2-5-27","place":"The Blarney Stone (B1F)","lat":34.6718,"lon":135.504,"state":"active","id":null},{"event_id":"581969","title":"VALENTINES DAY PUB CRAWL! (FRI) バレンタイン・パーティー（金）","url":"http://peatix.com/event/581969","shortener_url":null,"started_at":"2019-02-15T19:00:00.000+09:00","ended_at":"2019-02-18T08:59:59.000+09:00","limit_number":null,"address":"大阪市中央区東心斎橋2-5-27","place":"The Blarney Stone (B1F)","lat":34.6718,"lon":135.504,"state":"active","id":null},{"event_id":"569515","title":"TRAFFIC LIGHT PARTY! (SAT) トラフィック・ライト パーティー！（土）","url":"http://peatix.com/event/569515","shortener_url":null,"started_at":"2019-02-02T19:00:00.000+09:00","ended_at":"2019-02-05T08:59:59.000+09:00","limit_number":null,"address":"大阪市中央区東心斎橋2-5-27","place":"The Blarney Stone (B1F)","lat":34.6718,"lon":135.504,"state":"active","id":null},{"event_id":"581970","title":"VALENTINES DAY PUB CRAWL! (SAT) バレンタイン・パーティー（土）","url":"http://peatix.com/event/581970","shortener_url":null,"started_at":"2019-02-16T19:00:00.000+09:00","ended_at":"2019-02-19T08:59:59.000+09:00","limit_number":null,"address":"大阪市中央区東心斎橋2-5-27","place":"The Blarney Stone (B1F)","lat":34.6718,"lon":135.504,"state":"active","id":null},{"event_id":"581973","title":"GLOW PARTY! (FRI) グロウパーティー（金）","url":"http://peatix.com/event/581973","shortener_url":null,"started_at":"2019-02-22T19:00:00.000+09:00","ended_at":"2019-02-25T08:59:59.000+09:00","limit_number":null,"address":"大阪市中央区東心斎橋2-5-27","place":"The Blarney Stone (B1F)","lat":34.6718,"lon":135.504,"state":"active","id":null},{"event_id":"448957","title":"FRIDAY NIGHT PUB CRAWL!","url":"http://peatix.com/event/448957","shortener_url":null,"started_at":"2019-02-01T19:00:00.000+09:00","ended_at":"2019-02-04T08:59:59.000+09:00","limit_number":null,"address":"大阪市中央区東心斎橋2-5-27","place":"The Blarney Stone (B1F)","lat":34.6718,"lon":135.504,"state":"active","id":null},{"event_id":"581965","title":"Singles Awareness Day aka S.A.D. PARTY! (SAT) シングルズ・パーティー（土）","url":"http://peatix.com/event/581965","shortener_url":null,"started_at":"2019-02-09T19:00:00.000+09:00","ended_at":"2019-02-12T08:59:59.000+09:00","limit_number":null,"address":"大阪市中央区東心斎橋2-5-27","place":"The Blarney Stone (B1F)","lat":34.6718,"lon":135.504,"state":"active","id":null},{"event_id":"581974","title":"GLOW PARTY! (SAT) グロウパーティー（土）","url":"http://peatix.com/event/581974","shortener_url":null,"started_at":"2019-02-23T19:00:00.000+09:00","ended_at":"2019-02-26T08:59:59.000+09:00","limit_number":null,"address":"1 Chome-7-18 Nishishinsaibashi, Chuo Ward, Osaka","place":"Domus by DS","lat":34.6726,"lon":135.498,"state":"active","id":null},{"event_id":"584790","title":"【バレンタインチケット完売！廃校で参加型ミュージカル！】ROLE PLAYING CINEMA vol.02「ヘアスプレー」～オールドスタイル・TVショー～","url":"http://peatix.com/event/584790","shortener_url":null,"started_at":"2019-02-10T15:30:00.000+09:00","ended_at":"2019-02-13T08:59:59.000+09:00","limit_number":null,"address":"千代田区外神田6丁目11−14","place":"アーツ千代田3331","lat":35.7042,"lon":139.771,"state":"active","id":null},{"event_id":"84823","title":"ひきこもりハッカソン","url":"https://ac358901e6c4ac1b5a2c7b1c9e.doorkeeper.jp/events/84823","shortener_url":"https://goo.gl/spCDpX","started_at":"2019-02-15T19:00:00.000+09:00","ended_at":"2019-02-17T20:30:00.000+09:00","limit_number":52,"address":"和歌山県西牟婁郡白浜町 中1701-3","place":"イノベーション・スプリングス（クオリティソフト株式会社本社）","lat":33.6522,"lon":135.384,"state":"active","id":null},{"event_id":"586916","title":"※満席・受付締め切り※～石積み学校～崩された石積み再生とイノシシを喰らう","url":"http://shishigaki-hinohara.peatix.com","shortener_url":null,"started_at":"2019-02-24T09:00:00.000+09:00","ended_at":"2019-02-27T08:59:59.000+09:00","limit_number":null,"address":"檜原村467−1","place":"檜原村役場","lat":0.0,"lon":0.0,"state":"active","id":null},{"event_id":"586795","title":"半田付け体験とテスター・オシロスコープ入門【02/11(月)開催】","url":"http://dmmmake190211hand.peatix.com","shortener_url":null,"started_at":"2019-02-11T10:00:00.000+09:00","ended_at":"2019-02-14T08:59:59.000+09:00","limit_number":null,"address":"東京都千代田区神田練塀町3 富士ソフト秋葉原ビル 10F DMM.make AKIBA Studio","place":"DMM.make AKIBA 10F Studio","lat":35.7008,"lon":139.774,"state":"active","id":null},{"event_id":"586792","title":"シナ合板でつくる多面体スピーカー【02/09(土)開催】","url":"http://dmmmake1902poly.peatix.com","shortener_url":null,"started_at":"2019-02-09T11:00:00.000+09:00","ended_at":"2019-02-12T08:59:59.000+09:00","limit_number":null,"address":"東京都千代田区神田練塀町3 富士ソフト秋葉原ビル 10F DMM.make AKIBA Studio","place":"DMM.make AKIBA 10F Studio","lat":35.7008,"lon":139.774,"state":"active","id":null},{"event_id":"586794","title":"レーザーカッターで作るUSBで灯せる行燈(あんどん)【02/10(日)開催】","url":"http://dmmmake1902andon.peatix.com","shortener_url":null,"started_at":"2019-02-10T15:00:00.000+09:00","ended_at":"2019-02-13T08:59:59.000+09:00","limit_number":null,"address":"東京都千代田区神田練塀町3 富士ソフト秋葉原ビル 10F DMM.make AKIBA Studio","place":"DMM.make AKIBA 10F Studio","lat":35.7008,"lon":139.774,"state":"active","id":null},{"event_id":"586791","title":"とことん３Dスキャン体験【02/03(日)開催】","url":"http://dmmmake1902scan.peatix.com","shortener_url":null,"started_at":"2019-02-03T14:00:00.000+09:00","ended_at":"2019-02-06T08:59:59.000+09:00","limit_number":null,"address":"東京都千代田区神田練塀町3 富士ソフト秋葉原ビル 10F DMM.make AKIBA Studio","place":"DMM.make AKIBA 10F Studio","lat":35.7008,"lon":139.774,"state":"active","id":null},{"event_id":"586796","title":"真空管ヘッドフォンアンプをつくろう！【02/11(月)開催】","url":"http://dmmmake1902sink.peatix.com","shortener_url":null,"started_at":"2019-02-11T13:00:00.000+09:00","ended_at":"2019-02-14T08:59:59.000+09:00","limit_number":null,"address":"東京都千代田区神田練塀町3 富士ソフト秋葉原ビル 10F DMM.make AKIBA Studio","place":"DMM.make AKIBA 10F Studio","lat":35.7008,"lon":139.774,"state":"active","id":null},{"event_id":"586968","title":"Makers College イチから始める3Dプリント講座","url":"http://dmmmake3dp-1901.peatix.com","shortener_url":null,"started_at":"2019-02-02T13:00:00.000+09:00","ended_at":"2019-02-05T08:59:59.000+09:00","limit_number":null,"address":"東京都千代田区神田練塀町3 富士ソフト秋葉原ビル 10F DMM.make AKIBA Studio","place":"DMM.make AKIBA 10F Studio","lat":35.7008,"lon":139.774,"state":"active","id":null},{"event_id":"113586","title":"Sports Analyst Meetup #1","url":"https://connpass.com/event/113586/","shortener_url":null,"started_at":"2019-02-24T23:30:00.000+09:00","ended_at":"2019-02-25T04:00:00.000+09:00","limit_number":80,"address":"東京都港区港南4丁目6−49","place":"報知新聞社","lat":35.627,"lon":139.751,"state":"active","id":null},{"event_id":"101380","title":"オープンセミナー2019@広島","url":"https://osh.connpass.com/event/101380/","shortener_url":null,"started_at":"2019-02-23T18:30:00.000+09:00","ended_at":"2019-02-24T03:00:00.000+09:00","limit_number":163,"address":"広島県広島市中区大手町１－５－３","place":"サテライトキャンパスひろしま 501,502講義室","lat":34.3946,"lon":132.455,"state":"active","id":null},{"event_id":"113717","title":"新潟IoTハッカソン","url":"https://uhuru.connpass.com/event/113717/","shortener_url":"https://goo.gl/MHLvS7","started_at":"2019-02-16T09:00:00.000+09:00","ended_at":"2019-02-17T17:30:00.000+09:00","limit_number":48,"address":"新潟市中央区万代島５－１　万代島ビル11階","place":"NICOプラザ会議室","lat":37.9252,"lon":139.059,"state":"active","id":null},{"event_id":"110708","title":"東京開催！Web×IoT メイカーズチャレンジ 2018-19 【ハンズオン講習 \u0026 ハッカソン】","url":"https://webiotmakers.connpass.com/event/110708/","shortener_url":"https://goo.gl/NGp9ks","started_at":"2019-02-09T10:00:00.000+09:00","ended_at":"2019-02-10T18:00:00.000+09:00","limit_number":45,"address":"東京都港区虎ノ門２丁目１０−１ (虎ノ門ツインビル西棟)","place":"KDDI DIGITAL GATE","lat":35.6676,"lon":139.745,"state":"active","id":null},{"event_id":"582262","title":"『ソムリエがおススメするほんとうに美味しいワインを飲みつくそう』＠長崎","url":"http://peatix.com/event/582262","shortener_url":null,"started_at":"2019-02-23T15:15:00.000+09:00","ended_at":"2019-02-26T08:59:59.000+09:00","limit_number":null,"address":"長崎県長崎市浪の平町91","place":"ベイサイド迎賓館 長崎","lat":32.7308,"lon":129.864,"state":"active","id":null},{"event_id":"585819","title":"『ソムリエがおススメするほんとうに美味しいワインを飲みつくそう！』＠博多","url":"http://peatix.com/event/585819","shortener_url":null,"started_at":"2019-02-24T13:00:00.000+09:00","ended_at":"2019-02-27T08:59:59.000+09:00","limit_number":null,"address":"福岡県福岡市博多区祇園町6-29","place":"アーフェリーク迎賓館 博多","lat":33.5914,"lon":130.412,"state":"active","id":null},{"event_id":"586801","title":"３時間で身につける！周りの目を気にせずに本当に望む毎日を手に入れる自信の作り方「ぬいぐるみ心理学1day講座」","url":"http://20191daikouza03.peatix.com","shortener_url":null,"started_at":"2019-02-03T11:00:00.000+09:00","ended_at":"2019-02-06T08:59:59.000+09:00","limit_number":null,"address":"東京都品川区","place":" 品川区の会議室（JR大崎駅が最寄りです。申込者に詳細をお伝えします）","lat":0.0,"lon":0.0,"state":"active","id":null},{"event_id":"588425","title":"離乳食インストラクター協会2級講座【オンライン】 2019年2月6日","url":"http://peatix.com/event/588425","shortener_url":null,"started_at":"2019-02-06T12:30:00.000+09:00","ended_at":"2019-02-09T08:59:59.000+09:00","limit_number":null,"address":"兵庫県西宮市","place":"離乳食インストラクター協会","lat":34.7376,"lon":135.342,"state":"active","id":null},{"event_id":"584507","title":"イケダハヤトと正田圭の3日間に渡る脱社畜力アップに特化した合宿","url":"http://tigala-salon.peatix.com","shortener_url":"https://goo.gl/r1NfPf","started_at":"2019-02-09T12:00:00.000+09:00","ended_at":"2019-02-12T08:59:59.000+09:00","limit_number":null,"address":"東京都港区南青山","place":"TIGALA株式会社","lat":0.0,"lon":0.0,"state":"active","id":null},{"event_id":"586354","title":"【高知×栃木】地方で活躍する若手3人に聞く！トークイベント＆合宿　in　那須烏山　～　僕らが地方で挑戦する理由　～","url":"http://peatix.com/event/586354","shortener_url":"https://goo.gl/cyy4Tk","started_at":"2019-02-02T14:00:00.000+09:00","ended_at":"2019-02-05T08:59:59.000+09:00","limit_number":null,"address":"那須烏山市大木須1285","place":"ほたるの里の古民家・おおぎす","lat":36.6407,"lon":140.223,"state":"active","id":null},{"event_id":"588937","title":"2/23(土)~24(日)festivo WordPressオリジナルテーマ制作（WPカスタマイズ） Camp@東京【学生15,000円、一般20,000円】～WEBサイトのWordPress化を学ぶ15時間！PHPプログラミングステップアップ集中合宿！！～","url":"http://peatix.com/event/588937","shortener_url":"https://goo.gl/Ry5yB7","started_at":"2019-02-23T10:00:00.000+09:00","ended_at":"2019-02-26T08:59:59.000+09:00","limit_number":null,"address":"東京都練馬区豊玉北3-15-17","place":"起業家シェアハウス x-garden セミナールーム","lat":35.7329,"lon":139.661,"state":"active","id":null},{"event_id":"586905","title":"【満員御礼】仕事で活かせる強みを引きだす「自分史の棚卸ワークショップ」 40代から考える人生二毛作＃6","url":"http://nimousaku6.peatix.com","shortener_url":null,"started_at":"2019-02-17T10:00:00.000+09:00","ended_at":"2019-02-20T08:59:59.000+09:00","limit_number":null,"address":"東京都港区麻布十番2-9-7","place":"麻布十番Charie'sBar（ディオーネ8ビル6F-B）","lat":35.6549,"lon":139.735,"state":"active","id":null},{"event_id":"583429","title":"【先着無料ご招待】米国、中国の最新事例からFinTechの最前線まで ～デジタル時代　新ビジネスの「ヒント」を探る！＜wisdom特別セミナー＞","url":"http://specialseminer0204wisdom.peatix.com","shortener_url":null,"started_at":"2019-02-04T13:30:00.000+09:00","ended_at":"2019-02-07T08:59:59.000+09:00","limit_number":null,"address":"品川区北品川5丁目5−15 大崎ブライトコア3階","place":"大崎ブライトコアホール","lat":35.622,"lon":139.731,"state":"active","id":null},{"event_id":"588073","title":"『レオニー』〜イサム・ノグチの母の生涯〜　映画観賞および松井久子監督トークの夕べ：夢を持つレオニーが未婚でイサムを生み、戦争や差別の中で生き抜く姿を描いた日米合作映画","url":"http://leonie-chabujo.peatix.com","shortener_url":null,"started_at":"2019-02-01T18:30:00.000+09:00","ended_at":"2019-02-04T08:59:59.000+09:00","limit_number":null,"address":"東京都小金井市本町6-14-45","place":"小金井　宮地楽器大ホール３F","lat":35.7002,"lon":139.507,"state":"active","id":null},{"event_id":"588231","title":"What's So Fascinating about Ceramics?","url":"http://seacs23feb.peatix.com","shortener_url":null,"started_at":"2019-02-23T11:00:00.000+09:00","ended_at":"2019-02-26T08:59:59.000+09:00","limit_number":null,"address":"55 Armenian Street","place":"SMU School of Law","lat":1.29487,"lon":103.849,"state":"active","id":null},{"event_id":"589576","title":"【満員御礼】第6回 さぶみっと！ヨクスル in 高松【2019年2月22日(金)開催】","url":"http://peatix.com/event/589576","shortener_url":null,"started_at":"2019-02-22T19:00:00.000+09:00","ended_at":"2019-02-25T08:59:59.000+09:00","limit_number":null,"address":"香川県 高松市牟礼町牟礼261-2","place":"NEW ALKE","lat":34.3391,"lon":134.137,"state":"active","id":null},{"event_id":"589683","title":"ジブン起業塾 1DAY基礎講座","url":"http://jibun-startup20190203.peatix.com","shortener_url":null,"started_at":"2019-02-03T10:00:00.000+09:00","ended_at":"2019-02-06T08:59:59.000+09:00","limit_number":null,"address":"東京都新宿区百人町2-27-6","place":"関東ITソフトウェア健保会館・会議室（大久保）","lat":35.7022,"lon":139.696,"state":"active","id":null},{"event_id":"589283","title":"DJ BORING JAPAN TOUR 2019 in Tokyo","url":"http://djboringtokyo.peatix.com","shortener_url":null,"started_at":"2019-02-08T23:00:00.000+09:00","ended_at":"2019-02-11T08:59:59.000+09:00","limit_number":null,"address":"渋谷区渋谷3丁目26−16 1F/B1F 第五叶ビル","place":"Circus Tokyo","lat":35.6542,"lon":139.706,"state":"active","id":null},{"event_id":"587258","title":"2月2日(土)19:00～★ 六本木 土曜日は新しい飲み友作りGaitomo国際交流パーティー","url":"http://peatix.com/event/587258","shortener_url":null,"started_at":"2019-02-02T19:00:00.000+09:00","ended_at":"2019-02-05T08:59:59.000+09:00","limit_number":null,"address":"東京都港区六本木3-10-5","place":"六本木 New Planet","lat":35.6632,"lon":139.733,"state":"active","id":null},{"event_id":"589600","title":"2月3日(日)18:00～六本木【独身限定】駅近セレブラウンジでGaitomo国際交流パーティー","url":"http://peatix.com/event/589600","shortener_url":null,"started_at":"2019-02-03T18:00:00.000+09:00","ended_at":"2019-02-06T08:59:59.000+09:00","limit_number":null,"address":"東京都港区六本木4-10-10","place":"六本木 balance(バランス) ","lat":35.6639,"lon":139.732,"state":"active","id":null},{"event_id":"587254","title":"2月1日(金)19:00～★ 恵比寿 新しい出会いの場立ち飲みバーでGaitomo国際交流パーティー","url":"http://peatix.com/event/587254","shortener_url":null,"started_at":"2019-02-01T19:00:00.000+09:00","ended_at":"2019-02-04T08:59:59.000+09:00","limit_number":null,"address":"東京都渋谷区恵比寿1-7-9","place":"恵比寿 私を恵比寿に連れてってEbisu330BAR ","lat":35.648,"lon":139.711,"state":"active","id":null},{"event_id":"588640","title":"Customer Success Cafe ～ハイタッチCS担当と学ぶ、顧客視点のカスタマーサクセス～","url":"http://peatix.com/event/588640","shortener_url":null,"started_at":"2019-02-05T19:00:00.000+09:00","ended_at":"2019-02-08T08:59:59.000+09:00","limit_number":null,"address":"渋谷区宇田川町20−17 8F NMF渋谷公園通りビル","place":"TECH PLAY SHIBUYA","lat":35.661,"lon":139.7,"state":"active","id":null},{"event_id":"588319","title":"Champagne Brunch | 24 February 2019","url":"http://swissclubchampagnebrunch24022019.peatix.com","shortener_url":null,"started_at":"2019-02-24T12:00:00.000+09:00","ended_at":"2019-02-27T08:59:59.000+09:00","limit_number":null,"address":"36 Swiss Club Road","place":"Arbenz Restaurant","lat":1.34365,"lon":103.791,"state":"active","id":null},{"event_id":"589379","title":"2/9(Sat) Travel Lovers Meetup in Shibuya","url":"http://peatix.com/event/589379","shortener_url":null,"started_at":"2019-02-09T15:00:00.000+09:00","ended_at":"2019-02-12T08:59:59.000+09:00","limit_number":null,"address":"渋谷区道玄坂1丁目3−11 一番ビル 3F","place":"Hobgoblin Shibuya British Pub","lat":35.6583,"lon":139.7,"state":"active","id":null},{"event_id":"581503","title":"2/14(Thu) French Night in Jiyugaoka","url":"http://peatix.com/event/581503","shortener_url":null,"started_at":"2019-02-14T19:00:00.000+09:00","ended_at":"2019-02-17T08:59:59.000+09:00","limit_number":null,"address":"東京都目黒区自由が丘1丁目8-18","place":"Clann","lat":35.6069,"lon":139.669,"state":"active","id":null},{"event_id":"589381","title":"2/9(Sat) Nihongo Night in Jiyugaoka","url":"http://peatix.com/event/589381","shortener_url":null,"started_at":"2019-02-09T19:00:00.000+09:00","ended_at":"2019-02-12T08:59:59.000+09:00","limit_number":null,"address":"目黒区自由が丘1丁目8−18 ノーブルビル 3F","place":"Irish pub Clann","lat":35.6069,"lon":139.669,"state":"active","id":null},{"event_id":"589781","title":"2/12(Tue) Roppongi Drink Meetup","url":"http://peatix.com/event/589781","shortener_url":null,"started_at":"2019-02-12T19:00:00.000+09:00","ended_at":"2019-02-15T08:59:59.000+09:00","limit_number":null,"address":"港区六本木3丁目16−33","place":"Hobgoblin Roppongi British Pub","lat":35.6619,"lon":139.736,"state":"active","id":null},{"event_id":"589793","title":"2/16(Sat) Nihongo Night in Nishi-Shinjuku","url":"http://peatix.com/event/589793","shortener_url":null,"started_at":"2019-02-16T15:00:00.000+09:00","ended_at":"2019-02-19T08:59:59.000+09:00","limit_number":null,"address":"東京都新宿区西新宿8-19-11","place":"KASHIWAGI CAFE  ","lat":35.6956,"lon":139.691,"state":"active","id":null},{"event_id":"589806","title":"2/17(Sun) Shinjuku Around 30s Night","url":"http://peatix.com/event/589806","shortener_url":null,"started_at":"2019-02-17T14:00:00.000+09:00","ended_at":"2019-02-20T08:59:59.000+09:00","limit_number":null,"address":"渋谷区道玄坂1丁目3−11 一番ビル 3F","place":"Hobgoblin Shibuya British Pub","lat":0.0,"lon":0.0,"state":"active","id":null},{"event_id":"589373","title":"2/7(Thu) Russian Night in Roppongi","url":"http://peatix.com/event/589373","shortener_url":null,"started_at":"2019-02-07T19:00:00.000+09:00","ended_at":"2019-02-10T08:59:59.000+09:00","limit_number":null,"address":"東京都港区 六本木3−16−33 青葉六本木ビル 1F","place":"Legends Sports Bar","lat":35.6621,"lon":139.736,"state":"active","id":null},{"event_id":"584295","title":"2/2 (Sat) 20s Social Meetup Shibuya","url":"http://peatix.com/event/584295","shortener_url":null,"started_at":"2019-02-02T15:00:00.000+09:00","ended_at":"2019-02-05T08:59:59.000+09:00","limit_number":null,"address":"渋谷区道玄坂1丁目3−11 一番ビル 3F","place":"Hobgoblin Shibuya British Pub","lat":35.6583,"lon":139.7,"state":"active","id":null},{"event_id":"589360","title":"2/1(Fri) Nihongo Night in Nishi-Shinjuku","url":"http://peatix.com/event/589360","shortener_url":null,"started_at":"2019-02-01T19:00:00.000+09:00","ended_at":"2019-02-04T08:59:59.000+09:00","limit_number":null,"address":"東京都新宿区西新宿8-19-11","place":"KASHIWAGI CAFE  ","lat":35.6956,"lon":139.691,"state":"active","id":null},{"event_id":"589810","title":"2/17(Sun) Drink Meetup in Meguro","url":"http://peatix.com/event/589810","shortener_url":null,"started_at":"2019-02-17T18:00:00.000+09:00","ended_at":"2019-02-20T08:59:59.000+09:00","limit_number":null,"address":"目黒区下目黒1-3-28","place":"The Meguro Tavern","lat":35.6343,"lon":139.713,"state":"active","id":null},{"event_id":"589969","title":"初心者向け大喜利体験スポット『ひなどり』2/28(木)テーマ「想像力を見える化する」【毎月 第２・第４木曜】","url":"http://peatix.com/event/589969","shortener_url":null,"started_at":"2019-02-28T19:30:00.000+09:00","ended_at":"2019-03-03T08:59:59.000+09:00","limit_number":null,"address":"東京都新宿区西新宿7-1-7","place":"『ひなどり』新宿ダイカン教室(新宿ダイカンビルＡ館 1109号室)","lat":35.6945,"lon":139.699,"state":"active","id":null},{"event_id":"589968","title":"初心者向け大喜利体験スポット『ひなどり』2/14(木)テーマ「期待を裏切る練習」【毎月 第２・第４木曜】","url":"http://peatix.com/event/589968","shortener_url":null,"started_at":"2019-02-14T19:30:00.000+09:00","ended_at":"2019-02-17T08:59:59.000+09:00","limit_number":null,"address":"東京都新宿区西新宿7-1-7","place":"『ひなどり』新宿ダイカン教室(新宿ダイカンビルＡ館 1109号室)","lat":35.6945,"lon":139.699,"state":"active","id":null},{"event_id":"589370","title":"2/6(Wed) German Night in Roppongi","url":"http://peatix.com/event/589370","shortener_url":null,"started_at":"2019-02-06T19:00:00.000+09:00","ended_at":"2019-02-09T08:59:59.000+09:00","limit_number":null,"address":"東京都港区六本木3−16−33","place":"Hobgoblin Roppongi","lat":35.6623,"lon":139.737,"state":"active","id":null},{"event_id":"589792","title":"2/15(Fri)Spanish Meetup in Nishi-Shinjuku","url":"http://peatix.com/event/589792","shortener_url":null,"started_at":"2019-02-15T19:00:00.000+09:00","ended_at":"2019-02-18T08:59:59.000+09:00","limit_number":null,"address":"東京都新宿区西新宿8-19-11","place":"KASHIWAGI CAFE ","lat":35.6956,"lon":139.691,"state":"active","id":null},{"event_id":"590272","title":"New Crack! A Work-in-Progress Show for the Big Guns of Comedy!","url":"http://newcrack12feb.peatix.com","shortener_url":null,"started_at":"2019-02-12T22:00:00.000+09:00","ended_at":"2019-02-15T08:59:59.000+09:00","limit_number":null,"address":"24, Lorong Rahim Kajai 14, Taman Tun Dr Ismail, Kuala Lumpur","place":"Crackhouse Comedy Club","lat":3.15478,"lon":101.623,"state":"active","id":null},{"event_id":"590230","title":"New Crack! A Work-in-Progress Show for the Big Guns of Comedy!","url":"http://newcrack5feb.peatix.com","shortener_url":null,"started_at":"2019-02-05T22:00:00.000+09:00","ended_at":"2019-02-08T08:59:59.000+09:00","limit_number":null,"address":"24, Lorong Rahim Kajai 14, Taman Tun Dr Ismail, Kuala Lumpur","place":"Crackhouse Comedy Club","lat":3.15478,"lon":101.623,"state":"active","id":null},{"event_id":"590267","title":"Crackhouse Presents: I Laugh KL - Love You Owl-Ways","url":"http://ilaughkl11feb.peatix.com","shortener_url":null,"started_at":"2019-02-11T22:00:00.000+09:00","ended_at":"2019-02-14T08:59:59.000+09:00","limit_number":null,"address":"24, Lorong Rahim Kajai 14, Taman Tun Dr Ismail, Kuala Lumpur","place":"Crackhouse Comedy Club","lat":3.15478,"lon":101.623,"state":"active","id":null},{"event_id":"590236","title":"Comedy 'Rojak!' | Malay \u0026 English Stand-up Comedy","url":"http://rojak7feb.peatix.com","shortener_url":null,"started_at":"2019-02-07T22:00:00.000+09:00","ended_at":"2019-02-10T08:59:59.000+09:00","limit_number":null,"address":"24A Lorong Rahim Kajai 14, Taman Tun Dr. Ismail, 60000 Kuala Lumpur","place":"Crackhouse Comedy Club Kuala Lumpur","lat":3.15474,"lon":101.623,"state":"active","id":null},{"event_id":"590320","title":"Crackhouse Comedy Presents : Dave Thompson (UK)","url":"http://davecrackingthompson.peatix.com","shortener_url":null,"started_at":"2019-02-15T22:00:00.000+09:00","ended_at":"2019-02-18T08:59:59.000+09:00","limit_number":null,"address":"24A (1st Floor) Lorong Rahim Kajai 14, Taman Tun Dr. Ismail, 60000 Kuala Lumpur","place":"The Crackhouse Comedy Club KL","lat":3.15478,"lon":101.623,"state":"active","id":null},{"event_id":"590323","title":"Crackhouse Comedy Presents : Ro Campbell (AUS)","url":"http://campbellscreamofcrack.peatix.com","shortener_url":null,"started_at":"2019-02-08T22:00:00.000+09:00","ended_at":"2019-02-11T08:59:59.000+09:00","limit_number":null,"address":"24A (1st Floor) Lorong Rahim Kajai 14, Taman Tun Dr. Ismail, 60000 Kuala Lumpur","place":"The Crackhouse Comedy Club KL","lat":3.15478,"lon":101.623,"state":"active","id":null},{"event_id":"589808","title":"[Sold Out Online - Limited Walk-in Only] Crackhouse Comedy Presents : Shazia Mirza (UK)","url":"http://crackitshaziamirza.peatix.com","shortener_url":null,"started_at":"2019-02-01T22:00:00.000+09:00","ended_at":"2019-02-04T08:59:59.000+09:00","limit_number":null,"address":"24A (1st Floor) Lorong Rahim Kajai 14, Taman Tun Dr. Ismail, 60000 Kuala Lumpur","place":"The Crackhouse Comedy Club KL","lat":3.15478,"lon":101.623,"state":"active","id":null},{"event_id":"589860","title":"Antaa アカデミア 第1期 #04 「開業後マーケティング」","url":"http://peatix.com/event/589860","shortener_url":null,"started_at":"2019-02-02T19:00:00.000+09:00","ended_at":"2019-02-05T08:59:59.000+09:00","limit_number":null,"address":"千代田区神田駿河台4丁目","place":"デジタルハリウッド大学大学院","lat":0.0,"lon":0.0,"state":"active","id":null},{"event_id":"590110","title":"関西【2/20(水)朝10:00】自分史上最高にSEXYな1枚を撮る「秘めフォト部」！新しく「SEXY」な自分を見つけて明日に自信を持つための女性限定フォトサービス！《10名様限定／初めての方大歓迎》","url":"http://peatix.com/event/590110","shortener_url":null,"started_at":"2019-02-20T10:00:00.000+09:00","ended_at":"2019-02-23T08:59:59.000+09:00","limit_number":null,"address":"京都府京都市東山区博多町112−5","place":"京都天狼院","lat":35.0017,"lon":135.773,"state":"active","id":null},{"event_id":"590090","title":"関西【2/15(金)夜7:30】自分史上最高にSEXYな1枚を撮る「秘めフォト部」！新しく「SEXY」な自分を見つけて明日に自信を持つための女性限定フォトサービス！《10名様限定／初めての方大歓迎》","url":"http://peatix.com/event/590090","shortener_url":null,"started_at":"2019-02-15T19:30:00.000+09:00","ended_at":"2019-02-18T08:59:59.000+09:00","limit_number":null,"address":"京都府京都市東山区博多町112−5","place":"京都天狼院","lat":35.0017,"lon":135.773,"state":"active","id":null},{"event_id":"590276","title":"Crackhouse Comedy Open-Mic Night | Open-Crack!","url":"http://opencrack13feb.peatix.com","shortener_url":null,"started_at":"2019-02-13T22:00:00.000+09:00","ended_at":"2019-02-16T08:59:59.000+09:00","limit_number":null,"address":"24A, 1st Floor, Lorong Rahim Kajai 14, Taman Tun Dr. Ismail, 60000 Kuala Lumpur","place":"The Crackhouse Comedy Club KL","lat":3.15493,"lon":101.623,"state":"active","id":null},{"event_id":"590231","title":"Crackhouse Comedy Open-Mic Night | Open-Crack!","url":"http://opencrack6feb.peatix.com","shortener_url":null,"started_at":"2019-02-06T22:00:00.000+09:00","ended_at":"2019-02-09T08:59:59.000+09:00","limit_number":null,"address":"24A, 1st Floor, Lorong Rahim Kajai 14, Taman Tun Dr. Ismail, 60000 Kuala Lumpur","place":"The Crackhouse Comedy Club KL","lat":3.15493,"lon":101.623,"state":"active","id":null},{"event_id":"85460","title":"はじめてのIoTデータ活用　親子プログラミングワークショップ kintone x sakura.io x IchigoJam","url":"https://sakura-kanto.doorkeeper.jp/events/85460","shortener_url":null,"started_at":"2019-02-03T13:00:00.000+09:00","ended_at":"2019-02-03T16:00:00.000+09:00","limit_number":20,"address":"東京都新宿区西新宿4-33-4 住友不動産西新宿ビル4号館 6F","place":"さくらインターネット 西新宿セミナールーム","lat":35.6867,"lon":139.689,"state":"active","id":null},{"event_id":"85540","title":"【2/9（土）午後】初心者向けシリーズ①『PythonとJupyterNotebookの基礎』","url":"https://soleildatadojo.doorkeeper.jp/events/85540","shortener_url":null,"started_at":"2019-02-09T13:00:00.000+09:00","ended_at":"2019-02-09T17:10:00.000+09:00","limit_number":12,"address":"大阪府大阪市北区西天満二丁目5番3号(堂島深川ビル3階)","place":"SCRIBBLE OSAKA LAB（SOL）（大阪メトロ御堂筋線「淀屋橋」駅から徒歩４分）","lat":34.6951,"lon":135.502,"state":"active","id":null},{"event_id":"589252","title":"アイデアソン・ミエミライ第3回『「ダイバーシティと〝しあわせ〟」～多様な社会づくりのために～』","url":"http://miemirai20190205c.peatix.com","shortener_url":"https://goo.gl/VhkL8J","started_at":"2019-02-05T18:30:00.000+09:00","ended_at":"2019-02-08T08:59:59.000+09:00","limit_number":null,"address":"三重県津市羽所町700番地アスト津3階","place":"みえ市民活動ボランティアセンター","lat":34.7348,"lon":136.511,"state":"active","id":null},{"event_id":"589247","title":"アイデアソン・ミエミライ第2回『「出逢いたい・産みたい・育てたい 三重」～みんなでつくる〝子育て家庭に優しい地域〟とは？～』","url":"http://miemirai20190205-b.peatix.com","shortener_url":"https://goo.gl/kgkzyU","started_at":"2019-02-05T13:30:00.000+09:00","ended_at":"2019-02-08T08:59:59.000+09:00","limit_number":null,"address":"三重県津市羽所町700番地アスト津3階","place":"みえ市民活動ボランティアセンター","lat":34.7348,"lon":136.511,"state":"active","id":null},{"event_id":"583699","title":"[参加費500円/20名限定]マイクロソフト社メソッドで学ぶ！デザイン思考を活用したデジタルトランスフォーメーションの『アイディエーションワークショップ』講座 presented by #マムズラボカレッジ","url":"http://momslabcollege008.peatix.com","shortener_url":null,"started_at":"2019-02-08T13:00:00.000+09:00","ended_at":"2019-02-11T08:59:59.000+09:00","limit_number":null,"address":"東京都港区港南 2-16-3品川グランドセントラルタワー30F","place":"日本マイクロソフト株式会社 品川オフィス","lat":35.6267,"lon":139.74,"state":"active","id":null},{"event_id":"583766","title":"ボディマインドデトックスリトリートin湯河原温泉 #1","url":"http://peatix.com/event/583766","shortener_url":null,"started_at":"2019-02-02T12:00:00.000+09:00","ended_at":"2019-02-05T08:59:59.000+09:00","limit_number":null,"address":"湯河原","place":"湯河原温泉","lat":0.0,"lon":0.0,"state":"active","id":null},{"event_id":"85990","title":"【2/1（金）・8（金）】初心者向け・２回で学ぶシリーズ①『PythonとJupyterNotebookの基礎』","url":"https://soleildatadojo.doorkeeper.jp/events/85990","shortener_url":null,"started_at":"2019-02-01T19:30:00.000+09:00","ended_at":"2019-02-08T21:30:00.000+09:00","limit_number":6,"address":"大阪府大阪市北区西天満二丁目5番3号(堂島深川ビル3階)","place":"SCRIBBLE OSAKA LAB（SOL）（大阪メトロ御堂筋線「淀屋橋」駅から徒歩４分）","lat":34.6951,"lon":135.502,"state":"active","id":null},{"event_id":"85991","title":"【2/15（金）・2/22（金）】初心者向け・２回で学ぶシリーズ②『Pandasによるデータ前処理と可視化の基礎』","url":"https://soleildatadojo.doorkeeper.jp/events/85991","shortener_url":null,"started_at":"2019-02-15T19:30:00.000+09:00","ended_at":"2019-02-22T21:30:00.000+09:00","limit_number":6,"address":"大阪府大阪市北区西天満二丁目5番3号(堂島深川ビル3階)","place":"SCRIBBLE OSAKA LAB（SOL）（大阪メトロ御堂筋線「淀屋橋」駅から徒歩４分）","lat":34.6951,"lon":135.502,"state":"active","id":null},{"event_id":"85992","title":"【2/6（水）】Pythonで学ぶ機械学習入門①～マーケットバスケット分析","url":"https://soleildatadojo.doorkeeper.jp/events/85992","shortener_url":null,"started_at":"2019-02-06T19:00:00.000+09:00","ended_at":"2019-02-06T21:30:00.000+09:00","limit_number":10,"address":"大阪府大阪市北区西天満二丁目5番3号(堂島深川ビル3階)","place":"SCRIBBLE OSAKA LAB（SOL）（大阪メトロ御堂筋線「淀屋橋」駅から徒歩４分）","lat":34.6951,"lon":135.502,"state":"active","id":null},{"event_id":"86031","title":"【2/16（土）大阪開催】『超簡単！大人も子供もみんなで楽しむmicro:bit入門』〜vol2. みんなで作って発表会","url":"https://soleildatadojo.doorkeeper.jp/events/86031","shortener_url":null,"started_at":"2019-02-16T13:30:00.000+09:00","ended_at":"2019-02-16T16:00:00.000+09:00","limit_number":8,"address":"大阪府大阪市北区西天満二丁目5番3号(堂島深川ビル3階)","place":"Scribble Osaka Lab（SOL）（大阪メトロ御堂筋線「淀屋橋」駅より徒歩４分）","lat":34.6951,"lon":135.502,"state":"active","id":null},{"event_id":"85993","title":"【2/20（水）】Pythonで学ぶ機械学習入門②～協調フィルタリング","url":"https://soleildatadojo.doorkeeper.jp/events/85993","shortener_url":null,"started_at":"2019-02-20T19:00:00.000+09:00","ended_at":"2019-02-20T21:30:00.000+09:00","limit_number":8,"address":"大阪府大阪市北区西天満二丁目5番3号(堂島深川ビル3階)","place":"SCRIBBLE OSAKA LAB（SOL）（大阪メトロ御堂筋線「淀屋橋」駅から徒歩４分）","lat":34.6951,"lon":135.502,"state":"active","id":null},{"event_id":"86100","title":"【全3回】ディープラーニング実践ワークショップ〜音声認識編【2-3月】","url":"https://soleildatadojo.doorkeeper.jp/events/86100","shortener_url":null,"started_at":"2019-02-12T19:30:00.000+09:00","ended_at":"2019-03-12T21:30:00.000+09:00","limit_number":8,"address":"大阪府大阪市北区西天満二丁目5番3号(堂島深川ビル3階)","place":"SCRIBBLE OSAKA LAB（SOL）（大阪メトロ御堂筋線「淀屋橋」駅から徒歩４分）","lat":34.6951,"lon":135.502,"state":"active","id":null},{"event_id":"592076","title":"スウェーデン王室御用達　女王の愛した「クイーンジャム」と北欧のスーパーフード「リンゴンベリー」で美味しい生チョコを作りましょう！","url":"http://jenelyno17.peatix.com","shortener_url":null,"started_at":"2019-02-07T10:30:00.000+09:00","ended_at":"2019-02-10T08:59:59.000+09:00","limit_number":null,"address":"東京都港区北青山3-3-11 ルネ青山ビル","place":"ボルボスタジオ青山 VOLVO STUDIO AOYAMA","lat":35.668,"lon":139.715,"state":"active","id":null},{"event_id":"85879","title":"【東京農業大学・未来技術推進協会 共催】AgriTech Hackathon ~日本を支える稲作の課題をAI/IoTで解決しよう！","url":"https://future-tech-association.doorkeeper.jp/events/85879","shortener_url":"https://goo.gl/rxpka1","started_at":"2019-02-09T10:00:00.000+09:00","ended_at":"2019-02-10T18:45:00.000+09:00","limit_number":16,"address":"〒156-8502 東京都世田谷区桜丘1-1-1","place":"東京農業大学　世田谷キャンパス　２号館３階 共通利用室","lat":35.6407,"lon":139.632,"state":"active","id":null},{"event_id":"593005","title":"【東海テレビ放送×Code for】視聴データを「コマッタ！」に活かすアイデアソン！","url":"http://tokaitvxc4.peatix.com","shortener_url":"https://goo.gl/ij5qkP","started_at":"2019-02-04T19:00:00.000+09:00","ended_at":"2019-02-07T08:59:59.000+09:00","limit_number":null,"address":"東区東桜1丁目14−27","place":"東海テレビ放送","lat":35.1712,"lon":136.914,"state":"active","id":null},{"event_id":"84572","title":"「知って！学べる！SARデータ分析チャレンジ！」説明会","url":"https://hackcamp.doorkeeper.jp/events/84572","shortener_url":null,"started_at":"2019-02-12T12:30:00.000+09:00","ended_at":"2019-02-12T16:00:00.000+09:00","limit_number":75,"address":"〒100-0004 東京都千代田区大手町 1-8-1 KDDI大手町ビル 16階東","place":"NICTイノベーションセンターTCR (KDDI大手町ビル 16階東)","lat":35.6877,"lon":139.765,"state":"active","id":null},{"event_id":"86129","title":"『Python, Machine Learning \u0026 Raspberry PI』自主勉強会#13","url":"https://soleildatadojo.doorkeeper.jp/events/86129","shortener_url":null,"started_at":"2019-02-07T19:30:00.000+09:00","ended_at":"2019-02-07T21:40:00.000+09:00","limit_number":8,"address":"大阪府大阪市北区西天満二丁目5番3号(堂島深川ビル3階)","place":"SCRIBBLE OSAKA LAB（SOL）（大阪メトロ御堂筋線「淀屋橋」駅から徒歩４分）","lat":34.6951,"lon":135.502,"state":"active","id":null},{"event_id":"86130","title":"『Python, Machine Learning \u0026 Raspberry PI』自主勉強会#14","url":"https://soleildatadojo.doorkeeper.jp/events/86130","shortener_url":null,"started_at":"2019-02-21T19:30:00.000+09:00","ended_at":"2019-02-21T21:40:00.000+09:00","limit_number":8,"address":"大阪府大阪市北区西天満二丁目5番3号(堂島深川ビル3階)","place":"SCRIBBLE OSAKA LAB（SOL）（大阪メトロ御堂筋線「淀屋橋」駅から徒歩４分）","lat":34.6951,"lon":135.502,"state":"active","id":null},{"event_id":"593338","title":"LINE Things ハンズオン","url":"http://onejpnhackxtokai-linethings.peatix.com","shortener_url":null,"started_at":"2019-02-08T19:00:00.000+09:00","ended_at":"2019-02-11T08:59:59.000+09:00","limit_number":null,"address":"愛知県名古屋市中村区名駅1-1-3 JRゲートタワー27F","place":"グロービス経営大学院名古屋校　G4ルーム","lat":0.0,"lon":0.0,"state":"active","id":null},{"event_id":"589643","title":"※登録終了【参加無料】〜副業みんな、どうしてる？〜副業JAM 2019","url":"http://peatix.com/event/589643","shortener_url":null,"started_at":"2019-02-09T13:00:00.000+09:00","ended_at":"2019-02-12T08:59:59.000+09:00","limit_number":null,"address":"品川区北品川5丁目5−15 大崎ブライトコア3階","place":"大崎ブライトコアホール","lat":35.622,"lon":139.731,"state":"active","id":null},{"event_id":"86098","title":"おやこちゃれんじ powered by Robotex Japan","url":"https://swtokyo.doorkeeper.jp/events/86098","shortener_url":null,"started_at":"2019-02-09T13:15:00.000+09:00","ended_at":"2019-02-09T16:00:00.000+09:00","limit_number":15,"address":"108-0075 東京都港区港南2丁目16−3 品川グランドセントラルタワー","place":"日本マイクロソフト　品川オフィス","lat":35.6267,"lon":139.74,"state":"active","id":null},{"event_id":"593021","title":"ゲーミファイ・ネットワーク 第4回勉強会","url":"http://peatix.com/event/593021","shortener_url":null,"started_at":"2019-02-18T19:30:00.000+09:00","ended_at":"2019-02-21T08:59:59.000+09:00","limit_number":null,"address":"東京都千代田区神田佐久間町3-21-5","place":"ヒューマンアカデミー秋葉原校","lat":35.6981,"lon":139.778,"state":"active","id":null},{"event_id":"592773","title":"デジタル時代の新しいモノづくりと新規事業創造","url":"http://aichi2018event20190208.peatix.com","shortener_url":null,"started_at":"2019-02-08T19:00:00.000+09:00","ended_at":"2019-02-11T08:59:59.000+09:00","limit_number":null,"address":"名古屋市東区東桜 1 丁目 13-3(NHK名古屋放送センタービル20階)","place":"HATCH（中電シーティーアイ）","lat":35.1716,"lon":136.911,"state":"active","id":null},{"event_id":"86210","title":"2/23(土)~24(日)festivo WordPressオリジナルテーマ制作（WPカスタマイズ） Camp@東京【学生15,000円、一般20,000円】～WEBサイトのWordPress化を学ぶ15時間！PHPプログラミングステップアップ集中合宿！！～","url":"https://festivo.doorkeeper.jp/events/86210","shortener_url":"https://goo.gl/JxwMQ3","started_at":"2019-02-23T10:00:00.000+09:00","ended_at":"2019-02-24T19:00:00.000+09:00","limit_number":10,"address":"東京都練馬区豊玉北3-15-17","place":"起業家シェアハウス x-garden セミナールーム","lat":35.7329,"lon":139.661,"state":"active","id":null},{"event_id":"592868","title":"アフィリエイト合宿","url":"http://2019021617.peatix.com","shortener_url":null,"started_at":"2019-02-16T13:30:00.000+09:00","ended_at":"2019-02-19T08:59:59.000+09:00","limit_number":null,"address":"富津市金谷2221−3","place":"インキュベーションキャンプ voido","lat":35.1668,"lon":139.823,"state":"active","id":null},{"event_id":"594123","title":"ハッタツソン当事者talk２【8名限定】","url":"http://toujisyatalk03.peatix.com","shortener_url":"https://goo.gl/DgjJzh","started_at":"2019-02-17T17:30:00.000+09:00","ended_at":"2019-02-20T08:59:59.000+09:00","limit_number":null,"address":"大阪市城東区蒲生1-3","place":"京橋URA【住所非公開】","lat":0.0,"lon":0.0,"state":"active","id":null},{"event_id":"594203","title":"ハッタツソン当事者talk２人の当事者が登壇＠本町","url":"http://peatix.com/event/594203","shortener_url":"https://goo.gl/2oVWRx","started_at":"2019-02-23T14:30:00.000+09:00","ended_at":"2019-02-26T08:59:59.000+09:00","limit_number":null,"address":"大阪府大阪市中央区安土町3-2-3","place":"TSUBAKI 本町 多目的スペース ","lat":34.6845,"lon":135.508,"state":"active","id":null},{"event_id":"594143","title":"ハッタツソン当事者talk２人の当事者が登壇＠本町","url":"http://toujisyatalk04.peatix.com","shortener_url":"https://goo.gl/bY6Sar","started_at":"2019-02-27T14:30:00.000+09:00","ended_at":"2019-03-02T08:59:59.000+09:00","limit_number":null,"address":"大阪府大阪市中央区安土町3-2-3","place":"TSUBAKI 本町 多目的スペース ","lat":34.6845,"lon":135.508,"state":"active","id":null},{"event_id":"593905","title":"NAGOYA BOOST DAY","url":"http://nagoyaboostday.peatix.com","shortener_url":"https://goo.gl/XFKxeg","started_at":"2019-02-15T13:00:00.000+09:00","ended_at":"2019-02-18T08:59:59.000+09:00","limit_number":null,"address":"名古屋市東区矢田南 4-102-9 名城大学ナゴヤドーム前キャンパス","place":"名城大学ナゴヤドーム前キャンパス　北館３階ＤＮ３０１","lat":0.0,"lon":0.0,"state":"active","id":null},{"event_id":"594892","title":"IchigoJamプログラミング講座＜子ども向け・大人向け＞2月2日","url":"http://peatix.com/event/594892","shortener_url":null,"started_at":"2019-02-02T15:00:00.000+09:00","ended_at":"2019-02-05T08:59:59.000+09:00","limit_number":null,"address":"〒916-0025, 旭町1丁目6-6, 鯖江市","place":"Hana道場 - Hana Open Innovation Dojo -","lat":35.9446,"lon":136.186,"state":"active","id":null},{"event_id":"594851","title":"IchigoJamプログラミング講座＜子ども向け・大人向け＞2月16日","url":"http://peatix.com/event/594851","shortener_url":null,"started_at":"2019-02-16T14:00:00.000+09:00","ended_at":"2019-02-19T08:59:59.000+09:00","limit_number":null,"address":"〒916-0025, 旭町1丁目6-6, 鯖江市","place":"Hana道場 - Hana Open Innovation Dojo -","lat":35.9446,"lon":136.186,"state":"active","id":null},{"event_id":"593401","title":"ワークスイッチナイト #02 「ウェルネス」を考える。持続可能な働き方ってなんだろう？","url":"http://workswitchnight2.peatix.com","shortener_url":null,"started_at":"2019-02-06T19:30:00.000+09:00","ended_at":"2019-02-09T08:59:59.000+09:00","limit_number":null,"address":"渋谷区道玄坂2丁目10−7 2F 新大宗ビル1号館","place":"BOOK LAB TOKYO - 書店とコーヒースタンド 渋谷店","lat":35.6583,"lon":139.697,"state":"active","id":null},{"event_id":"591714","title":"◆NAOMI＆MISATO【mogmogはうす】＊甘くないサンドイッチケーキ作り◆ サンドイッチが大好きなCOOKが集結！ 楽しいとおいしいはみんなで作る‼️ 朝から晩までいろんなPop-Upが連続で、まるごと1日みんなで楽しめるPop-Upデイ✨@上野キッチハイクキッチン","url":"http://peatix.com/event/591714","shortener_url":null,"started_at":"2019-02-02T19:30:00.000+09:00","ended_at":"2019-02-05T08:59:59.000+09:00","limit_number":null,"address":"JR/東京メトロ 上野駅 ※ 正確な住所は予約が承認されるとお知らせがとどきます","place":"NAOMIさんの食卓","lat":0.0,"lon":0.0,"state":"active","id":null},{"event_id":"593307","title":"【東京農業大学・未来技術推進協会 共催】AgriTech Hackathon ~日本を支える稲作の課題をAI/IoTで解決しよう！","url":"http://peatix.com/event/593307","shortener_url":"https://goo.gl/2rkoLC","started_at":"2019-02-09T10:00:00.000+09:00","ended_at":"2019-02-12T08:59:59.000+09:00","limit_number":null,"address":"東京都世田谷区桜丘1-1-1","place":"東京農業大学　世田谷キャンパス　２号館３階 共通利用室","lat":35.6411,"lon":139.631,"state":"active","id":null},{"event_id":"594667","title":"【#大阪万博XR】HoloLensハッカソン2019","url":"http://osakaexpoxr.peatix.com","shortener_url":"https://goo.gl/L5q7E9","started_at":"2019-02-09T09:30:00.000+09:00","ended_at":"2019-02-12T08:59:59.000+09:00","limit_number":null,"address":"大阪市北区茶屋町17-1","place":"株式会社毎日放送(MBS)","lat":34.7086,"lon":135.5,"state":"active","id":null},{"event_id":"595018","title":"Issue Design Lab 2018 #３　〜高知からピチピチの地域資源をお届け！さあ、あなたならどう使う？〜","url":"http://idl003.peatix.com","shortener_url":null,"started_at":"2019-02-11T13:00:00.000+09:00","ended_at":"2019-02-14T08:59:59.000+09:00","limit_number":null,"address":"千代田区神田錦町3丁目15番地","place":"錦町ブンカイサン","lat":35.6918,"lon":139.762,"state":"active","id":null},{"event_id":"595171","title":"gohack - Terminal","url":"http://gohack-terminal-20190203.peatix.com","shortener_url":null,"started_at":"2019-02-03T18:00:00.000+09:00","ended_at":"2019-02-06T08:59:59.000+09:00","limit_number":null,"address":"大阪市中央区南本町2丁目1番地1 本町サザンビル1F","place":"The DECK","lat":34.683,"lon":135.506,"state":"active","id":null},{"event_id":"590968","title":"進展か後退か。エンタープライズ領域における世界のブロックチェーン技術動向 | Blockchain EXE #16","url":"http://blockchainexe16.peatix.com","shortener_url":null,"started_at":"2019-02-13T19:00:00.000+09:00","ended_at":"2019-02-16T08:59:59.000+09:00","limit_number":null,"address":"中央区銀座1丁目8-19","place":"キラリトギンザ11F | BINARYSTAR株式会社","lat":35.6743,"lon":139.769,"state":"active","id":null},{"event_id":"594532","title":"NICT SpaceHack 2019","url":"http://spacehack2019.peatix.com","shortener_url":"https://goo.gl/utkhWP","started_at":"2019-02-23T09:30:00.000+09:00","ended_at":"2019-02-26T08:59:59.000+09:00","limit_number":null,"address":"千代田区大手町1丁目8","place":"NICTイノベーションセンター","lat":35.6877,"lon":139.765,"state":"active","id":null},{"event_id":"103678","title":"【需要急増中！】AI導入に必要な分析基盤構築・インフラ基礎講座","url":"https://atnd.org/events/103678","shortener_url":null,"started_at":"2019-02-14T19:30:00.000+09:00","ended_at":"2019-04-11T21:30:00.000+09:00","limit_number":20,"address":"東京都港区東新橋2-12-1","place":"PMO東新橋","lat":35.6605,"lon":139.756,"state":"closed","id":null},{"event_id":"596410","title":"ハッタツソン当事者talk＠カフェまほろば","url":"http://peatix.com/event/596410","shortener_url":"https://goo.gl/e5gVzP","started_at":"2019-02-23T14:30:00.000+09:00","ended_at":"2019-02-26T08:59:59.000+09:00","limit_number":null,"address":"大阪市都島区東野田町5丁目5−1","place":"カフェ まほろば","lat":34.6995,"lon":135.535,"state":"active","id":null},{"event_id":"86640","title":"【2/23（土）午後】初心者向けシリーズ①『PythonとJupyterNotebookの基礎』","url":"https://soleildatadojo.doorkeeper.jp/events/86640","shortener_url":null,"started_at":"2019-02-23T13:00:00.000+09:00","ended_at":"2019-02-23T17:10:00.000+09:00","limit_number":12,"address":"大阪府大阪市北区西天満二丁目5番3号(堂島深川ビル3階)","place":"SCRIBBLE OSAKA LAB（SOL）（大阪メトロ御堂筋線「淀屋橋」駅から徒歩４分）","lat":34.6951,"lon":135.502,"state":"active","id":null},{"event_id":"86660","title":"【著者公認】立ち読み会@大阪【技術/専門書】","url":"https://15a44f817fee6c5953f1fc0664.doorkeeper.jp/events/86660","shortener_url":null,"started_at":"2019-02-16T15:00:00.000+09:00","ended_at":"2019-02-16T17:00:00.000+09:00","limit_number":20,"address":"大阪市北区大深町4番20号 グランフロント大阪タワーA 35階","place":"さくらインターネット本社","lat":34.7054,"lon":135.495,"state":"active","id":null},{"event_id":"86441","title":"宇宙データアイディアソン[StartupWeekend Space Tokyo Vol.2 プレイベント]","url":"https://swtokyo.doorkeeper.jp/events/86441","shortener_url":"https://goo.gl/EwphNJ","started_at":"2019-02-16T13:00:00.000+09:00","ended_at":"2019-02-16T16:00:00.000+09:00","limit_number":40,"address":"東京都中央区日本橋室町1丁目5-3 福島ビル7階 地図を表示","place":"宇宙ビジネス拠点 X-NIHONBASHI","lat":35.6858,"lon":139.774,"state":"active","id":null},{"event_id":"103785","title":"ゆるりとワードプレス勉強会＠つくば【累計9回目！】","url":"https://atnd.org/events/103785","shortener_url":null,"started_at":"2019-02-23T14:30:00.000+09:00","ended_at":"2019-02-23T18:00:00.000+09:00","limit_number":20,"address":"〒305-0005 茨城県つくば市 天久保3丁目21−3 2階","place":"Tsukuba Place Lab","lat":36.1055,"lon":140.109,"state":"closed","id":null},{"event_id":"596913","title":"Wonder Planet HACKATHON 『遊びtech』　−「遊ぶ」をアップデートしよう。−","url":"http://peatix.com/event/596913","shortener_url":"https://goo.gl/S3NeY9","started_at":"2019-02-14T10:00:00.000+09:00","ended_at":"2019-02-17T08:59:59.000+09:00","limit_number":null,"address":"名古屋市 中区錦3丁目23−31","place":"ワンダープラネット株式会社　名古屋本社","lat":35.169,"lon":136.905,"state":"active","id":null},{"event_id":"597519","title":"映画「マトリックス」のような映像をスマホで！360°動画を手軽に撮影・配信できる技術を活用したサービスを考えるアイデアソン","url":"http://asuyomi20190220.peatix.com","shortener_url":"https://goo.gl/5j9P2W","started_at":"2019-02-20T18:30:00.000+09:00","ended_at":"2019-02-23T08:59:59.000+09:00","limit_number":null,"address":"東京都渋谷区道玄坂 1-10-8 渋谷道玄坂東急ビル1F","place":"Plug and Play Shibuya by 東急不動産（イベントスペース）","lat":35.6569,"lon":139.699,"state":"active","id":null},{"event_id":"596827","title":"POP START 第1章～瀬戸に導かれし者たち～","url":"http://popstart-seto.peatix.com","shortener_url":"https://goo.gl/5mKPdD","started_at":"2019-02-22T11:00:00.000+09:00","ended_at":"2019-02-25T08:59:59.000+09:00","limit_number":null,"address":"瀬戸市仲切町22","place":"ゲストハウスますきち","lat":35.228,"lon":137.101,"state":"active","id":null},{"event_id":"596405","title":"2/23（土）19時半～　本屋イベントのつくりかた","url":"http://bookshoptraveller7.peatix.com","shortener_url":null,"started_at":"2019-02-23T19:30:00.000+09:00","ended_at":"2019-02-26T08:59:59.000+09:00","limit_number":null,"address":"世田谷区北沢2丁目26−7","place":"BOOKSHOP TRAVELLER","lat":35.6622,"lon":139.666,"state":"active","id":null},{"event_id":"592331","title":"PLAY DATE! with da ka:po Late Starters Orchestra","url":"http://dakapoplaydate2019.peatix.com","shortener_url":null,"started_at":"2019-02-23T15:00:00.000+09:00","ended_at":"2019-02-26T08:59:59.000+09:00","limit_number":null,"address":"Block 531 Upper Cross Street Hong Lim Complex #04-40A Singapore050531","place":"Centre Of Activity \u0026 Recreation For The Elders","lat":0.0,"lon":0.0,"state":"active","id":null},{"event_id":"598893","title":"アトツギ壁打ちミートアップ #10","url":"http://peatix.com/event/598893","shortener_url":null,"started_at":"2019-02-21T18:30:00.000+09:00","ended_at":"2019-02-24T08:59:59.000+09:00","limit_number":null,"address":"大阪市北区小松原町2−4 大阪富国生命ビル","place":"野村證券（株）梅田支店","lat":34.7023,"lon":135.5,"state":"active","id":null},{"event_id":"589746","title":"ケン・ハラクマ　ラジヨガ体操指導者養成講座【IYC認定証発行】","url":"http://peatix.com/event/589746","shortener_url":null,"started_at":"2019-02-27T14:00:00.000+09:00","ended_at":"2019-03-02T08:59:59.000+09:00","limit_number":null,"address":"新宿区西新宿1丁目22−2 新宿サンエービル4F","place":"【YMCメディカルトレーナーズスクール新宿校】新宿のヨガ/ヨガ資格取得","lat":35.6888,"lon":139.696,"state":"active","id":null},{"event_id":"591735","title":"「シナリオランド」オフラインイベント　体験！CGアニメ制作！！","url":"http://peatix.com/event/591735","shortener_url":null,"started_at":"2019-02-22T19:00:00.000+09:00","ended_at":"2019-02-25T08:59:59.000+09:00","limit_number":null,"address":"東京都渋谷区神宮前5-7-18 プラザ青山2F","place":"トムス・ジーニーズ","lat":35.6665,"lon":139.708,"state":"active","id":null},{"event_id":"597284","title":"大好評！皮から作る天然酵母の生地で醤肉まん、醤仕込み会","url":"http://peatix.com/event/597284","shortener_url":null,"started_at":"2019-02-09T17:30:00.000+09:00","ended_at":"2019-02-12T08:59:59.000+09:00","limit_number":null,"address":"JR/東京メトロ 上野駅※ 正確な住所は予約が承認されるとマイページに表示されます","place":"masaeさんの食卓","lat":0.0,"lon":0.0,"state":"active","id":null},{"event_id":"600064","title":"「“カッコいい”農業」実践者と探る、地方のかっこいい働き方とは？１Dayツアー アグリビジネスフィールドワーク　〈福岡糸島編〉","url":"http://pasona-nouentai-fukuoka.peatix.com","shortener_url":null,"started_at":"2019-02-16T08:50:00.000+09:00","ended_at":"2019-02-18T08:59:59.000+09:00","limit_number":null,"address":"糸島市潤1丁目22−1","place":"糸島市社会福祉協議会（社会福祉法人）糸島市健康福祉センター あごら","lat":33.5587,"lon":130.219,"state":"active","id":null},{"event_id":"597674","title":"[StartupJohor Academy x GetCTO] Build An Expenses Tracking App with React Native + Firebase in 2 days","url":"http://expensestrackingapp.peatix.com","shortener_url":null,"started_at":"2019-02-23T10:00:00.000+09:00","ended_at":"2019-02-26T08:59:59.000+09:00","limit_number":null,"address":"Unit 02-02, Lvl 2, Cimb Leadership Academy,, No 3, Jalan Medini Utara 1, Medini Iskandar, Iskandar Puteri","place":"IskandarSpace","lat":1.42636,"lon":103.634,"state":"active","id":null},{"event_id":"597246","title":"今日から始める！ブロックチェーン基礎講座\u0026ハンズオン　～Product Ethereum～","url":"http://peatix.com/event/597246","shortener_url":null,"started_at":"2019-02-06T19:30:00.000+09:00","ended_at":"2019-02-09T08:59:59.000+09:00","limit_number":null,"address":"東京都豊島区高田3丁目15-7 (第一大島ビル406号室)","place":"kurenai会議室","lat":35.7155,"lon":139.706,"state":"active","id":null},{"event_id":"585305","title":"【船瀬俊介の船瀬塾】講義１「波動医学～生命の波動を乱してはいけない」講義２「政治〜世界の支配システムに目覚めなければいけない(NEW)」(2/23)","url":"http://wonder20190223.peatix.com","shortener_url":null,"started_at":"2019-02-23T13:30:00.000+09:00","ended_at":"2019-02-26T08:59:59.000+09:00","limit_number":null,"address":"東京都豊島区東池袋1-47-3 小林ビル2階","place":"ハロー貸会議室池袋Ⅲ","lat":35.7335,"lon":139.716,"state":"active","id":null},{"event_id":"596398","title":"中小ビル再生レクチャー　vol.2「小規模物件のホテル・民泊・シェアハウス運営手法」","url":"http://peatix.com/event/596398","shortener_url":null,"started_at":"2019-02-05T18:30:00.000+09:00","ended_at":"2019-02-08T08:59:59.000+09:00","limit_number":null,"address":"渋谷区渋谷3丁目9−10 渋谷アサヒビル5階","place":"Inc-line","lat":35.6572,"lon":139.704,"state":"active","id":null},{"event_id":"590067","title":"Japan Dancers' Championship 2019 Tokyo予選","url":"http://peatix.com/event/590067","shortener_url":null,"started_at":"2019-02-07T16:00:00.000+09:00","ended_at":"2019-02-10T08:59:59.000+09:00","limit_number":null,"address":"江東区青海1丁目3−11","place":"Zepp Tokyo","lat":35.6259,"lon":139.782,"state":"active","id":null},{"event_id":"598412","title":"【フリーランスで活躍中！】現役データサイエンティストから学ぶデータ分析基礎＆回帰分析ハンズオン","url":"http://peatix.com/event/598412","shortener_url":null,"started_at":"2019-02-13T19:30:00.000+09:00","ended_at":"2019-02-16T08:59:59.000+09:00","limit_number":null,"address":"東京都新宿区西新宿7丁目8ー11 中川ビル6階","place":"ふれあいセミナールーム　新宿⑫","lat":35.6957,"lon":139.698,"state":"active","id":null},{"event_id":"586121","title":"TouchDesigner Study Weekend vol.016","url":"http://tdsw016.peatix.com","shortener_url":null,"started_at":"2019-02-16T10:00:00.000+09:00","ended_at":"2019-02-19T08:59:59.000+09:00","limit_number":null,"address":"東京都千代田区内神田2-14-9","place":"誠文堂新光社 神田イベントスペース","lat":0.0,"lon":0.0,"state":"active","id":null},{"event_id":"589995","title":"内海聡の内海塾 in東京「食の危険性」２/８(金)","url":"http://wonder20190208.peatix.com","shortener_url":null,"started_at":"2019-02-08T19:00:00.000+09:00","ended_at":"2019-02-11T08:59:59.000+09:00","limit_number":null,"address":"千代田区 神田小川町3丁目10 新駿河台ビル10F","place":"ハロー貸会議室神保町","lat":35.6961,"lon":139.761,"state":"active","id":null},{"event_id":"592697","title":"ワークショップから学ぶ！デザインスプリント Vol.2","url":"http://peatix.com/event/592697","shortener_url":null,"started_at":"2019-02-20T19:00:00.000+09:00","ended_at":"2019-02-23T08:59:59.000+09:00","limit_number":null,"address":"東京都中央区築地6-16-1 築地616ビル","place":"株式会社ニューロマジック　7階セミナースペース","lat":35.664,"lon":139.774,"state":"active","id":null},{"event_id":"598406","title":"【フィットネス・女性の趣味に】新しいライフスタイル!?特技・一芸習得\u0026運動不足解消！フリースタイルバスケットボール未経験\u0026初心者対象のファンフリスタ体験！","url":"http://fanfrista-freestylebasketball008.peatix.com","shortener_url":null,"started_at":"2019-02-16T10:00:00.000+09:00","ended_at":"2019-02-19T08:59:59.000+09:00","limit_number":null,"address":"東京都新宿区西新宿 7-22-31 柏木MURA","place":" 新宿スタジオスタイル+貸空間スタジオ","lat":35.697,"lon":139.697,"state":"active","id":null},{"event_id":"598413","title":"【フィットネス・女性の趣味に】新しいライフスタイル!?特技・一芸習得\u0026運動不足解消！フリースタイルバスケットボール未経験\u0026初心者対象のファンフリスタ体験！","url":"http://fanfrista-freestylebasketball009.peatix.com","shortener_url":null,"started_at":"2019-02-23T10:00:00.000+09:00","ended_at":"2019-02-26T08:59:59.000+09:00","limit_number":null,"address":"東京都新宿区西新宿 7-22-31 柏木MURA 1F","place":" 新宿スタジオスタイルメインスタジオ","lat":35.697,"lon":139.697,"state":"active","id":null},{"event_id":"598401","title":"【フィットネス・女性の趣味に】新しいライフスタイル!?特技・一芸習得\u0026運動不足解消！フリースタイルバスケットボール未経験\u0026初心者対象のファンフリスタ体験！","url":"http://fanfrista-freestylebasketball007.peatix.com","shortener_url":null,"started_at":"2019-02-09T10:00:00.000+09:00","ended_at":"2019-02-12T08:59:59.000+09:00","limit_number":null,"address":"東京都新宿区西新宿 7-22-31 柏木MURA 1F","place":"新宿スタジオスタイルメインスタジオ","lat":35.697,"lon":139.697,"state":"active","id":null},{"event_id":"598501","title":"SUNKISSED - Secret Hideout Pool Party","url":"http://secrethideout2019.peatix.com","shortener_url":null,"started_at":"2019-02-10T13:00:00.000+09:00","ended_at":"2019-02-13T08:59:59.000+09:00","limit_number":null,"address":"789 Bukit Timah Rd, Singapore 269763","place":"Secret Hideout near Sixth Avenue Station","lat":1.33118,"lon":103.797,"state":"active","id":null},{"event_id":"594907","title":"「おでかけソンから広がる、地域の楽しい移動」シンポジウム 　―「新しい東北」交流会　地域づくりハンズオン支援事業（共創イベント型）　交流イベント―","url":"http://peatix.com/event/594907","shortener_url":null,"started_at":"2019-02-17T14:10:00.000+09:00","ended_at":"2019-02-20T08:59:59.000+09:00","limit_number":null,"address":"〒980-0013 宮城県仙台市青葉区花京院1丁目2−15 8F","place":"TKPガーデンシティPREMIUM仙台西口","lat":38.2637,"lon":140.881,"state":"active","id":null},{"event_id":"591057","title":"2/23(Sat) Nihongo Night in Nishi-Shinjuku","url":"http://peatix.com/event/591057","shortener_url":null,"started_at":"2019-02-23T19:00:00.000+09:00","ended_at":"2019-02-26T08:59:59.000+09:00","limit_number":null,"address":"東京都新宿区西新宿8-19-11","place":"KASHIWAGI CAFE  ","lat":35.6956,"lon":139.691,"state":"active","id":null},{"event_id":"591035","title":"2/21(Thu) Russian Night in Roppongi","url":"http://peatix.com/event/591035","shortener_url":null,"started_at":"2019-02-21T19:00:00.000+09:00","ended_at":"2019-02-24T08:59:59.000+09:00","limit_number":null,"address":"東京都港区六本木3−16−33","place":"Hobgoblin Roppongi","lat":35.6623,"lon":139.737,"state":"active","id":null},{"event_id":"590830","title":"2/20(Wed) Shinjuku Drink Meetup","url":"http://peatix.com/event/590830","shortener_url":null,"started_at":"2019-02-20T19:00:00.000+09:00","ended_at":"2019-02-23T08:59:59.000+09:00","limit_number":null,"address":"東京都新宿区西新宿8-19-11","place":"KASHIWAGI CAFE","lat":35.6956,"lon":139.691,"state":"active","id":null},{"event_id":"591037","title":"2/21(Thu) Russian Night in Roppongi","url":"http://peatix.com/event/591037","shortener_url":null,"started_at":"2019-02-21T19:00:00.000+09:00","ended_at":"2019-02-24T08:59:59.000+09:00","limit_number":null,"address":"東京都港区六本木3−16−33","place":"Hobgoblin Roppongi","lat":35.6623,"lon":139.737,"state":"active","id":null},{"event_id":"591051","title":"2/23(Sat) Travel Lovers Meetup in Shibuya","url":"http://peatix.com/event/591051","shortener_url":null,"started_at":"2019-02-23T15:00:00.000+09:00","ended_at":"2019-02-26T08:59:59.000+09:00","limit_number":null,"address":"渋谷区道玄坂1丁目3−11 一番ビル 3F","place":"Hobgoblin Shibuya British Pub","lat":35.6583,"lon":139.7,"state":"active","id":null},{"event_id":"591067","title":"2/24(Sun) 20s Social Meetup Shibuya","url":"http://peatix.com/event/591067","shortener_url":null,"started_at":"2019-02-24T14:00:00.000+09:00","ended_at":"2019-02-27T08:59:59.000+09:00","limit_number":null,"address":"渋谷区道玄坂1丁目3−11 一番ビル 3F","place":"Hobgoblin Shibuya British Pub","lat":35.6583,"lon":139.7,"state":"active","id":null},{"event_id":"591315","title":"2/27(Wed) Shibuya Around 30s Night","url":"http://peatix.com/event/591315","shortener_url":null,"started_at":"2019-02-27T19:00:00.000+09:00","ended_at":"2019-03-02T08:59:59.000+09:00","limit_number":null,"address":"渋谷区道玄坂1丁目3−11 一番ビル 3F","place":"Hobgoblin Shibuya British Pub","lat":0.0,"lon":0.0,"state":"active","id":null},{"event_id":"596790","title":"満員御礼【2/9開催】サイエンスブッククラブvol.24　テーマ「未来 (Future)」（今を見通し未来を創るサイエンス100冊／学び始めのサイエンス）","url":"http://peatix.com/event/596790","shortener_url":null,"started_at":"2019-02-09T09:00:00.000+09:00","ended_at":"2019-02-12T08:59:59.000+09:00","limit_number":null,"address":"大阪府大阪市北区大深町3-1","place":"The Lab（カフェラボ）グランフロント大阪店","lat":34.7053,"lon":135.495,"state":"active","id":null},{"event_id":"589367","title":"2/5(火) イタリアンナイト@目黒 / Italian Night in Meguro","url":"http://peatix.com/event/589367","shortener_url":null,"started_at":"2019-02-05T19:00:00.000+09:00","ended_at":"2019-02-08T08:59:59.000+09:00","limit_number":null,"address":"目黒区下目黒1丁目3−28 サンウッド目黒ビル2F","place":"The Meguro Tavern","lat":35.6343,"lon":139.713,"state":"active","id":null},{"event_id":"592641","title":"【定員5名】MAではじめる！”デジタルマーケティング”スタートアップセミナー","url":"http://peatix.com/event/592641","shortener_url":null,"started_at":"2019-02-07T16:30:00.000+09:00","ended_at":"2019-02-10T08:59:59.000+09:00","limit_number":null,"address":"東京都港区赤坂7丁目1番1号 青山安田ビル3階","place":"トライベック・ストラテジー株式会社","lat":0.0,"lon":0.0,"state":"active","id":null},{"event_id":"593421","title":"満席：ソトコトや事業構想で注目の茨城！地域で稼ぐ「ローカルベンチャー会議」茨城県北の起業家が登壇","url":"http://ibaraki-lvs.peatix.com","shortener_url":null,"started_at":"2019-02-07T20:00:00.000+09:00","ended_at":"2019-02-10T08:59:59.000+09:00","limit_number":null,"address":"中央区京橋2丁目2−番1号 京橋エドグラン3階 サウス棟","place":"SENQ（センク）京橋","lat":35.677,"lon":139.77,"state":"active","id":null},{"event_id":"597675","title":"半田付け体験とテスター・オシロスコープ入門【02/14(木)開催】","url":"http://dmmmake190214hand.peatix.com","shortener_url":null,"started_at":"2019-02-14T11:00:00.000+09:00","ended_at":"2019-02-17T08:59:59.000+09:00","limit_number":null,"address":"東京都千代田区神田練塀町3 富士ソフト秋葉原ビル 10F DMM.make AKIBA Studio","place":"DMM.make AKIBA 10F Studio","lat":35.7008,"lon":139.774,"state":"active","id":null},{"event_id":"597319","title":"美容整形に430万円。市場の課題解決を目指す24歳女社長が語る　放送作家主催のトークイベント「木村家 #1」","url":"http://kimurake20190214.peatix.com","shortener_url":null,"started_at":"2019-02-14T19:00:00.000+09:00","ended_at":"2019-02-17T08:59:59.000+09:00","limit_number":null,"address":"渋谷区恵比寿4丁目6−1 8階 恵比寿MFビル","place":"Peatix Japan株式会社","lat":35.6458,"lon":139.712,"state":"active","id":null},{"event_id":"597697","title":"半田付け体験とテスター・オシロスコープ入門【02/28(木)開催】","url":"http://dmmmake190228hand.peatix.com","shortener_url":null,"started_at":"2019-02-28T11:00:00.000+09:00","ended_at":"2019-03-03T08:59:59.000+09:00","limit_number":null,"address":"東京都千代田区神田練塀町3 富士ソフト秋葉原ビル 10F DMM.make AKIBA Studio","place":"DMM.make AKIBA 10F Studio","lat":35.7008,"lon":139.774,"state":"active","id":null},{"event_id":"592194","title":"New Crack! A Work-in-Progress Show for the Big Guns of Comedy!","url":"http://newcrack26feb.peatix.com","shortener_url":null,"started_at":"2019-02-26T22:00:00.000+09:00","ended_at":"2019-03-01T08:59:59.000+09:00","limit_number":null,"address":"24, Lorong Rahim Kajai 14, Taman Tun Dr Ismail, Kuala Lumpur","place":"Crackhouse Comedy Club","lat":3.15478,"lon":101.623,"state":"active","id":null},{"event_id":"597682","title":"FRISK風ヘッドフォンアンプをつくろう【02/17(日)開催】","url":"http://dmmmake1902frsk.peatix.com","shortener_url":null,"started_at":"2019-02-17T11:00:00.000+09:00","ended_at":"2019-02-20T08:59:59.000+09:00","limit_number":null,"address":"東京都千代田区神田練塀町3 富士ソフト秋葉原ビル 10F DMM.make AKIBA Studio","place":"DMM.make AKIBA 10F Studio","lat":35.7008,"lon":139.774,"state":"active","id":null},{"event_id":"589372","title":"2/6(水) ドイツ語ナイト@六本木 / German Night in Roppongi","url":"http://peatix.com/event/589372","shortener_url":null,"started_at":"2019-02-06T19:00:00.000+09:00","ended_at":"2019-02-09T08:59:59.000+09:00","limit_number":null,"address":"港区六本木3丁目16−33","place":"Hobgoblin Roppongi British Pub","lat":35.6619,"lon":139.736,"state":"active","id":null},{"event_id":"590815","title":"2/19(火)ラテン交流会＝スペイン、ポーランド、ブラジル＠六本木","url":"http://peatix.com/event/590815","shortener_url":null,"started_at":"2019-02-19T19:00:00.000+09:00","ended_at":"2019-02-22T08:59:59.000+09:00","limit_number":null,"address":"港区六本木3丁目16−33","place":"Hobgoblin Roppongi British Pub","lat":0.0,"lon":0.0,"state":"active","id":null},{"event_id":"591060","title":"2/23(土) にほんごナイト@西新宿 / Nihongo Night in NishiShinjuku","url":"http://peatix.com/event/591060","shortener_url":null,"started_at":"2019-02-23T19:00:00.000+09:00","ended_at":"2019-02-26T08:59:59.000+09:00","limit_number":null,"address":"東京都新宿区西新宿8-19-11","place":"KASHIWAGI CAFE ","lat":35.6956,"lon":139.691,"state":"active","id":null},{"event_id":"591065","title":"2/24(日) 20代の英会話@渋谷 / 20's Social Meetup in Shibuya","url":"http://peatix.com/event/591065","shortener_url":null,"started_at":"2019-02-24T14:00:00.000+09:00","ended_at":"2019-02-27T08:59:59.000+09:00","limit_number":null,"address":"東京都渋谷区道玄坂1-3-11","place":"Hobgoblin Shibuya","lat":35.6583,"lon":139.7,"state":"active","id":null},{"event_id":"596818","title":"【オンライン/東京会場同時開催】ウェブ解析士認定講座","url":"http://20190216awacga.peatix.com","shortener_url":null,"started_at":"2019-02-16T13:00:00.000+09:00","ended_at":"2019-02-19T08:59:59.000+09:00","limit_number":null,"address":"東京都中央区八重洲1-6-14","place":"KIZUNA会議室　八重洲２F（ISO八重洲ビル　201）","lat":35.6813,"lon":139.771,"state":"active","id":null},{"event_id":"597688","title":"【Cerevo x DMM.make AKIBA】スマホで自在操作できるIoTミニ四駆を作ろう！【02/24(日)開催】","url":"http://dmmmake1902mkz4.peatix.com","shortener_url":null,"started_at":"2019-02-24T11:00:00.000+09:00","ended_at":"2019-02-27T08:59:59.000+09:00","limit_number":null,"address":"東京都千代田区神田練塀町3富士ソフト秋葉原ビル10F","place":"DMM.make AKIBA Studio (10F)","lat":35.7008,"lon":139.774,"state":"active","id":null},{"event_id":"592174","title":"New Crack! A Work-in-Progress Show for the Big Guns of Comedy!","url":"http://newcrack19feb.peatix.com","shortener_url":null,"started_at":"2019-02-19T22:00:00.000+09:00","ended_at":"2019-02-22T08:59:59.000+09:00","limit_number":null,"address":"24, Lorong Rahim Kajai 14, Taman Tun Dr Ismail, Kuala Lumpur","place":"Crackhouse Comedy Club","lat":3.15478,"lon":101.623,"state":"active","id":null},{"event_id":"597686","title":"シナ合板でつくる多面体スピーカー【02/23(土)開催】","url":"http://dmmmake190223poly.peatix.com","shortener_url":null,"started_at":"2019-02-23T11:00:00.000+09:00","ended_at":"2019-02-26T08:59:59.000+09:00","limit_number":null,"address":"東京都千代田区神田練塀町3 富士ソフト秋葉原ビル 10F DMM.make AKIBA Studio","place":"DMM.make AKIBA 10F Studio","lat":35.7008,"lon":139.774,"state":"active","id":null},{"event_id":"589795","title":"2/16(土) にほんごナイト@西新宿 / Nihongo Night in NishiShinjuku","url":"http://peatix.com/event/589795","shortener_url":null,"started_at":"2019-02-16T15:00:00.000+09:00","ended_at":"2019-02-19T08:59:59.000+09:00","limit_number":null,"address":"東京都新宿区西新宿8-19-11","place":"KASHIWAGI CAFE ","lat":35.6956,"lon":139.691,"state":"active","id":null},{"event_id":"583843","title":"【ビジログワークショップ那覇開催】明日から仕事で使える超実践型の無料ワークショップ！著名講師多数！2月末まで！","url":"http://busilog-naha.peatix.com","shortener_url":null,"started_at":"2019-02-08T10:00:00.000+09:00","ended_at":"2019-02-11T08:59:59.000+09:00","limit_number":null,"address":"沖縄県那覇市西1-6-1","place":"TKPネストホテル那覇センター","lat":0.0,"lon":0.0,"state":"active","id":null},{"event_id":"592173","title":"【特別無料講座】OTEKOMACHI（大手小町）主催シンポジウム「#for your smile 自分らしく生きるために　働く女性のエンパワーメント」※交流会あり（運営：読売新聞社）","url":"http://peatix.com/event/592173","shortener_url":null,"started_at":"2019-02-23T13:30:00.000+09:00","ended_at":"2019-02-26T08:59:59.000+09:00","limit_number":null,"address":"千代田区大手町1丁目5−1","place":"大手町ファーストスクエアカンファレンス","lat":35.6858,"lon":139.764,"state":"active","id":null},{"event_id":"589588","title":"【2/9(土) 大阪　参加無料】 年代別でわかる！自分に合った留学をみつけるフェア","url":"http://spotfuture.peatix.com","shortener_url":null,"started_at":"2019-02-09T13:00:00.000+09:00","ended_at":"2019-02-12T08:59:59.000+09:00","limit_number":null,"address":"大阪市北区梅田1丁目11−4","place":"留学ジャーナル カウンセリングセンター大阪","lat":34.6999,"lon":135.499,"state":"active","id":null},{"event_id":"590338","title":"【2/9(土) 広島　参加無料】 年代別でわかる！自分に合った留学をみつけるフェア","url":"http://peatix.com/event/590338","shortener_url":null,"started_at":"2019-02-09T14:00:00.000+09:00","ended_at":"2019-02-12T08:59:59.000+09:00","limit_number":null,"address":"広島市中区立町2−29 朝日日通広島ビル8F","place":"（株）留学ジャーナル 広島支店","lat":34.3943,"lon":132.461,"state":"active","id":null},{"event_id":"591867","title":"抹茶ガナッシュづくりワークショップ＆お食事会 by Umi","url":"http://greencafe.peatix.com","shortener_url":null,"started_at":"2019-02-10T12:00:00.000+09:00","ended_at":"2019-02-13T08:59:59.000+09:00","limit_number":null,"address":"京都市上京区中書町685−1","place":"Magasinn Kyoto | マガザンキョウト","lat":35.0188,"lon":135.748,"state":"active","id":null},{"event_id":"594772","title":"スタンダップトーク！〜これからどうしたらいいんだろう？〜＜オープンマイク＞","url":"http://peatix.com/event/594772","shortener_url":null,"started_at":"2019-02-17T18:30:00.000+09:00","ended_at":"2019-02-20T08:59:59.000+09:00","limit_number":null,"address":"台東区浅草橋3丁目3−9","place":"SERA","lat":35.7002,"lon":139.787,"state":"active","id":null},{"event_id":"595578","title":"結ぶ、繋がる、水引づくり","url":"http://peatix.com/event/595578","shortener_url":null,"started_at":"2019-02-04T19:00:00.000+09:00","ended_at":"2019-02-07T08:59:59.000+09:00","limit_number":null,"address":"東京都豊島区長崎1-9-2","place":"金剛院 蓮華堂B1","lat":35.7272,"lon":139.696,"state":"active","id":null},{"event_id":"589782","title":"【2/9(土) 福岡　参加無料】 年代別でわかる！自分に合った留学をみつけるフェア","url":"http://peatix.com/event/589782","shortener_url":null,"started_at":"2019-02-09T13:00:00.000+09:00","ended_at":"2019-02-12T08:59:59.000+09:00","limit_number":null,"address":"福岡市中央区 天神1-6-8 天神ツインビル6F","place":"（株）留学ジャーナル","lat":33.5895,"lon":130.4,"state":"active","id":null},{"event_id":"597139","title":"「言葉だけでは伝わらない！」印象に差がつく非言語コミュニケーションのテクニック","url":"http://peatix.com/event/597139","shortener_url":null,"started_at":"2019-02-03T13:30:00.000+09:00","ended_at":"2019-02-06T08:59:59.000+09:00","limit_number":null,"address":"名古屋市東区上竪杉町1","place":"ウィルあいち","lat":35.1803,"lon":136.911,"state":"active","id":null},{"event_id":"593884","title":"【LUCUA osaka】繋がる！楽しむ！ペアヨガ","url":"http://peatix.com/event/593884","shortener_url":null,"started_at":"2019-02-17T08:45:00.000+09:00","ended_at":"2019-02-19T08:59:59.000+09:00","limit_number":null,"address":"大阪市北区梅田3丁目1−3","place":"LUCUA osaka","lat":34.7029,"lon":135.496,"state":"active","id":null},{"event_id":"592225","title":"Comedy Masala ft. FORREST SHAW (USA) | Writer for 'The Jim Jefferies Show' \u0026 seen on CONAN, Comedy Central, FX \u0026 Live at Gotham","url":"http://forrestshaw.peatix.com","shortener_url":null,"started_at":"2019-02-05T21:00:00.000+09:00","ended_at":"2019-02-08T08:59:59.000+09:00","limit_number":null,"address":"69 Circular Road, Boat Quay, Singapore 049423","place":"HERO'S, 69 Circular Road, Singapore 049423","lat":1.28641,"lon":103.849,"state":"active","id":null},{"event_id":"589563","title":"【2/10(日) 東京　参加無料】 年代別でわかる！自分に合った留学をみつけるフェア","url":"http://peatix.com/event/589563","shortener_url":null,"started_at":"2019-02-10T13:00:00.000+09:00","ended_at":"2019-02-13T08:59:59.000+09:00","limit_number":null,"address":"新宿区信濃町34 JR信濃町ビル 6階","place":"(株)留学ジャーナル","lat":35.6801,"lon":139.72,"state":"active","id":null},{"event_id":"590344","title":"【2/10(日) 名古屋　参加無料】 年代別でわかる！自分に合った留学をみつけるフェア","url":"http://peatix.com/event/590344","shortener_url":null,"started_at":"2019-02-10T13:00:00.000+09:00","ended_at":"2019-02-13T08:59:59.000+09:00","limit_number":null,"address":"名古屋市中村区名駅1−1−1 6F JPタワー名古屋","place":"（株）留学ジャーナル","lat":35.1736,"lon":136.882,"state":"active","id":null},{"event_id":"594942","title":"はじめてのｉＯＳアプリ開発ハンズオンイベント","url":"http://peatix.com/event/594942","shortener_url":null,"started_at":"2019-02-24T12:30:00.000+09:00","ended_at":"2019-02-27T08:59:59.000+09:00","limit_number":null,"address":"東京都世田谷区玉川2-21-1 二子玉川ライズ・オフィス8階","place":"東京都市大学   二子玉川夢キャンパス","lat":0.0,"lon":0.0,"state":"active","id":null},{"event_id":"594631","title":"＜手まり寿司で春のごちそうごはん＞東京ガス料理教室のメニューで一緒にごはんを作って食べよう！デザートもあるよ【東京ガスでごはん体験vol.2】","url":"http://peatix.com/event/594631","shortener_url":null,"started_at":"2019-02-19T18:30:00.000+09:00","ended_at":"2019-02-22T08:59:59.000+09:00","limit_number":null,"address":"新宿駅、都庁前駅 ※ 正確な住所は予約が承認されるとお知らせがとどきます","place":"Natsukoさんの食卓","lat":0.0,"lon":0.0,"state":"active","id":null},{"event_id":"596163","title":"Film Screening: [Time Zero: The Last Year of Polaroid Film] with Free Photobooth Polaroid Photo","url":"http://polaroid-film-screening.peatix.com","shortener_url":null,"started_at":"2019-02-22T20:00:00.000+09:00","ended_at":"2019-02-25T08:59:59.000+09:00","limit_number":null,"address":"2 Orchard Link","place":"*SCAPE","lat":1.30104,"lon":103.836,"state":"active","id":null},{"event_id":"591040","title":"2/21(木) ロシア語ナイト@六本木 / Russian Night in Roppongi","url":"http://peatix.com/event/591040","shortener_url":null,"started_at":"2019-02-21T19:00:00.000+09:00","ended_at":"2019-02-24T08:59:59.000+09:00","limit_number":null,"address":"東京都港区六本木3−16−33","place":"Hob goblin at Roppongi","lat":35.6623,"lon":139.737,"state":"active","id":null},{"event_id":"589374","title":"2/7(木) ロシア語ナイト@六本木 / Russian Night in Roppongi","url":"http://peatix.com/event/589374","shortener_url":null,"started_at":"2019-02-07T19:00:00.000+09:00","ended_at":"2019-02-10T08:59:59.000+09:00","limit_number":null,"address":"港区 六本木3−16−33 青葉六本木ビル 1F","place":"Legends Sports Bar","lat":35.6619,"lon":139.736,"state":"active","id":null},{"event_id":"592191","title":"Crackhouse Comedy Presents : Trevor Lock (UK)","url":"http://lockthecrack.peatix.com","shortener_url":null,"started_at":"2019-02-22T22:00:00.000+09:00","ended_at":"2019-02-25T08:59:59.000+09:00","limit_number":null,"address":"24A (1st Floor) Lorong Rahim Kajai 14, Taman Tun Dr. Ismail, 60000 Kuala Lumpur","place":"The Crackhouse Comedy Club KL","lat":3.15478,"lon":101.623,"state":"active","id":null},{"event_id":"592531","title":"Silent Disco @ i Light Singapore :: 2 Feb 2019","url":"http://silent-disco-2feb.peatix.com","shortener_url":null,"started_at":"2019-02-02T10:00:00.000+09:00","ended_at":"2019-02-05T08:59:59.000+09:00","limit_number":null,"address":"6 Bayfront Avenue","place":"ArtScience Museum","lat":1.28627,"lon":103.859,"state":"active","id":null},{"event_id":"592562","title":"Silent Disco @ i Light Singapore :: 23 Feb 2019","url":"http://silent-disco-23feb.peatix.com","shortener_url":null,"started_at":"2019-02-23T22:00:00.000+09:00","ended_at":"2019-02-26T08:59:59.000+09:00","limit_number":null,"address":"6 Bayfront Avenue","place":"ArtScience Museum","lat":1.28627,"lon":103.859,"state":"active","id":null},{"event_id":"595580","title":"Microsoft Power BI 実践ハンズオン 入門編（2019年2月）","url":"http://powerbi201902.peatix.com","shortener_url":null,"started_at":"2019-02-22T14:00:00.000+09:00","ended_at":"2019-02-25T08:59:59.000+09:00","limit_number":null,"address":"東京都中央区銀座3丁目9 銀座3-9-4 銀座草野ビルディング 4F","place":"マイスペース 銀座マロニエ通り店","lat":35.6718,"lon":139.768,"state":"active","id":null},{"event_id":"586591","title":"【参加無料・2/20(水)】『アナトミー』で自社サイト課題がわかるアクセス解析実践セミナー","url":"http://peatix.com/event/586591","shortener_url":null,"started_at":"2019-02-08T15:00:00.000+09:00","ended_at":"2019-02-11T08:59:59.000+09:00","limit_number":null,"address":"東京都渋谷区富ヶ谷2-43-15 山崎ビル6F","place":"株式会社シンメトリック　セミナールーム","lat":35.6677,"lon":139.686,"state":"active","id":null},{"event_id":"594886","title":"The Anti-Valentine's Day Show w. Joanne Kam!","url":"http://kamforvday.peatix.com","shortener_url":null,"started_at":"2019-02-14T22:00:00.000+09:00","ended_at":"2019-02-17T08:59:59.000+09:00","limit_number":null,"address":"24A (1st Floor) Lorong Rahim Kajai 14, Taman Tun Dr. Ismail, 60000 Kuala Lumpur","place":"The Crackhouse Comedy Club KL","lat":3.15478,"lon":101.623,"state":"active","id":null},{"event_id":"592392","title":"【edoARTworkshop】青森伝統の技と心を知る 津軽こぎん刺し体験～可愛いモドコでポケットティッシュケース作り","url":"http://edoart0209.peatix.com","shortener_url":null,"started_at":"2019-02-09T13:30:00.000+09:00","ended_at":"2019-02-12T08:59:59.000+09:00","limit_number":null,"address":"〒108-0014 東京都港区芝4丁目7ー6","place":"芝ビルディング 704号室","lat":35.6491,"lon":139.752,"state":"active","id":null},{"event_id":"589789","title":"2/14(木) フレンチナイト@自由が丘 / French Night in Jiyuugaoka","url":"http://peatix.com/event/589789","shortener_url":null,"started_at":"2019-02-14T19:00:00.000+09:00","ended_at":"2019-02-17T08:59:59.000+09:00","limit_number":null,"address":"東京都目黒区自由が丘1丁目8-18","place":"アイリッシュパブ クラン（Clann)","lat":35.6069,"lon":139.669,"state":"active","id":null},{"event_id":"593576","title":"【edoARTworkshop】和の心をむすぶ 水引体験 ～ 水引で作る、手のひらサイズの巾着袋 ～","url":"http://edoart0223.peatix.com","shortener_url":null,"started_at":"2019-02-23T14:15:00.000+09:00","ended_at":"2019-02-26T08:59:59.000+09:00","limit_number":null,"address":"〒169-0075東京都新宿区高田馬場3-1-5 サンパティオ高田馬場","place":"サンパティオ高田馬場309","lat":35.7145,"lon":139.704,"state":"active","id":null},{"event_id":"591133","title":"【明日開催】【特別企画】ゲーム開発におけるドメイン駆動設計とサーバレスアーキテクチャ～2018年TECH×GAME COLLEGE人気会講師がコラボするゲームエンジニアのための勉強会～","url":"http://peatix.com/event/591133","shortener_url":null,"started_at":"2019-02-07T19:00:00.000+09:00","ended_at":"2019-02-10T08:59:59.000+09:00","limit_number":null,"address":"東京都渋谷区渋谷2-21-1","place":"レバテック株式会社(渋谷ヒカリエ17F)","lat":35.659,"lon":139.703,"state":"active","id":null},{"event_id":"592570","title":"Silent Disco @ i Light Singapore Bollywood Special :: 22 Feb 2019","url":"http://silent-disco-22feb.peatix.com","shortener_url":null,"started_at":"2019-02-22T22:00:00.000+09:00","ended_at":"2019-02-25T08:59:59.000+09:00","limit_number":null,"address":"6 Bayfront Avenue","place":"ArtScience Museum","lat":1.28627,"lon":103.859,"state":"active","id":null},{"event_id":"592554","title":"Silent Disco @ i Light Singapore :: 9 Feb 2019","url":"http://silent-disco-9feb.peatix.com","shortener_url":null,"started_at":"2019-02-09T22:00:00.000+09:00","ended_at":"2019-02-12T08:59:59.000+09:00","limit_number":null,"address":"6 Bayfront Avenue","place":"ArtScience Museum","lat":1.28627,"lon":103.859,"state":"active","id":null},{"event_id":"592559","title":"Silent Disco @ i Light Singapore :: 16 Feb 2019","url":"http://silent-disco-16feb.peatix.com","shortener_url":null,"started_at":"2019-02-16T22:00:00.000+09:00","ended_at":"2019-02-19T08:59:59.000+09:00","limit_number":null,"address":"6 Bayfront Avenue","place":"ArtScience Museum","lat":1.28627,"lon":103.859,"state":"active","id":null},{"event_id":"592198","title":"The Comedy DEATH Race - February Edition!","url":"http://deathrace28feb.peatix.com","shortener_url":null,"started_at":"2019-02-28T22:00:00.000+09:00","ended_at":"2019-03-03T08:59:59.000+09:00","limit_number":null,"address":"24A Lorong Rahim Kajai 14, Taman Tun Dr. Ismail, 60000 Kuala Lumpur","place":"Crackhouse Comedy Club Kuala Lumpur","lat":3.15474,"lon":101.623,"state":"active","id":null},{"event_id":"594795","title":"FileMaker ワークショップ@大阪　「ログイン」機能の作成","url":"http://juppo-ws201902.peatix.com","shortener_url":null,"started_at":"2019-02-19T13:30:00.000+09:00","ended_at":"2019-02-22T08:59:59.000+09:00","limit_number":null,"address":"大阪府大阪市中央区本町1丁目4番5号 5F 研修室A","place":"大阪産業創造館","lat":0.0,"lon":0.0,"state":"active","id":null},{"event_id":"598610","title":"飲食店開業支援プログラム＠大阪","url":"http://osaka-inshokuten20190225.peatix.com","shortener_url":null,"started_at":"2019-02-25T14:00:00.000+09:00","ended_at":"2019-02-28T08:59:59.000+09:00","limit_number":null,"address":"大阪市北区小松原町2","place":"大阪富国生命ビル","lat":34.7023,"lon":135.5,"state":"active","id":null},{"event_id":"584954","title":"大阪開催：Microsoft Power BI 実践ハンズオン 入門編（2019年2月）","url":"http://powerbi201902osaka.peatix.com","shortener_url":null,"started_at":"2019-02-07T14:00:00.000+09:00","ended_at":"2019-02-10T08:59:59.000+09:00","limit_number":null,"address":"大阪府大阪市淀川区西中島4-2-26 天神第一ビル 6階","place":"貸し会議室プランセカンス","lat":34.7264,"lon":135.498,"state":"active","id":null},{"event_id":"594205","title":"第59回堀江貴文とカウンターで高級寿司を食べる【限定8名】テリヤキプレミアム鮨会","url":"http://peatix.com/event/594205","shortener_url":null,"started_at":"2019-02-17T18:30:00.000+09:00","ended_at":"2019-02-20T08:59:59.000+09:00","limit_number":null,"address":"東京都港区麻布十番2-8-12 101","place":"鮨 麻布十番乃南","lat":35.6555,"lon":139.734,"state":"active","id":null},{"event_id":"595397","title":"【明日2/13(水)】基調講演:落合陽一「AI時代の適者生存」〜生まれ変わるために\"今\"すべきこと〜 THE AI 3rd","url":"http://the-ai-3rd.peatix.com","shortener_url":null,"started_at":"2019-02-13T10:00:00.000+09:00","ended_at":"2019-02-16T08:59:59.000+09:00","limit_number":null,"address":"港区虎ノ門1丁目23−1","place":"虎ノ門ヒルズ森タワー","lat":35.6669,"lon":139.75,"state":"active","id":null},{"event_id":"592196","title":"Crackhouse Comedy Open-Mic Night | Open-Crack!","url":"http://opencrack27feb.peatix.com","shortener_url":null,"started_at":"2019-02-27T22:00:00.000+09:00","ended_at":"2019-03-02T08:59:59.000+09:00","limit_number":null,"address":"24A, 1st Floor, Lorong Rahim Kajai 14, Taman Tun Dr. Ismail, 60000 Kuala Lumpur","place":"The Crackhouse Comedy Club KL","lat":3.15493,"lon":101.623,"state":"active","id":null},{"event_id":"595726","title":"【大人気講座】２ヶ月みっちり国内留学！英語で英語を学ぶ、大人のための本格英語講座　（留学準備にもおすすめ！）","url":"http://peatix.com/event/595726","shortener_url":null,"started_at":"2019-02-03T13:30:00.000+09:00","ended_at":"2019-02-06T08:59:59.000+09:00","limit_number":null,"address":"東京都港区元麻布3-1-35 地下2階","place":"六本木 The P@rk","lat":35.658,"lon":139.728,"state":"active","id":null},{"event_id":"596825","title":"明日開催！！【参加無料：企業WEB担当者向け】   すぐに成果につながるWEBサービス導入セミナー","url":"http://peatix.com/event/596825","shortener_url":null,"started_at":"2019-02-21T16:15:00.000+09:00","ended_at":"2019-02-24T08:59:59.000+09:00","limit_number":null,"address":"東京都千代田区紀尾井町3-6紀尾井町パークビル7F","place":"株式会社ワンゴジュウゴ　セミナールーム","lat":35.6822,"lon":139.736,"state":"active","id":null},{"event_id":"590365","title":"『OSS-DB技術者認定試験 出題範囲改定(Ver.2.0)』ベータ試験受験","url":"http://ossdb201902.peatix.com","shortener_url":null,"started_at":"2019-02-13T13:30:00.000+09:00","ended_at":"2019-02-16T08:59:59.000+09:00","limit_number":null,"address":"〒106-0041 東京都港区麻布台1-11-9","place":"LPI-Japan  BPRプレイス神谷町 7F","lat":35.6607,"lon":139.744,"state":"active","id":null},{"event_id":"597352","title":"Live English Standup Comedy Show in Tokyo","url":"http://peatix.com/event/597352","shortener_url":null,"started_at":"2019-02-23T19:30:00.000+09:00","ended_at":"2019-02-26T08:59:59.000+09:00","limit_number":null,"address":"東京都墨田区東駒形 2-20-10","place":"浅草スマイルバー","lat":0.0,"lon":0.0,"state":"active","id":null},{"event_id":"592178","title":"Crackhouse Comedy Open-Mic Night | Open-Crack!","url":"http://opencrack20feb.peatix.com","shortener_url":null,"started_at":"2019-02-20T22:00:00.000+09:00","ended_at":"2019-02-23T08:59:59.000+09:00","limit_number":null,"address":"24A, 1st Floor, Lorong Rahim Kajai 14, Taman Tun Dr. Ismail, 60000 Kuala Lumpur","place":"The Crackhouse Comedy Club KL","lat":3.15493,"lon":101.623,"state":"active","id":null},{"event_id":"591747","title":"2月17日(日)18:00～ 銀座 国際結婚したい人の為のGaitomo国際交流パーティー","url":"http://peatix.com/event/591747","shortener_url":null,"started_at":"2019-02-17T18:00:00.000+09:00","ended_at":"2019-02-20T08:59:59.000+09:00","limit_number":null,"address":"中央区銀座5丁目9−13 菊正ビル9F","place":"パーティプラネット「銀座ＰＰサロン」-貸切ダイニング-","lat":35.6699,"lon":139.765,"state":"active","id":null},{"event_id":"591792","title":"2月20日(水)19:00～恵比寿 仕事帰りに駅近のお洒落カフェで平日Gaitomo国際交流パーティー","url":"http://peatix.com/event/591792","shortener_url":null,"started_at":"2019-02-20T19:00:00.000+09:00","ended_at":"2019-02-23T08:59:59.000+09:00","limit_number":null,"address":"東京都渋谷区恵比寿南1-3-2","place":"恵比寿 dot. Grill and Bar ","lat":35.6457,"lon":139.708,"state":"active","id":null},{"event_id":"591487","title":"2月8日(金)19:00～★ 代官山 婚活恋活OnlyのGaitomo国際交流パーティー","url":"http://peatix.com/event/591487","shortener_url":null,"started_at":"2019-02-08T19:00:00.000+09:00","ended_at":"2019-02-11T08:59:59.000+09:00","limit_number":null,"address":"渋谷区恵比寿西1丁目34−17 B1F Za HOUSE ビル","place":"ユナイス 代官山","lat":35.6468,"lon":139.702,"state":"active","id":null},{"event_id":"592886","title":"2月14日(木)19:00～★ 日本橋 お仕事帰りにホテルレストランで平日Gaitomo国際交流パーティー","url":"http://peatix.com/event/592886","shortener_url":null,"started_at":"2019-02-14T19:00:00.000+09:00","ended_at":"2019-02-17T08:59:59.000+09:00","limit_number":null,"address":"東京都中央区日本橋室町3-4-4","place":"日本橋 SALONE VENDREDI","lat":35.6884,"lon":139.773,"state":"active","id":null},{"event_id":"591744","title":"2月16日(土)19:00～★ 西麻布 シックでお洒落なNYスタイルのバーでGaitomo国際交流パーティー","url":"http://peatix.com/event/591744","shortener_url":null,"started_at":"2019-02-16T19:00:00.000+09:00","ended_at":"2019-02-19T08:59:59.000+09:00","limit_number":null,"address":"Japan","place":"B612","lat":35.6621,"lon":139.726,"state":"active","id":null},{"event_id":"592176","title":"2月22日(金)19:00～★ 六本木 オーストラリアンバーでAUS絡みGaitomo国際交流パーティー","url":"http://peatix.com/event/592176","shortener_url":null,"started_at":"2019-02-22T19:00:00.000+09:00","ended_at":"2019-02-25T08:59:59.000+09:00","limit_number":null,"address":"港区六本木5丁目5−3−1 3F 第2レーヌビル","place":"Bar Quest","lat":35.6621,"lon":139.733,"state":"active","id":null},{"event_id":"590101","title":"2月6日(水)19:00～★ 銀座 帰宅前にちょこっと充実時間Gaitomo国際交流パーティー","url":"http://peatix.com/event/590101","shortener_url":null,"started_at":"2019-02-06T19:00:00.000+09:00","ended_at":"2019-02-09T08:59:59.000+09:00","limit_number":null,"address":"中央区 銀座4-3-5 ハトリビル4F","place":"POP INN.GINZA(ポップイン 銀座)","lat":35.6723,"lon":139.765,"state":"active","id":null},{"event_id":"591739","title":"2月15日(金)19:00～★ 原宿 トリックアートカフェでインスタ映えのGaitomo国際交流パーティー","url":"http://peatix.com/event/591739","shortener_url":null,"started_at":"2019-02-15T19:00:00.000+09:00","ended_at":"2019-02-18T08:59:59.000+09:00","limit_number":null,"address":"東京都渋谷区神宮前1-19-1","place":"原宿 Cafe Art ","lat":35.6717,"lon":139.704,"state":"active","id":null},{"event_id":"591733","title":"2月9日(土)19:00～★ 六本木 人気企画【シングル限定】土曜日のGaitomo国際交流パーティー","url":"http://peatix.com/event/591733","shortener_url":null,"started_at":"2019-02-09T19:00:00.000+09:00","ended_at":"2019-02-12T08:59:59.000+09:00","limit_number":null,"address":"港区六本木3丁目14−7 アロービルB1","place":"SEVEN SENSE","lat":35.6626,"lon":139.735,"state":"active","id":null},{"event_id":"592058","title":"2月23日(土)19:00～ 銀座 いい人に出会えたらいいな～Gaitomo国際交流パーティー","url":"http://peatix.com/event/592058","shortener_url":null,"started_at":"2019-02-23T19:00:00.000+09:00","ended_at":"2019-02-26T08:59:59.000+09:00","limit_number":null,"address":"中央区銀座4丁目2−17 B1F/1F 銀座111レジャービル","place":"LAPIS TOKYO(ラピストーキョー)銀座","lat":35.6728,"lon":139.764,"state":"active","id":null},{"event_id":"597461","title":"TEDxICU 2018","url":"http://peatix.com/event/597461","shortener_url":null,"started_at":"2019-02-24T13:00:00.000+09:00","ended_at":"2019-02-27T08:59:59.000+09:00","limit_number":null,"address":"東京都三鷹市大沢3-10-2","place":"国際基督教大学ディッフェンドルファー記念館　東棟","lat":35.6866,"lon":139.531,"state":"active","id":null},{"event_id":"586926","title":"※満席【注目コワーキング企業が集結！】共創をデザインするスペースとは","url":"http://peatix.com/event/586926","shortener_url":null,"started_at":"2019-02-18T19:00:00.000+09:00","ended_at":"2019-02-21T08:59:59.000+09:00","limit_number":null,"address":"千代田区神田練塀町3 富士ソフト秋葉原ビル","place":"DMM.make AKIBA","lat":35.7005,"lon":139.774,"state":"active","id":null},{"event_id":"592360","title":"第3回テニスの王子様研究発表会","url":"http://peatix.com/event/592360","shortener_url":null,"started_at":"2019-02-23T11:00:00.000+09:00","ended_at":"2019-02-26T08:59:59.000+09:00","limit_number":null,"address":"大田区南蒲田1丁目20−20","place":"大田区産業プラザPiO","lat":35.5588,"lon":139.724,"state":"active","id":null},{"event_id":"598779","title":"KRD Nihombashi Studio 【2月女性限定・夜の部】 自分のための時間に、ありのままの自分に戻る。 ～ マインドフルネスのヨガでココロもカラダも開放してエナジーチャージ！～","url":"http://peatix.com/event/598779","shortener_url":null,"started_at":"2019-02-06T18:00:00.000+09:00","ended_at":"2019-02-09T08:59:59.000+09:00","limit_number":null,"address":"中央区日本橋本町4丁目4","place":"KRD Nihombashi (KRD日本橋)","lat":35.69,"lon":139.773,"state":"active","id":null},{"event_id":"593694","title":"３時間で身につける！周りの目を気にせずに本当に望む毎日を手に入れる自信の作り方「ぬいぐるみ心理学1day講座」 #11","url":"http://20191daikouza04.peatix.com","shortener_url":null,"started_at":"2019-02-10T11:00:00.000+09:00","ended_at":"2019-02-13T08:59:59.000+09:00","limit_number":null,"address":"東京都品川区大崎","place":"品川区の会議室（JR大崎駅が最寄りです。申込者に詳細をお伝えします）","lat":0.0,"lon":0.0,"state":"active","id":null},{"event_id":"592163","title":"2月28日(木)19:00～★ 新宿御苑 本場ナポリピッツァが食べれる平日Gaitomo国際交流パーティー","url":"http://peatix.com/event/592163","shortener_url":null,"started_at":"2019-02-28T19:00:00.000+09:00","ended_at":"2019-03-03T08:59:59.000+09:00","limit_number":null,"address":"新宿区新宿2丁目8−1","place":"ピッツァナポレターノカフェ 新宿御苑前店","lat":35.689,"lon":139.71,"state":"active","id":null},{"event_id":"595207","title":"Private Island Takeover | 1 - 3 Feb weekend","url":"http://privateisland.peatix.com","shortener_url":null,"started_at":"2019-02-01T17:30:00.000+09:00","ended_at":"2019-02-04T08:59:59.000+09:00","limit_number":null,"address":"1 Maritime Square","place":"Harbourfront Centre","lat":1.26486,"lon":103.821,"state":"active","id":null},{"event_id":"592059","title":"2月24(日)18:00～★ 麻布十番 目的別ブレスレットで出会い率アップGaitomo国際交流パーティー","url":"http://peatix.com/event/592059","shortener_url":null,"started_at":"2019-02-24T18:00:00.000+09:00","ended_at":"2019-02-27T08:59:59.000+09:00","limit_number":null,"address":"港区麻布十番1丁目9−2 7F","place":"SPUTNIK LOUNGE","lat":35.6564,"lon":139.735,"state":"active","id":null},{"event_id":"594058","title":"『Café and Bar Dante`s Peak』オトメイトビル営業イベント","url":"http://cafe-and-bar-dantepeak.peatix.com","shortener_url":null,"started_at":"2019-02-10T18:00:00.000+09:00","ended_at":"2019-02-13T08:59:59.000+09:00","limit_number":null,"address":"豊島区東池袋1丁目23−5","place":"オトメイトビル","lat":35.7292,"lon":139.716,"state":"active","id":null},{"event_id":"594735","title":"【残席僅か】Fireside Chat with MICHELLE E. MESSINA in Tokyo","url":"http://firesidechat2019-2-18.peatix.com","shortener_url":null,"started_at":"2019-02-18T19:00:00.000+09:00","ended_at":"2019-02-21T08:59:59.000+09:00","limit_number":null,"address":"東京都渋谷区道玄坂一丁目10番8号","place":"Plug and Play Shibuya powered by 東急不動産","lat":35.657,"lon":139.699,"state":"active","id":null},{"event_id":"592605","title":"Beautify your PowerPoint with Infographics Course (SkillsFuture Eligible)","url":"http://effective-powerpoint-design-course-weekend2019.peatix.com","shortener_url":null,"started_at":"2019-02-23T11:00:00.000+09:00","ended_at":"2019-02-26T08:59:59.000+09:00","limit_number":null,"address":"6 Raffles Quay","place":"6 Raffles Quay, #15-00","lat":1.28179,"lon":103.851,"state":"active","id":null},{"event_id":"596587","title":"Tokyo Best Nightclub Disco International Aitai Party DiA Tokyo Japan Nightlife Meet Japanese Girls Travelers Tourists meetup Every Friday Saturday public holiday Dance club","url":"http://tokyo-best-night-time-attraction-dia-aitai-party.peatix.com","shortener_url":null,"started_at":"2019-02-10T23:45:00.000+09:00","ended_at":"2019-02-13T08:59:59.000+09:00","limit_number":null,"address":"Minatoku Roppongi 3-8-15 Tokyo","place":"DiA Tokyo Roppongi","lat":35.6634,"lon":139.734,"state":"active","id":null},{"event_id":"586889","title":"第2回　医学・看護学生のための臨床以外のキャリアを考えるセミナー","url":"http://medicalcareervol2.peatix.com","shortener_url":null,"started_at":"2019-02-11T09:00:00.000+09:00","ended_at":"2019-02-14T08:59:59.000+09:00","limit_number":null,"address":"渋谷区道玄坂2丁目10−7 2F 新大宗ビル1号館","place":"BOOK LAB TOKYO - 書店とコーヒースタンド 渋谷店","lat":35.6583,"lon":139.697,"state":"active","id":null},{"event_id":"591267","title":"Party All Night at the Biggest Nightclub in Tokyo Disco International Aitai Party DiA Tokyo Japan Nightlife Meet Japanese Girls Travelers Tourists meetup Every Friday Saturday public holiday Dance club","url":"http://party-allnight-nightclub-dia-tokyo-roppongi-aitai.peatix.com","shortener_url":null,"started_at":"2019-02-23T23:50:00.000+09:00","ended_at":"2019-02-26T08:59:59.000+09:00","limit_number":null,"address":"Minatoku Roppongi 3-8-15 Tokyo","place":"DiA Tokyo Roppongi","lat":35.6634,"lon":139.734,"state":"active","id":null},{"event_id":"598191","title":"立ち読み会@大阪 ―技術書/専門書の試し読みイベント―","url":"http://tachiyomi-190216.peatix.com","shortener_url":null,"started_at":"2019-02-16T15:00:00.000+09:00","ended_at":"2019-02-19T08:59:59.000+09:00","limit_number":null,"address":"大阪市北区大深町4−20 グランフロント大阪タワーA 35F","place":"さくらインターネット本社","lat":34.7043,"lon":135.495,"state":"active","id":null},{"event_id":"103889","title":"立ち読み会@大阪 ―技術書典/コミケ新刊あります！―","url":"https://atnd.org/events/103889","shortener_url":null,"started_at":"2019-02-16T15:00:00.000+09:00","ended_at":"2019-02-16T17:00:00.000+09:00","limit_number":20,"address":"大阪市北区大深町4番20号","place":"さくらインターネット本社(グランフロント大阪タワーA 35階)","lat":34.704,"lon":135.495,"state":"closed","id":null},{"event_id":"600711","title":"滝の上の家庭菜園と季節のジャム ｜南伊豆くらし図鑑","url":"http://peatix.com/event/600711","shortener_url":null,"started_at":"2019-02-26T13:00:00.000+09:00","ended_at":"2019-03-01T08:59:59.000+09:00","limit_number":null,"address":"静岡県賀茂郡南伊豆町伊浜","place":"静岡県賀茂郡南伊豆町","lat":0.0,"lon":0.0,"state":"active","id":null},{"event_id":"599553","title":"【2/15 16:00~】IoTモノづくり研修 　第8回モノづくりブートキャンプの説明会","url":"http://sharp-bootcamp0215-2.peatix.com","shortener_url":null,"started_at":"2019-02-15T16:00:00.000+09:00","ended_at":"2019-02-18T08:59:59.000+09:00","limit_number":null,"address":"東京都千代田区神田練塀町3富士ソフトビル","place":"DMM.make AKIBA 12F Base","lat":35.7003,"lon":139.774,"state":"active","id":null},{"event_id":"599557","title":"【2/6 16:00~】IoTモノづくり研修 　第8回モノづくりブートキャンプの説明会","url":"http://sharp-bootcamp0206-2.peatix.com","shortener_url":null,"started_at":"2019-02-06T16:00:00.000+09:00","ended_at":"2019-02-09T08:59:59.000+09:00","limit_number":null,"address":"東京都千代田区神田練塀町3富士ソフトビル","place":"DMM.make AKIBA 12F Base","lat":35.7003,"lon":139.774,"state":"active","id":null},{"event_id":"599552","title":"【2/15 18:00~】IoTモノづくり研修 　第8回モノづくりブートキャンプの説明会","url":"http://sharp-bootcamp0215-3.peatix.com","shortener_url":null,"started_at":"2019-02-15T18:00:00.000+09:00","ended_at":"2019-02-18T08:59:59.000+09:00","limit_number":null,"address":"東京都千代田区神田練塀町3富士ソフトビル","place":"DMM.make AKIBA 12F Base","lat":35.7003,"lon":139.774,"state":"active","id":null},{"event_id":"599551","title":"【2/20 14:00~】IoTモノづくり研修 　第8回モノづくりブートキャンプの説明会","url":"http://sharp-bootcamp0220-1.peatix.com","shortener_url":null,"started_at":"2019-02-20T14:00:00.000+09:00","ended_at":"2019-02-23T08:59:59.000+09:00","limit_number":null,"address":"東京都千代田区神田練塀町3富士ソフトビル","place":"DMM.make AKIBA 12F Base","lat":35.7003,"lon":139.774,"state":"active","id":null},{"event_id":"599556","title":"【2/6 18:00~】IoTモノづくり研修 　第8回モノづくりブートキャンプの説明会","url":"http://sharp-bootcamp0206-3.peatix.com","shortener_url":null,"started_at":"2019-02-06T18:00:00.000+09:00","ended_at":"2019-02-09T08:59:59.000+09:00","limit_number":null,"address":"東京都千代田区神田練塀町3富士ソフトビル","place":"DMM.make AKIBA 12F Base","lat":35.7003,"lon":139.774,"state":"active","id":null},{"event_id":"599549","title":"【2/20 18:00~】IoTモノづくり研修 　第8回モノづくりブートキャンプの説明会","url":"http://sharp-bootcamp0220-3.peatix.com","shortener_url":null,"started_at":"2019-02-20T18:00:00.000+09:00","ended_at":"2019-02-23T08:59:59.000+09:00","limit_number":null,"address":"東京都千代田区神田練塀町3富士ソフトビル","place":"DMM.make AKIBA 12F Base","lat":35.7003,"lon":139.774,"state":"active","id":null},{"event_id":"599383","title":"【2/6 14:00~】IoTモノづくり研修 　第8回モノづくりブートキャンプの説明会","url":"http://sharp-bootcamp0206-1.peatix.com","shortener_url":null,"started_at":"2019-02-06T14:00:00.000+09:00","ended_at":"2019-02-09T08:59:59.000+09:00","limit_number":null,"address":"東京都千代田区神田練塀町3富士ソフトビル","place":"DMM.make AKIBA 12F Base","lat":35.7003,"lon":139.774,"state":"active","id":null},{"event_id":"599554","title":"【2/15 14:00~】IoTモノづくり研修 　第8回モノづくりブートキャンプの説明会","url":"http://sharp-bootcamp0215-1.peatix.com","shortener_url":null,"started_at":"2019-02-15T14:00:00.000+09:00","ended_at":"2019-02-18T08:59:59.000+09:00","limit_number":null,"address":"東京都千代田区神田練塀町3富士ソフトビル","place":"DMM.make AKIBA 12F Base","lat":35.7003,"lon":139.774,"state":"active","id":null},{"event_id":"599550","title":"【2/20 16:00~】IoTモノづくり研修 　第8回モノづくりブートキャンプの説明会","url":"http://sharp-bootcamp0220-2.peatix.com","shortener_url":null,"started_at":"2019-02-20T16:00:00.000+09:00","ended_at":"2019-02-23T08:59:59.000+09:00","limit_number":null,"address":"東京都千代田区神田練塀町3富士ソフトビル","place":"DMM.make AKIBA 12F Base","lat":35.7003,"lon":139.774,"state":"active","id":null},{"event_id":"596920","title":"オープンイノベーション最前線 〜イスラエルの最新スタートアップ動向〜","url":"http://clue20190207.peatix.com","shortener_url":null,"started_at":"2019-02-07T18:00:00.000+09:00","ended_at":"2019-02-10T08:59:59.000+09:00","limit_number":null,"address":"愛知県豊橋市駅前大通1-135","place":"MUSASHi Innovation Lab CLUE","lat":34.7623,"lon":137.383,"state":"active","id":null},{"event_id":"598851","title":"家業イノベーション・ラボ主催：石見麦酒（島根県江津市）の創業者山口厳雄氏による「一日の〆（シメ）に彩を与えるクラフトビールの 『マジック・アワー』」","url":"http://fbil-iwamibakushu.peatix.com","shortener_url":null,"started_at":"2019-02-22T18:00:00.000+09:00","ended_at":"2019-02-25T08:59:59.000+09:00","limit_number":null,"address":"東京都世田谷区玉川1丁目14番1号","place":"二子玉川 蔦屋家電 ２階ダイニング","lat":35.6106,"lon":139.63,"state":"active","id":null},{"event_id":"598566","title":"2/23(土) おどりばのいどばた #10「おどりば ってなんですか？」","url":"http://odoriba-idobata-10.peatix.com","shortener_url":null,"started_at":"2019-02-23T18:00:00.000+09:00","ended_at":"2019-02-26T08:59:59.000+09:00","limit_number":null,"address":"長野県長野市長野西之門町500-1","place":"西の門ホワイトハウス","lat":0.0,"lon":0.0,"state":"active","id":null},{"event_id":"598984","title":"International Party night time in Tokyo Best Nightclub Disco Aitai Party DiA Tokyo Japan Nightlife Meet Japanese Girls Travelers Tourists meetup Every Friday Saturday public holiday Dance club","url":"http://peatix.com/event/598984","shortener_url":null,"started_at":"2019-02-23T23:50:00.000+09:00","ended_at":"2019-02-26T08:59:59.000+09:00","limit_number":null,"address":"Minatoku Roppongi 3-8-15 Tokyo","place":"DiA Tokyo Roppongi","lat":35.6634,"lon":139.734,"state":"active","id":null},{"event_id":"86817","title":"2/14(木) [参加特典付] 英語でウェブ解析士認定講座体験セミナー (WACA x スパルタ英会話共催)","url":"https://web-mining.doorkeeper.jp/events/86817","shortener_url":null,"started_at":"2019-02-14T19:30:00.000+09:00","ended_at":"2019-02-14T21:30:00.000+09:00","limit_number":20,"address":"東京都新宿区新宿1-12-3 ガーデンビル3F","place":"スパルタ英会話","lat":35.6887,"lon":139.712,"state":"active","id":null},{"event_id":"599388","title":"SDGsを自分ごと化しよう！ハテナソン〜アイデアソン IN 札幌","url":"http://peatix.com/event/599388","shortener_url":"https://goo.gl/jMmqWw","started_at":"2019-02-24T10:30:00.000+09:00","ended_at":"2019-02-27T08:59:59.000+09:00","limit_number":null,"address":"〒060-0002札幌市中央区北2条西3丁目1-29 タケサトビル","place":"コワーキングスペース カンテ","lat":43.0642,"lon":141.353,"state":"active","id":null},{"event_id":"598860","title":"【2/23~24開催】まだやってない！？みんなで「確定申告にトライ！合宿」で乗り切ろう","url":"http://weekend20190223.peatix.com","shortener_url":null,"started_at":"2019-02-23T12:30:00.000+09:00","ended_at":"2019-02-26T08:59:59.000+09:00","limit_number":null,"address":"都留市田原2丁目14−8 小宮ビル2F","place":"コワーキングコミュニティteraco.","lat":35.5414,"lon":138.898,"state":"active","id":null},{"event_id":"601372","title":"【2/23〜24 女子フリ 】0から始めるブログ立ち上げ＆ライティング講座！","url":"http://peatix.com/event/601372","shortener_url":null,"started_at":"2019-02-23T12:30:00.000+09:00","ended_at":"2019-02-26T08:59:59.000+09:00","limit_number":null,"address":"千葉県 いすみ市深堀1712-1","place":"コワーキングコミュニティhinode","lat":35.2596,"lon":140.398,"state":"active","id":null},{"event_id":"597249","title":"【2/26(火)・参加無料】フェイスブック活用の達人に聞くLinkedInの使い方","url":"http://limeetup.peatix.com","shortener_url":null,"started_at":"2019-02-26T18:00:00.000+09:00","ended_at":"2019-03-01T08:59:59.000+09:00","limit_number":null,"address":"千代田区丸の内1丁目5−1","place":"新丸の内ビルディング","lat":35.6826,"lon":139.764,"state":"active","id":null},{"event_id":"601184","title":"紗ら+【本日のマスター】ドローンバード古橋大地の「地図バー〜ドローン」","url":"http://sarasara20190222.peatix.com","shortener_url":null,"started_at":"2019-02-22T19:00:00.000+09:00","ended_at":"2019-02-25T08:59:59.000+09:00","limit_number":null,"address":"調布市深大寺元町1丁目11","place":"紗ら＋（さらさら）","lat":35.6625,"lon":139.548,"state":"active","id":null},{"event_id":"595536","title":"緊急企画！「あまのがわ」公開前日、古新舜監督と映画について考える2時間","url":"http://socialstand50.peatix.com","shortener_url":null,"started_at":"2019-02-08T19:00:00.000+09:00","ended_at":"2019-02-11T08:59:59.000+09:00","limit_number":null,"address":"〒160-0015 東京都新宿区大京町2-4 サウンドビル2F","place":" gladspace2階","lat":35.6867,"lon":139.718,"state":"active","id":null},{"event_id":"599874","title":"【オンライン講座】グーグルアナリティクス講座 (2/28)","url":"http://peatix.com/event/599874","shortener_url":null,"started_at":"2019-02-28T13:00:00.000+09:00","ended_at":"2019-03-03T08:59:59.000+09:00","limit_number":null,"address":"日本","place":"ご自宅のPC","lat":0.0,"lon":0.0,"state":"active","id":null},{"event_id":"600974","title":"i Light Singapore Walking Tour (February 2019)","url":"http://ilightsingaporewalkingtour2019.peatix.com","shortener_url":null,"started_at":"2019-02-10T20:30:00.000+09:00","ended_at":"2019-02-13T08:59:59.000+09:00","limit_number":null,"address":"80 Collyer Quay","place":"Clifford Square","lat":1.28442,"lon":103.854,"state":"active","id":null},{"event_id":"599137","title":"SHAGGERS! - A Comedy Show about Love, Life, and Shagging!","url":"http://shaggers13feb.peatix.com","shortener_url":null,"started_at":"2019-02-13T22:00:00.000+09:00","ended_at":"2019-02-16T08:59:59.000+09:00","limit_number":null,"address":"24A Lorong Rahim Kajai 14, Taman Tun Dr. Ismail, 60000 Kuala Lumpur","place":"Crackhouse Comedy Club KL","lat":3.15474,"lon":101.623,"state":"active","id":null},{"event_id":"601138","title":"誰も知らない！「バリアフリーがなぜ魅力なのか？」セミナー　～考え方を知ることで人のお役に立てるだけでなく得にもつながるノウハウ～","url":"http://peatix.com/event/601138","shortener_url":null,"started_at":"2019-02-23T10:45:00.000+09:00","ended_at":"2019-02-26T08:59:59.000+09:00","limit_number":null,"address":"千代田区神田錦町3丁目21","place":"ちよだプラットフォームスクウェア","lat":35.6914,"lon":139.762,"state":"active","id":null},{"event_id":"599315","title":"KRD Nihombashi Studio 【2月女性限定・午後の部】自分らしく素敵に歳を重ねるために－忙しいアナタのためのマインドフルネス×チェアヨガ","url":"http://peatix.com/event/599315","shortener_url":null,"started_at":"2019-02-05T13:30:00.000+09:00","ended_at":"2019-02-08T08:59:59.000+09:00","limit_number":null,"address":"中央区日本橋本町4丁目4","place":"KRD Nihombashi (KRD日本橋)","lat":35.69,"lon":139.773,"state":"active","id":null},{"event_id":"599561","title":"Meet the Teacher #2　フィンランド・オウル大学教員養成学校（オンライン参加可）","url":"http://learnforlife20190215.peatix.com","shortener_url":null,"started_at":"2019-02-15T19:00:00.000+09:00","ended_at":"2019-02-18T08:59:59.000+09:00","limit_number":null,"address":"東京都港区六本木7-20-18 六本木ポイント720","place":"東京・六本木ポイント720 2階（オンライン参加可）","lat":0.0,"lon":0.0,"state":"active","id":null},{"event_id":"86630","title":"お料理ゲームジャム 2019","url":"https://igda-ryukyus.doorkeeper.jp/events/86630","shortener_url":"https://goo.gl/ybfgEY","started_at":"2019-02-23T08:30:00.000+09:00","ended_at":"2019-02-24T21:00:00.000+09:00","limit_number":40,"address":"沖縄県中頭郡西原町字千原1","place":"琉球大学工学部 新棟508実験室","lat":26.2476,"lon":127.765,"state":"active","id":null},{"event_id":"103975","title":"【途中参加でも大丈夫！】生き方の多様性や豊かさを学ぶ Art × Programming 集中講座","url":"https://atnd.org/events/103975","shortener_url":null,"started_at":"2019-02-20T19:00:00.000+09:00","ended_at":"2019-02-20T21:00:00.000+09:00","limit_number":20,"address":"東京都品川区北品川4-7-35御殿山トラストタワー6F","place":"株式会社Beenos","lat":35.6222,"lon":139.737,"state":"closed","id":null},{"event_id":"599368","title":"秋葉原アイディアソンVol.2「アキバ拡張作戦」","url":"http://akibaideathon2.peatix.com","shortener_url":"https://goo.gl/5c4Jkv","started_at":"2019-02-26T18:30:00.000+09:00","ended_at":"2019-03-01T08:59:59.000+09:00","limit_number":null,"address":"東京都千代田区外神田4-14-1","place":"LIFORK AKIHABARA STYLE ROOM E（秋葉原UDX4F）","lat":35.7005,"lon":139.773,"state":"active","id":null},{"event_id":"602136","title":"【東海テレビ放送×Code for】視聴データを社会課題に活かすアイデアソン！－３","url":"http://tokaitvcodefor3.peatix.com","shortener_url":"https://goo.gl/i36yiX","started_at":"2019-02-21T19:00:00.000+09:00","ended_at":"2019-02-24T08:59:59.000+09:00","limit_number":null,"address":"東区東桜1丁目14−27","place":"東海テレビ放送","lat":35.1712,"lon":136.914,"state":"active","id":null},{"event_id":"602113","title":"【東海テレビ放送×Code for】視聴データを社会課題に活かすアイデアソン！－２","url":"http://peatix.com/event/602113","shortener_url":"https://goo.gl/tmYJGL","started_at":"2019-02-17T15:00:00.000+09:00","ended_at":"2019-02-20T08:59:59.000+09:00","limit_number":null,"address":"東区東桜1丁目14−27","place":"東海テレビ放送","lat":35.1712,"lon":136.914,"state":"active","id":null},{"event_id":"600490","title":"ファッション～大工～リノベーション、異色のクリエイターから学ぶこれからのデザイナー論","url":"http://inc-line-6thtimesevents.peatix.com","shortener_url":null,"started_at":"2019-02-12T19:00:00.000+09:00","ended_at":"2019-02-15T08:59:59.000+09:00","limit_number":null,"address":"渋谷区渋谷3丁目9−10 渋谷アサヒビル5階","place":"Inc-line","lat":35.6572,"lon":139.704,"state":"active","id":null},{"event_id":"601498","title":"【ゴルフ好きは集合】日本に残るのはわずか5社！ 国産ゴルフバッグ専門工場「小山ゴルフバッグ製作所」 トークショー\u0026ゴルフバッグ製作工程 体験会！","url":"http://peatix.com/event/601498","shortener_url":null,"started_at":"2019-02-16T10:30:00.000+09:00","ended_at":"2019-02-19T08:59:59.000+09:00","limit_number":null,"address":"中央区銀座8丁目12−11 第 二 サンビル 3F","place":"ファクトリエ","lat":35.6673,"lon":139.763,"state":"active","id":null},{"event_id":"601863","title":"A Tribute to Nujabes in Tokyo","url":"http://nujabestokyo2019.peatix.com","shortener_url":null,"started_at":"2019-02-23T23:00:00.000+09:00","ended_at":"2019-02-26T08:59:59.000+09:00","limit_number":null,"address":"渋谷区渋谷3丁目26−16 1F/B1F 第五叶ビル","place":"Circus Tokyo","lat":35.6542,"lon":139.706,"state":"active","id":null},{"event_id":"600655","title":"STO入門編　　 〜STOの概要と可能性〜","url":"http://vrmk0226.peatix.com","shortener_url":null,"started_at":"2019-02-26T19:00:00.000+09:00","ended_at":"2019-03-01T08:59:59.000+09:00","limit_number":null,"address":"渋谷区渋谷2-15-1   渋谷クロスタワー32F(最上階)","place":"渋谷クロスタワー32F（最上階）","lat":35.6588,"lon":139.705,"state":"active","id":null},{"event_id":"103983","title":"【プログラミング初心者歓迎！】生き方の多様性や豊かさを学ぶ Art × Programming 集中講座","url":"https://atnd.org/events/103983","shortener_url":null,"started_at":"2019-02-13T19:00:00.000+09:00","ended_at":"2019-02-13T21:00:00.000+09:00","limit_number":20,"address":"東京都品川区北品川4-7-35御殿山トラストタワー6F","place":"株式会社Beenos","lat":35.6222,"lon":139.737,"state":"closed","id":null},{"event_id":"601427","title":"U35農山漁村ビジネスアイデアソン in INACOME Pitch Day 農林水産省が仕掛けるビジネス支援事業","url":"http://100banch-inacome.peatix.com","shortener_url":"https://goo.gl/2evRbs","started_at":"2019-02-23T10:00:00.000+09:00","ended_at":"2019-02-26T08:59:59.000+09:00","limit_number":null,"address":"渋谷区渋谷3丁目27−1","place":"100BANCH","lat":35.656,"lon":139.705,"state":"active","id":null},{"event_id":"600675","title":"成長環境体感イベント in 東京　～スタートアップを体感しよう！社長の話が聞けます！！～","url":"http://peatix.com/event/600675","shortener_url":null,"started_at":"2019-02-23T18:00:00.000+09:00","ended_at":"2019-02-26T08:59:59.000+09:00","limit_number":null,"address":"東京都中央区日本橋堀留町2-1-1","place":"個室居酒屋 鶏十兵衛 人形町店","lat":35.6875,"lon":139.782,"state":"active","id":null},{"event_id":"601314","title":"Facebook Developer Circle Osaka 新プロダクトアイデアの種（Amazon,Googleのシステムの仕組み x デザイン思考）","url":"http://devcosaka2019vol2.peatix.com","shortener_url":null,"started_at":"2019-02-16T18:30:00.000+09:00","ended_at":"2019-02-19T08:59:59.000+09:00","limit_number":null,"address":"大阪市北区 大深町3番1号 グランフロント大阪 ナレッジキャピタルタワーC 7階","place":"大阪イノベーションハブ","lat":34.7059,"lon":135.495,"state":"active","id":null},{"event_id":"601141","title":"【Revol×NGL Community×未来技術推進協会コラボイベント】SDGsの本質が学べるボードゲームを用いたワーショップ","url":"http://peatix.com/event/601141","shortener_url":null,"started_at":"2019-02-11T13:20:00.000+09:00","ended_at":"2019-02-14T08:59:59.000+09:00","limit_number":null,"address":"東京都豊島区東池袋4-24-8ビーバーズビル4F","place":"株式会社フォルステージ ","lat":0.0,"lon":0.0,"state":"active","id":null},{"event_id":"598829","title":"【大好評！】現役セキュリティ研究者から学ぶ『What's up?セキュリティ』　～監視カメラのぞき見からサイバーテロまで～","url":"http://peatix.com/event/598829","shortener_url":null,"started_at":"2019-02-20T19:30:00.000+09:00","ended_at":"2019-02-23T08:59:59.000+09:00","limit_number":null,"address":"東京都新宿区西新宿7丁目8ー11 中川ビル6階","place":"ふれあいセミナールーム　新宿⑫","lat":35.6957,"lon":139.698,"state":"active","id":null},{"event_id":"600848","title":"IoT.make Kyoto camp","url":"http://peatix.com/event/600848","shortener_url":null,"started_at":"2019-02-12T10:00:00.000+09:00","ended_at":"2019-02-15T08:59:59.000+09:00","limit_number":null,"address":"〒600-8815, 93 中堂寺粟田町, 下京区 京都市","place":"京都リサーチパーク四号館　地下1階バンケットホール","lat":34.995,"lon":135.737,"state":"active","id":null},{"event_id":"602461","title":"IoT.make Tachikawa camp","url":"http://peatix.com/event/602461","shortener_url":null,"started_at":"2019-02-21T10:00:00.000+09:00","ended_at":"2019-02-24T08:59:59.000+09:00","limit_number":null,"address":"東京都立川市栄町6丁目1−3","place":"Dynabook株式会社※立川事業所","lat":35.7143,"lon":139.424,"state":"active","id":null},{"event_id":"602521","title":"はじめての鋳造教室vol.１　 iPhoneアプリで型を作って チャーム付き錫リングを鋳造してみよう","url":"http://peatix.com/event/602521","shortener_url":null,"started_at":"2019-02-24T13:30:00.000+09:00","ended_at":"2019-02-27T08:59:59.000+09:00","limit_number":null,"address":"アーク 森 ビル 3 階 日本, 1丁目-12-32 赤坂, 港区","place":"TechShop Tokyo","lat":35.6668,"lon":139.74,"state":"active","id":null},{"event_id":"601421","title":"【30社限定！※参加条件有】その場で診断、すぐ分かる。あのHagakure提唱者米満氏と90分でGoogleAdsアカウントを診断し、改善点を丸裸にするワークショップを共同開催","url":"http://fringe-seminar-20180213.peatix.com","shortener_url":null,"started_at":"2019-02-13T17:00:00.000+09:00","ended_at":"2019-02-16T08:59:59.000+09:00","limit_number":null,"address":"東京都港区六本木3-2-1","place":"Fringe81株式会社(住友不動産六本木グランドタワー 43F)","lat":35.6646,"lon":139.738,"state":"active","id":null},{"event_id":"600662","title":"2019年02月度 アフィリエイトで、月10万円をめざすためのモクモク作業会","url":"http://peatix.com/event/600662","shortener_url":null,"started_at":"2019-02-18T13:00:00.000+09:00","ended_at":"2019-02-21T08:59:59.000+09:00","limit_number":null,"address":"大阪府大阪市淀川区西中島3-19-8","place":"https://www.instabase.jp/space/426","lat":34.7267,"lon":135.499,"state":"active","id":null},{"event_id":"601190","title":"1900円 VALENTINES DAY PREMIUM STEAK DINNER","url":"http://peatix.com/event/601190","shortener_url":null,"started_at":"2019-02-14T19:45:00.000+09:00","ended_at":"2019-02-17T08:59:59.000+09:00","limit_number":null,"address":"542-0086 Osaka Prefecture, Osaka, Chuo Ward, Nishishinsaibashi, 1 Chome−9−16","place":"Safari restaurant","lat":34.6729,"lon":135.499,"state":"active","id":null},{"event_id":"86657","title":"Grobal Startup Weekend アジアチャンピオンが語る!! Startup Weekend での戦い方 ～ 東京2020を契機とするソーシャルイノベーション プレイベント～","url":"https://swtokyo.doorkeeper.jp/events/86657","shortener_url":null,"started_at":"2019-02-26T19:30:00.000+09:00","ended_at":"2019-02-26T21:30:00.000+09:00","limit_number":20,"address":"東京都港区赤坂1-12-32 アーク森ビル3F","place":"インキュベイトファンド","lat":35.6671,"lon":139.74,"state":"active","id":null},{"event_id":"600659","title":"超簡単！思わず深呼吸したくなる、和紙とハーブで野山が香る部屋飾りを作る！","url":"http://inochinokanshasai223.peatix.com","shortener_url":null,"started_at":"2019-02-23T11:00:00.000+09:00","ended_at":"2019-02-26T08:59:59.000+09:00","limit_number":null,"address":"世田谷区池尻2丁目4−5","place":"IID 世田谷ものづくり学校","lat":35.6457,"lon":139.681,"state":"active","id":null},{"event_id":"602967","title":"Late Night Improv at the Crackhouse w. AiiA! ft. Phoon Chi Ho \u0026 Alfred Loh!","url":"http://improv21feb.peatix.com","shortener_url":null,"started_at":"2019-02-21T22:00:00.000+09:00","ended_at":"2019-02-24T08:59:59.000+09:00","limit_number":null,"address":"24, Lorong Rahim Kajai 14, Taman Tun Dr Ismail, 60000 Kuala Lumpur, Wilayah Persekutuan Kuala Lumpur, Malaysia","place":"The Crackhouse Comedy Club KL","lat":3.15474,"lon":101.623,"state":"active","id":null},{"event_id":"603571","title":"Studio Lighting Deconstruct: Basics of Food Photography","url":"http://basicsoffoodphotography.peatix.com","shortener_url":null,"started_at":"2019-02-27T20:00:00.000+09:00","ended_at":"2019-03-02T08:59:59.000+09:00","limit_number":null,"address":"Level 6 Vanguard Campus, 1 Kallang Junction","place":"The Hive Lavender","lat":1.31245,"lon":103.864,"state":"active","id":null},{"event_id":"104075","title":"※途中参加可能最終日【初心者歓迎！】生き方の多様性や豊かさを学ぶ Art × Programming集中講座","url":"https://atnd.org/events/104075","shortener_url":null,"started_at":"2019-02-27T19:00:00.000+09:00","ended_at":"2019-02-27T21:00:00.000+09:00","limit_number":20,"address":"〒140-0001 東京都品川区北品川4-7-35 御殿山トラストタワー6F","place":"株式会社Beenos","lat":35.6222,"lon":139.737,"state":"closed","id":null},{"event_id":"104074","title":"毎週日曜日開催！Processingで学ぶArt × Programming 無料体験授業","url":"https://atnd.org/events/104074","shortener_url":null,"started_at":"2019-02-24T10:00:00.000+09:00","ended_at":"2019-02-24T12:00:00.000+09:00","limit_number":10,"address":"東京都港区北青山2丁目7−26 Landwork青山ビル 2階","place":"CROSSCOOP青山  ","lat":35.6715,"lon":139.717,"state":"closed","id":null},{"event_id":"104073","title":"毎週日曜日開催！Processingで学ぶArt × Programming 無料体験授業","url":"https://atnd.org/events/104073","shortener_url":null,"started_at":"2019-02-17T10:00:00.000+09:00","ended_at":"2019-02-17T12:00:00.000+09:00","limit_number":10,"address":"東京都港区北青山2丁目7−26 Landwork青山ビル 2階","place":"CROSSCOOP青山  ","lat":35.6715,"lon":139.717,"state":"closed","id":null},{"event_id":"594797","title":"Japan Dancers' Championship 2019 FINAL","url":"http://peatix.com/event/594797","shortener_url":null,"started_at":"2019-02-14T16:00:00.000+09:00","ended_at":"2019-02-17T08:59:59.000+09:00","limit_number":null,"address":"江東区青海1丁目1−10","place":"Zepp ダイバーシティ東京","lat":35.6246,"lon":139.775,"state":"active","id":null},{"event_id":"604235","title":"【借金インフルエンサーしゅうへい講演会 in 静岡】","url":"http://shuheisizoka.peatix.com","shortener_url":null,"started_at":"2019-02-17T14:00:00.000+09:00","ended_at":"2019-02-20T08:59:59.000+09:00","limit_number":null,"address":"藤枝市前島1丁目7−10","place":"フリーエース美容学校","lat":34.8476,"lon":138.253,"state":"active","id":null},{"event_id":"604181","title":"nest Dataful Day vol.2","url":"http://peatix.com/event/604181","shortener_url":null,"started_at":"2019-02-20T15:00:00.000+09:00","ended_at":"2019-02-23T08:59:59.000+09:00","limit_number":null,"address":"港区六本木三丁目2−1","place":"住友不動産六本木グランドタワー","lat":35.6647,"lon":139.738,"state":"active","id":null},{"event_id":"604056","title":"Take A Pause with Mindfulness: Thur 28 Feb 2019","url":"http://takeapause28feb2019.peatix.com","shortener_url":null,"started_at":"2019-02-28T20:30:00.000+09:00","ended_at":"2019-03-03T08:59:59.000+09:00","limit_number":null,"address":"190 Clemenceau Avenue","place":"#04-10 Singapore Shopping Centre","lat":1.2981,"lon":103.844,"state":"active","id":null},{"event_id":"603106","title":"関係人口を創造する未活用不動産 〜固定概念を超えた先にある日本のポテンシャル〜","url":"http://peatix.com/event/603106","shortener_url":null,"started_at":"2019-02-21T19:30:00.000+09:00","ended_at":"2019-02-24T08:59:59.000+09:00","limit_number":null,"address":"中央区日本橋茅場町1丁目5−8","place":"CAFE SALVADOR","lat":35.6806,"lon":139.78,"state":"active","id":null},{"event_id":"604612","title":"【静岡開催！お土産付】「“カッコいい”農業」実践者と探る、地方のかっこいい働き方とは？１Dayツアー アグリビジネスフィールドワーク　〈静岡編〉","url":"http://pasona-nouentai-shizuoka.peatix.com","shortener_url":null,"started_at":"2019-02-23T09:30:00.000+09:00","ended_at":"2019-02-26T08:59:59.000+09:00","limit_number":null,"address":"静岡市葵区御幸町11−8 レイアップ御幸町ビル","place":"CSA貸会議室","lat":34.9737,"lon":138.39,"state":"active","id":null},{"event_id":"602996","title":"【定員5名】MAではじめる！”デジタルマーケティング”スタートアップセミナー","url":"http://peatix.com/event/602996","shortener_url":null,"started_at":"2019-02-21T17:30:00.000+09:00","ended_at":"2019-02-24T08:59:59.000+09:00","limit_number":null,"address":"東京都港区赤坂7丁目1番1号  青山安田ビル3階","place":"トライベック・ストラテジー株式会社","lat":35.6744,"lon":139.731,"state":"active","id":null},{"event_id":"604050","title":"≪無料勉強会≫　2/28　第4回いちcraがマネジメント視点を養う為の虎の巻　～ CRO 社長がアドバイザー参加します ～","url":"http://peatix.com/event/604050","shortener_url":null,"started_at":"2019-02-28T19:00:00.000+09:00","ended_at":"2019-03-03T08:59:59.000+09:00","limit_number":null,"address":"東京都港区虎ノ門 4-3-9","place":"住友新虎ノ門ビル","lat":35.6644,"lon":139.744,"state":"active","id":null},{"event_id":"603428","title":"春風にふんわり揺れる、軽やかでカラフルな和紙を使った、春待ちピアス /イヤリングを作ろう！","url":"http://peatix.com/event/603428","shortener_url":null,"started_at":"2019-02-23T11:00:00.000+09:00","ended_at":"2019-02-26T08:59:59.000+09:00","limit_number":null,"address":"世田谷区池尻2丁目4−5","place":"IID 世田谷ものづくり学校","lat":35.6457,"lon":139.681,"state":"active","id":null},{"event_id":"603818","title":"Nightclub Nightlife Best Party in DiA Tokyo Disco International Aitai Party Japan Meet Japanese Girls Travelers Tourists meetup Every Friday Saturday public holiday Dance club","url":"http://peatix.com/event/603818","shortener_url":null,"started_at":"2019-02-22T23:45:00.000+09:00","ended_at":"2019-02-25T08:59:59.000+09:00","limit_number":null,"address":"Minatoku Roppongi 3-8-15 Tokyo","place":"DiA Tokyo Roppongi","lat":35.6634,"lon":139.734,"state":"active","id":null},{"event_id":"87490","title":"2/25(月) [参加特典付] 英語でウェブ解析士認定講座体験セミナー (WACA x スパルタ英会話共催)","url":"https://web-mining.doorkeeper.jp/events/87490","shortener_url":null,"started_at":"2019-02-25T19:30:00.000+09:00","ended_at":"2019-02-25T21:30:00.000+09:00","limit_number":20,"address":"東京都新宿区新宿1-12-3 ガーデンビル3F","place":"スパルタ英会話","lat":35.6887,"lon":139.712,"state":"active","id":null},{"event_id":"604482","title":"名案はPOLが買取！イベント創造ワークショップ","url":"http://peatix.com/event/604482","shortener_url":null,"started_at":"2019-02-20T19:00:00.000+09:00","ended_at":"2019-02-23T08:59:59.000+09:00","limit_number":null,"address":"中央区 日本橋大伝馬町1丁目7 日本橋ノースプレイス3F","place":"株式会社POL","lat":35.6893,"lon":139.778,"state":"active","id":null},{"event_id":"605598","title":"中小ビル再生レクチャー「小規模物件のホテル・民泊の運営手法」@Inc-line Osaka","url":"http://peatix.com/event/605598","shortener_url":null,"started_at":"2019-02-20T19:00:00.000+09:00","ended_at":"2019-02-23T08:59:59.000+09:00","limit_number":null,"address":"大阪府大阪市西区立売堀4-7-25","place":"Inc-line Osaka","lat":0.0,"lon":0.0,"state":"active","id":null},{"event_id":"605705","title":"モダピん家in鎌倉！夜の部:モダBAR","url":"http://peatix.com/event/605705","shortener_url":null,"started_at":"2019-02-23T17:30:00.000+09:00","ended_at":"2019-02-26T08:59:59.000+09:00","limit_number":null,"address":"〒248-0012 神奈川県鎌倉市御成町5-16","place":"面白法人カヤック／古民家（Share Room）","lat":0.0,"lon":0.0,"state":"active","id":null},{"event_id":"605981","title":"INACOME PITCH DAY","url":"http://inacome-pitchevent.peatix.com","shortener_url":null,"started_at":"2019-02-23T15:00:00.000+09:00","ended_at":"2019-02-26T08:59:59.000+09:00","limit_number":null,"address":"東京都渋谷区渋谷3-27-1","place":"100BANCH","lat":35.6559,"lon":139.705,"state":"active","id":null},{"event_id":"607311","title":"歌舞伎町観察ツアー0223","url":"http://peatix.com/event/607311","shortener_url":null,"started_at":"2019-02-23T19:00:00.000+09:00","ended_at":"2019-02-26T08:59:59.000+09:00","limit_number":null,"address":"歌舞伎町","place":"歌舞伎町","lat":0.0,"lon":0.0,"state":"active","id":null},{"event_id":"607318","title":"歌舞伎町観察ツアー0224","url":"http://peatix.com/event/607318","shortener_url":null,"started_at":"2019-02-24T19:00:00.000+09:00","ended_at":"2019-02-27T08:59:59.000+09:00","limit_number":null,"address":"歌舞伎町","place":"歌舞伎町","lat":0.0,"lon":0.0,"state":"active","id":null},{"event_id":"600664","title":"Facebook Tools Day!!","url":"http://devctokyovol2.peatix.com","shortener_url":null,"started_at":"2019-02-24T15:00:00.000+09:00","ended_at":"2019-02-27T08:59:59.000+09:00","limit_number":null,"address":"渋谷区宇田川町20−17 8F NMF渋谷公園通りビル","place":"TECH PLAY SHIBUYA","lat":35.661,"lon":139.7,"state":"active","id":null},{"event_id":"605236","title":"Smart経理がお届けする今週の気になる「〇〇〇」～経理編～　/　オンラインセミナー","url":"http://smartkeiri0221.peatix.com","shortener_url":null,"started_at":"2019-02-21T18:00:00.000+09:00","ended_at":"2019-02-24T08:59:59.000+09:00","limit_number":null,"address":"大阪市北区梅田1丁目","place":"Smart経理　オンライン会議室","lat":34.6991,"lon":135.497,"state":"active","id":null},{"event_id":"606495","title":"ジャケット工場の工場長兼、りんご農家？ジャケット工場works 本田工場長の、青森のものづくりのお話","url":"http://peatix.com/event/606495","shortener_url":null,"started_at":"2019-02-23T11:00:00.000+09:00","ended_at":"2019-02-26T08:59:59.000+09:00","limit_number":null,"address":"中央区銀座8丁目12−11 第 二 サンビル 3F","place":"ファクトリエ","lat":35.6673,"lon":139.763,"state":"active","id":null},{"event_id":"605403","title":"建築倉庫ミュージアム 入館チケット｜ARCHI-DEPOT Museum Online Tickets","url":"http://archidepot.peatix.com","shortener_url":null,"started_at":"2019-02-17T10:00:00.000+09:00","ended_at":"2019-02-20T08:59:59.000+09:00","limit_number":null,"address":"東京都品川区東品川2−6−10","place":"建築倉庫ミュージアム","lat":35.6209,"lon":139.749,"state":"active","id":null},{"event_id":"606259","title":"「多文化共生」×「地方創生」　栃木県佐野市のまちづくりを一緒に考えませんか？","url":"http://sanoproject1st.peatix.com","shortener_url":null,"started_at":"2019-02-28T18:30:00.000+09:00","ended_at":"2019-03-03T08:59:59.000+09:00","limit_number":null,"address":"渋谷区渋谷3丁目9−10 渋谷アサヒビル5階","place":"Inc-line","lat":35.6572,"lon":139.704,"state":"active","id":null},{"event_id":"607364","title":"休学しNight Vol.4 就活に不安なあなたに「休学」という選択肢","url":"http://peatix.com/event/607364","shortener_url":null,"started_at":"2019-02-27T19:00:00.000+09:00","ended_at":"2019-03-02T08:59:59.000+09:00","limit_number":null,"address":"中央区 日本橋大伝馬町1丁目7 日本橋ノースプレイス3F","place":"株式会社POL","lat":35.6893,"lon":139.778,"state":"active","id":null},{"event_id":"607990","title":"【SDGs × 懇親会】SDGsが学べるボードゲーム体験会兼SDGsについて自由に語る懇親会（朝日新聞社・未来技術推進協会 共催）","url":"http://peatix.com/event/607990","shortener_url":null,"started_at":"2019-02-28T19:00:00.000+09:00","ended_at":"2019-03-03T08:59:59.000+09:00","limit_number":null,"address":"東京都中央区築地5-3-2","place":"朝日新聞社　本社新館5階","lat":0.0,"lon":0.0,"state":"active","id":null},{"event_id":"607156","title":"vvvv.jsで広げるクリエイティブコーディングの世界　-vvvvをブラウザで動かす-","url":"http://ccss2019.peatix.com","shortener_url":null,"started_at":"2019-02-23T10:30:00.000+09:00","ended_at":"2019-02-26T08:59:59.000+09:00","limit_number":null,"address":"札幌市中央区北4条西5丁目45","place":"札幌市立大学サテライトキャンパス","lat":43.0661,"lon":141.348,"state":"active","id":null},{"event_id":"606397","title":"【現役AIエンジニアから学ぶ】ディープラーニング入門～AIの歴史・画像認識モデル・AIの可能性を徹底追求！～","url":"http://peatix.com/event/606397","shortener_url":null,"started_at":"2019-02-27T19:30:00.000+09:00","ended_at":"2019-03-02T08:59:59.000+09:00","limit_number":null,"address":"東京都豊島区高田3丁目15-7 (第一大島ビル406号室)","place":"kurenai会議室","lat":35.7155,"lon":139.706,"state":"active","id":null},{"event_id":"606862","title":"Tokyo Best Tourists Attraction Nightclub Nightlife Best Party in DiA Tokyo Disco International Aitai Party Japan Meet Japanese Girls Travelers Tourists meetup Every Friday Saturday public holiday Dance club","url":"http://tokyo-best-tourists-night-attraction-nightclub.peatix.com","shortener_url":null,"started_at":"2019-02-22T23:50:00.000+09:00","ended_at":"2019-02-25T08:59:59.000+09:00","limit_number":null,"address":"Minatoku Roppongi 3-8-15 Tokyo","place":"DiA Tokyo Roppongi","lat":35.6634,"lon":139.734,"state":"active","id":null},{"event_id":"606273","title":"世界のブロックチェーン導入事情と日本企業への意味合い【バイナリースター】月例セミナー #1","url":"http://peatix.com/event/606273","shortener_url":null,"started_at":"2019-02-25T19:00:00.000+09:00","ended_at":"2019-02-28T08:59:59.000+09:00","limit_number":null,"address":"〒104-0061東京都中央区銀座1丁目8-19 キラリトギンザ11F","place":"BINARYSTAR","lat":0.0,"lon":0.0,"state":"active","id":null},{"event_id":"604625","title":"Speaking Up (Tech)","url":"http://peatix.com/event/604625","shortener_url":null,"started_at":"2019-02-23T10:30:00.000+09:00","ended_at":"2019-02-26T08:59:59.000+09:00","limit_number":null,"address":"Suite 8-3, Level 8, Menara CIMB, Jalan Stesen Sentral 5, Kuala Lumpur Sentral, Kuala Lumpur","place":"Nintex Software Malaysia Sdn Bhd","lat":3.13641,"lon":101.686,"state":"active","id":null},{"event_id":"597678","title":"OpenID TechNight #16 ~ OpenID Connect 5周年記念","url":"http://peatix.com/event/597678","shortener_url":null,"started_at":"2019-02-25T18:00:00.000+09:00","ended_at":"2019-02-28T08:59:59.000+09:00","limit_number":null,"address":"千代田区紀尾井町1−3 東京ガーデンテラス紀尾井町 紀尾井タワ","place":"ヤフー株式会社","lat":35.6797,"lon":139.737,"state":"active","id":null},{"event_id":"587566","title":"#僕らのSnapmart 関西part2 2/24(sun)","url":"http://oursnapmart-kansai02.peatix.com","shortener_url":null,"started_at":"2019-02-24T13:00:00.000+09:00","ended_at":"2019-02-27T08:59:59.000+09:00","limit_number":null,"address":"大阪府大阪市淀川区宮原5-6-3ニュー大阪ハイツ204号室","place":"東三国","lat":34.7379,"lon":135.497,"state":"active","id":null},{"event_id":"606952","title":"Bougie Hawker Party feat. Seedlip","url":"http://bougiehawker.peatix.com","shortener_url":null,"started_at":"2019-02-23T14:00:00.000+09:00","ended_at":"2019-02-26T08:59:59.000+09:00","limit_number":null,"address":"51 Old Airport Road, Unit No. 01-144 Old Airport Road Food Centre","place":"3rd Culture Brewing Co. (Old Airport)","lat":1.30863,"lon":103.886,"state":"active","id":null},{"event_id":"596485","title":"ティール組織勉強会〜未来組織の在り方について本気で考える〜 #3","url":"http://dignity-teal3.peatix.com","shortener_url":null,"started_at":"2019-02-26T19:00:00.000+09:00","ended_at":"2019-03-01T08:59:59.000+09:00","limit_number":null,"address":"東京都渋谷区渋谷1-1-11","place":"SIビル貸会議室","lat":35.661,"lon":139.707,"state":"active","id":null},{"event_id":"113640","title":"UX JAM in KITAKYUSHU 01","url":"https://uxmilk.connpass.com/event/113640/","shortener_url":null,"started_at":"2019-02-26T19:30:00.000+09:00","ended_at":"2019-02-26T22:00:00.000+09:00","limit_number":60,"address":"〒802-0001　北九州市小倉北区浅野3丁目8番1号 AIM（アジア太平洋インポートマート）ビル6階","place":"COMPASS小倉","lat":33.8895,"lon":130.886,"state":"active","id":null},{"event_id":"120488","title":"UX JAM 29","url":"https://uxmilk.connpass.com/event/120488/","shortener_url":null,"started_at":"2019-02-25T19:30:00.000+09:00","ended_at":"2019-02-25T22:00:00.000+09:00","limit_number":140,"address":"","place":"オンライン","lat":35.6646,"lon":139.738,"state":"active","id":null},{"event_id":"121271","title":"スクラム道関西 オープン・ジャム","url":"https://scrumdo-kansai.connpass.com/event/121271/","shortener_url":null,"started_at":"2019-02-26T19:00:00.000+09:00","ended_at":"2019-02-26T21:00:00.000+09:00","limit_number":25,"address":"大阪市淀川区西中島5丁目14-10 (新大阪トヨタビル4階)","place":"株式会社リアズ","lat":34.7312,"lon":135.499,"state":"active","id":null},{"event_id":"119087","title":"サウンドミニハッカソン#4「GlobalGameJamの続きとか試遊会とか」","url":"https://effectorhack.connpass.com/event/119087/","shortener_url":null,"started_at":"2019-02-23T13:00:00.000+09:00","ended_at":"2019-02-23T18:00:00.000+09:00","limit_number":25,"address":"東京都渋谷区渋谷1-7-7(住友不動産青山通ビル13階)","place":"CRI・ミドルウェアC会議室","lat":35.6605,"lon":139.706,"state":"active","id":null},{"event_id":"120085","title":"[第1回] Room Reː WEBと出会いの未来研究　w/さぶみっと！ヨクスル in 高松","url":"https://connpass.com/event/120085/","shortener_url":null,"started_at":"2019-02-22T19:00:00.000+09:00","ended_at":"2019-02-22T21:30:00.000+09:00","limit_number":20,"address":"","place":"","lat":null,"lon":null,"state":"active","id":null},{"event_id":"112699","title":"【データ活用ハッカソン！】気象予報データーとどっぷり向き合い新しい価値を創る2日間","url":"https://serakumedia.connpass.com/event/112699/","shortener_url":null,"started_at":"2019-02-20T19:30:00.000+09:00","ended_at":"2019-02-20T22:05:00.000+09:00","limit_number":32,"address":"東京都新宿区西新宿7-5-25（西新宿プライムスクエア6F）","place":"東京本社","lat":35.6975,"lon":139.699,"state":"active","id":null},{"event_id":"117556","title":"Web・ITの力で魅力的なデートをするための「アイデアソン」開催します！","url":"https://lig.connpass.com/event/117556/","shortener_url":null,"started_at":"2019-02-20T19:00:00.000+09:00","ended_at":"2019-02-20T21:30:00.000+09:00","limit_number":40,"address":"東京都品川区大崎４丁目１−２ （ウイン第２五反田ビル8階）","place":"いいオフィス","lat":35.6226,"lon":139.723,"state":"active","id":null},{"event_id":"121135","title":"Kamakura Mok Mok Hack 32","url":"https://kamkura-mokmok.connpass.com/event/121135/","shortener_url":null,"started_at":"2019-02-23T11:00:00.000+09:00","ended_at":"2019-02-23T13:00:00.000+09:00","limit_number":7,"address":"神奈川県 鎌倉市由比ガ浜1丁目12-8","place":"HOUSE YUIGAHAMA","lat":35.3202,"lon":139.55,"state":"active","id":null},{"event_id":"119135","title":"Netlify / JAM Stack talk Osaka","url":"https://connpass.com/event/119135/","shortener_url":null,"started_at":"2019-02-15T19:30:00.000+09:00","ended_at":"2019-02-15T21:30:00.000+09:00","limit_number":20,"address":"大阪市淀川区十三東1-17-13 水交ビル1F","place":"JUSO Coworking","lat":34.7195,"lon":135.485,"state":"active","id":null},{"event_id":"112479","title":"立ち読み会@大阪 ―技術書典/コミケ新刊あります！―","url":"https://peddler.connpass.com/event/112479/","shortener_url":null,"started_at":"2019-02-16T15:00:00.000+09:00","ended_at":"2019-02-16T17:00:00.000+09:00","limit_number":40,"address":"大阪市北区大深町4番20号(グランフロント大阪タワーA 35階)","place":"さくらインターネット本社","lat":34.704,"lon":135.495,"state":"active","id":null},{"event_id":"120633","title":"Kamakura Mok Mok Hack 31","url":"https://kamkura-mokmok.connpass.com/event/120633/","shortener_url":null,"started_at":"2019-02-16T11:00:00.000+09:00","ended_at":"2019-02-16T13:00:00.000+09:00","limit_number":7,"address":"神奈川県 鎌倉市由比ガ浜1丁目12-8","place":"HOUSE YUIGAHAMA","lat":35.3202,"lon":139.55,"state":"active","id":null},{"event_id":"119121","title":"Medicalデー­­­タ分析ハッカソン by Team AI 2/24(日)","url":"https://teamai.connpass.com/event/119121/","shortener_url":null,"started_at":"2019-02-24T16:00:00.000+09:00","ended_at":"2019-02-24T18:00:00.000+09:00","limit_number":15,"address":"","place":"Online","lat":35.6618,"lon":139.696,"state":"active","id":null},{"event_id":"119361","title":"自然言語データ分析ハッカソン by Team AI 2/20(水)","url":"https://teamai.connpass.com/event/119361/","shortener_url":null,"started_at":"2019-02-20T19:30:00.000+09:00","ended_at":"2019-02-20T21:30:00.000+09:00","limit_number":15,"address":"","place":"Online","lat":35.6618,"lon":139.696,"state":"active","id":null},{"event_id":"120580","title":"４日間でAIビジネスプランナーになる講座(G検定対応)","url":"https://to-kei.connpass.com/event/120580/","shortener_url":null,"started_at":"2019-02-13T18:00:00.000+09:00","ended_at":"2019-02-13T22:00:00.000+09:00","limit_number":3,"address":"台東区台東１丁目11番4号 誠心Oビル3F","place":"秋葉原駅徒歩5分","lat":35.7012,"lon":139.776,"state":"active","id":null},{"event_id":"116222","title":"４日間でAIビジネスプランナーになる講座(G検定対応)","url":"https://to-kei.connpass.com/event/116222/","shortener_url":null,"started_at":"2019-02-13T18:00:00.000+09:00","ended_at":"2019-02-13T22:00:00.000+09:00","limit_number":3,"address":"台東区台東１丁目11番4号 誠心Oビル3F","place":"秋葉原駅徒歩5分","lat":35.7012,"lon":139.776,"state":"active","id":null},{"event_id":"118154","title":"D3: 泊りがけ勉強会「WACATE2018冬」  参加報告会","url":"https://d-cube.connpass.com/event/118154/","shortener_url":null,"started_at":"2019-02-12T19:00:00.000+09:00","ended_at":"2019-02-12T21:00:00.000+09:00","limit_number":50,"address":"東京都渋谷区渋谷2-15-1 渋谷クロスタワー 12F","place":"株式会社ビズリーチ","lat":35.6588,"lon":139.705,"state":"active","id":null},{"event_id":"114766","title":"第22回　CoderDojo横浜","url":"https://coderdojo-yokohama.connpass.com/event/114766/","shortener_url":null,"started_at":"2019-02-10T14:00:00.000+09:00","ended_at":"2019-02-10T16:00:00.000+09:00","limit_number":null,"address":"神奈川県横浜市神奈川区鶴屋町2-24-2","place":"かながわ県民センター","lat":35.4684,"lon":139.621,"state":"active","id":null},{"event_id":"116155","title":"【東京農業大学・未来技術推進協会 共催】AgriTech Hackathon","url":"https://future-tech-association.connpass.com/event/116155/","shortener_url":null,"started_at":"2019-02-09T10:00:00.000+09:00","ended_at":"2019-02-10T18:45:00.000+09:00","limit_number":16,"address":"〒156-8502　東京都世田谷区桜丘1-1-1","place":"東京農業大学　世田谷キャンパス　２号館３階 共通利用室","lat":35.6407,"lon":139.632,"state":"active","id":null},{"event_id":"116998","title":"ノラヤサイエンスバーvol.18 「人工知能は『こころの目』を持てるか？」","url":"https://norayasciencebar.connpass.com/event/116998/","shortener_url":null,"started_at":"2019-02-09T19:00:00.000+09:00","ended_at":"2019-02-09T22:00:00.000+09:00","limit_number":17,"address":"宮城県仙台市 青葉区仙台市青葉区国分町3丁目10−30 永瀬ビル2階","place":"jam","lat":38.2681,"lon":140.868,"state":"active","id":null},{"event_id":"114372","title":"SENDAI INC. HACKATHON 「環境と感動をつなげよう」","url":"https://sendai-inc.connpass.com/event/114372/","shortener_url":null,"started_at":"2019-02-12T09:30:00.000+09:00","ended_at":"2019-02-12T18:30:00.000+09:00","limit_number":20,"address":"宮城県仙台市青葉区国分町1-4-9","place":"enspace","lat":38.261,"lon":140.868,"state":"active","id":null},{"event_id":"117934","title":"公開ワークショップ「災害とIT」減災のための情報発信とは？","url":"https://sapporo-openinovation.connpass.com/event/117934/","shortener_url":null,"started_at":"2019-02-16T14:30:00.000+09:00","ended_at":"2019-02-16T19:30:00.000+09:00","limit_number":50,"address":"北海道札幌市中央区大通西１丁目１","place":"NHK札幌放送局　第一スタジオ","lat":43.0617,"lon":141.356,"state":"active","id":null},{"event_id":"114185","title":"ハッカソン初めての方も歓迎！「ゆるっとソン」 Vol.35@渋谷","url":"https://hackathon.connpass.com/event/114185/","shortener_url":null,"started_at":"2019-02-17T10:30:00.000+09:00","ended_at":"2019-02-17T19:30:00.000+09:00","limit_number":25,"address":"東京都渋谷区道玄坂 1-22-7道玄坂ピア10F","place":"Loftwork COOOP10","lat":35.6561,"lon":139.696,"state":"active","id":null},{"event_id":"119849","title":"Kamakura Mok Mok Hack 30","url":"https://kamkura-mokmok.connpass.com/event/119849/","shortener_url":null,"started_at":"2019-02-09T11:00:00.000+09:00","ended_at":"2019-02-09T13:00:00.000+09:00","limit_number":7,"address":"神奈川県 鎌倉市由比ガ浜1丁目12-8","place":"HOUSE YUIGAHAMA","lat":35.3202,"lon":139.55,"state":"active","id":null},{"event_id":"119683","title":"第13回 PCNひろしま こども向けプログラミング教室","url":"https://pcn-hiroshima.connpass.com/event/119683/","shortener_url":null,"started_at":"2019-02-24T10:00:00.000+09:00","ended_at":"2019-02-24T12:00:00.000+09:00","limit_number":14,"address":"広島県広島市南区京橋町1−7(広島京橋ビルディング)","place":"fabbit広島駅前","lat":34.3946,"lon":132.473,"state":"active","id":null},{"event_id":"119402","title":"第14回ゆるもく会","url":"https://sanuki-gamen.connpass.com/event/119402/","shortener_url":null,"started_at":"2019-02-24T13:00:00.000+09:00","ended_at":"2019-02-24T18:00:00.000+09:00","limit_number":null,"address":"高松市亀井町10番地3","place":"燈屋","lat":34.3393,"lon":134.049,"state":"active","id":null},{"event_id":"117031","title":"Unityゆるゆる勉強会","url":"https://yoyogigame.connpass.com/event/117031/","shortener_url":null,"started_at":"2019-02-02T13:00:00.000+09:00","ended_at":"2019-02-02T18:00:00.000+09:00","limit_number":8,"address":"渋谷区代々木1-13-4-4F（代々木ブラウンビル）","place":"コワーキングスペース spAce4510","lat":35.682,"lon":139.7,"state":"active","id":null},{"event_id":"118383","title":"京都アジャイル勉強会#87 オープン・ジャム","url":"https://kyoaja.connpass.com/event/118383/","shortener_url":null,"started_at":"2019-02-25T19:30:00.000+09:00","ended_at":"2019-02-25T21:30:00.000+09:00","limit_number":20,"address":"京都府京都市中京区高宮町206(御池ビル8階)","place":"はてな","lat":35.0112,"lon":135.762,"state":"active","id":null},{"event_id":"115030","title":"Cookpad Hack Kitchen #1 生鮮食品ECハッカソン","url":"https://cookpad.connpass.com/event/115030/","shortener_url":null,"started_at":"2019-02-02T09:00:00.000+09:00","ended_at":"2019-02-02T22:00:00.000+09:00","limit_number":33,"address":"東京都渋谷区恵比寿4-20-3","place":"クックパッド株式会社 (恵比寿ガーデンプレイスタワー12F)","lat":35.6423,"lon":139.713,"state":"active","id":null},{"event_id":"113392","title":"Agri Hack Day 2019 in 宮崎大学","url":"https://serakumedia.connpass.com/event/113392/","shortener_url":null,"started_at":"2019-02-01T15:00:00.000+09:00","ended_at":"2019-02-03T16:00:00.000+09:00","limit_number":40,"address":"宮崎市学園木花台西1丁目1番地","place":"宮崎大学","lat":31.831,"lon":131.413,"state":"active","id":null},{"event_id":"118999","title":"GitLab Hackathon 1Q '2019 in Tokyo","url":"https://gitlab-jp.connpass.com/event/118999/","shortener_url":null,"started_at":"2019-02-12T18:00:00.000+09:00","ended_at":"2019-02-12T21:00:00.000+09:00","limit_number":30,"address":"東京都渋谷区渋谷2-17-5 (シオノギ渋谷ビル12F)","place":"ウェルスナビ株式会社","lat":35.6591,"lon":139.704,"state":"active","id":null},{"event_id":"116821","title":"【好評につき増枠！】LINE Things ハンズオン @大阪","url":"https://code4osaka.connpass.com/event/116821/","shortener_url":null,"started_at":"2019-02-02T13:00:00.000+09:00","ended_at":"2019-02-02T19:00:00.000+09:00","limit_number":40,"address":"大阪府大阪市北区角田町8番1号 梅田阪急ビルオフィスタワー 35階","place":"サイボウズ　大阪オフィス","lat":34.7023,"lon":135.499,"state":"active","id":null},{"event_id":"118843","title":"AITCシニア技術者勉強会 「一からはじめるIoT ４周目」第1回  Arduino入門編","url":"https://aitc-senior.connpass.com/event/118843/","shortener_url":null,"started_at":"2019-02-09T14:00:00.000+09:00","ended_at":"2019-02-09T18:00:00.000+09:00","limit_number":25,"address":"東京都渋谷区代々木1-22-1　代々木1丁目ビル","place":"ジャパンシステム株式会社　本社 セミナールーム","lat":35.6811,"lon":139.702,"state":"active","id":null},{"event_id":"118789","title":"Kamakura Mok Mok Hack 29","url":"https://kamkura-mokmok.connpass.com/event/118789/","shortener_url":null,"started_at":"2019-02-02T11:00:00.000+09:00","ended_at":"2019-02-02T13:00:00.000+09:00","limit_number":7,"address":"神奈川県 鎌倉市由比ガ浜1丁目12-8","place":"HOUSE YUIGAHAMA","lat":35.3202,"lon":139.55,"state":"active","id":null},{"event_id":"118712","title":"スクラム道関西 第117回オープン・ジャム","url":"https://scrumdo-kansai.connpass.com/event/118712/","shortener_url":null,"started_at":"2019-02-12T19:00:00.000+09:00","ended_at":"2019-02-12T21:00:00.000+09:00","limit_number":30,"address":"大阪府大阪市北区鶴野町1-9 (梅田ゲートタワー7階)","place":"株式会社ラクス 大阪オフィス","lat":34.7068,"lon":135.501,"state":"active","id":null},{"event_id":"118530","title":"熊ゆに Unityもくもく会　2019/2/3（日）","url":"https://kumauni.connpass.com/event/118530/","shortener_url":null,"started_at":"2019-02-03T13:00:00.000+09:00","ended_at":"2019-02-03T17:00:00.000+09:00","limit_number":10,"address":"熊本県熊本市下通り１丁目１０－１０(銀座プラザビル８F)","place":"Bar ランバリオン","lat":32.8001,"lon":130.709,"state":"active","id":null},{"event_id":"117860","title":"(第96回)Python mini Hack-a-thon","url":"https://pyhack.connpass.com/event/117860/","shortener_url":null,"started_at":"2019-02-16T11:00:00.000+09:00","ended_at":"2019-02-16T19:00:00.000+09:00","limit_number":20,"address":"渋谷区千駄ヶ谷5-32-7 野村不動産南新宿ビル4F","place":"ビープラウド会議室","lat":35.6864,"lon":139.704,"state":"active","id":null},{"event_id":"104367","title":"【全5回】ディープラーニング社会実装ワークショップ〜画像処理編【11-12月】","url":"https://soleildatadojo.connpass.com/event/104367/","shortener_url":null,"started_at":"2019-02-12T19:30:00.000+09:00","ended_at":"2019-02-12T21:30:00.000+09:00","limit_number":20,"address":"","place":"オンライン開催","lat":34.6951,"lon":135.502,"state":"active","id":null},{"event_id":"116243","title":"豊中市居場所づくりアイデアソン","url":"https://code4osaka.connpass.com/event/116243/","shortener_url":null,"started_at":"2019-02-08T18:30:00.000+09:00","ended_at":"2019-02-08T21:30:00.000+09:00","limit_number":20,"address":"大阪府豊中市庄内幸町１丁目１−８","place":"大阪音楽大学","lat":34.7531,"lon":135.471,"state":"active","id":null},{"event_id":"116312","title":"子ども向けプログラミングクラブ コーダー道場甲府#19","url":"https://coderdojokofu.connpass.com/event/116312/","shortener_url":null,"started_at":"2019-02-24T13:20:00.000+09:00","ended_at":"2019-02-24T15:40:00.000+09:00","limit_number":15,"address":"山梨県甲府市北口２丁目８番１号","place":"山梨県立図書館","lat":35.6685,"lon":138.57,"state":"active","id":null},{"event_id":"114698","title":"名寄でハッカソン一地域課題にアイデア創発で挑む一（アーバンデータチャレンジ2018）","url":"https://connpass.com/event/114698/","shortener_url":null,"started_at":"2019-02-02T13:00:00.000+09:00","ended_at":"2019-02-03T15:00:00.000+09:00","limit_number":30,"address":"北海道名寄市 西1条南7丁目2","place":"なにいろかふぇ","lat":44.3492,"lon":142.463,"state":"active","id":null},{"event_id":"108004","title":"【前乗り】温泉合宿 in 箱根 【前泊】","url":"https://svrkcho.connpass.com/event/108004/","shortener_url":null,"started_at":"2019-02-01T16:00:00.000+09:00","ended_at":"2019-02-02T10:00:00.000+09:00","limit_number":16,"address":"神奈川県足柄下郡箱根町木賀1014","place":"KKR宮ノ下","lat":35.2455,"lon":139.055,"state":"active","id":null},{"event_id":"114341","title":"【福岡ロボットアイデアソン-ぼくらの未来創世物語-episode.01】事前説明会05","url":"https://bgene.connpass.com/event/114341/","shortener_url":null,"started_at":"2019-02-09T13:00:00.000+09:00","ended_at":"2019-02-09T16:00:00.000+09:00","limit_number":25,"address":"〒808-0135 北九州市若松区ひびきの2-1","place":"北九州学術研究都市産学連携支援センター小会議室１","lat":33.8904,"lon":130.711,"state":"active","id":null},{"event_id":"114082","title":"【福岡ロボットアイデアソン-ぼくらの未来創世物語-episode.01】事前説明会04","url":"https://bgene.connpass.com/event/114082/","shortener_url":null,"started_at":"2019-02-02T13:00:00.000+09:00","ended_at":"2019-02-02T16:00:00.000+09:00","limit_number":25,"address":"〒810-0004 福岡県福岡市中央区渡辺通2-7-14 パグーロ薬院7F","place":"トラスペース00(株式会社システムトランジスタ)","lat":33.5828,"lon":130.402,"state":"active","id":null},{"event_id":"1305836265636585472","title":"Events | DBpedia","url":"https://wiki.dbpedia.org/events/dbpedia-hackathon-2020","shortener_url":"https://bit.ly/3hHp9ve","started_at":"2019-02-07T19:00:00.000+09:00","ended_at":"2020-10-07T12:00:00.000+09:00","limit_number":null,"address":null,"place":"online","lat":null,"lon":null,"state":"active","id":null},{"event_id":"1325107706060038147","title":"Women In Voice Mexico","url":"http://womeninvoice.mx","shortener_url":null,"started_at":"2019-02-21T18:00:00.000+09:00","ended_at":"2019-02-22T08:59:59.000+09:00","limit_number":null,"address":null,"place":"online","lat":null,"lon":null,"state":"active","id":null},{"event_id":"53015343319","title":"Business Development Series: Grant Writing Workshop","url":"https://www.eventbrite.com/e/business-development-series-grant-writing-workshop-tickets-53015343319","shortener_url":null,"started_at":"2019-02-20T00:00:00.000+09:00","ended_at":"2022-12-21T02:00:00.000+09:00","limit_number":null,"address":null,"place":"online","lat":null,"lon":null,"state":"active","id":null}]