[{"event_id":"602577","title":"第７回 さぶみっと！ヨクスル in 沖縄【2019年9月7日(土)開催】","url":"http://peatix.com/event/602577","shortener_url":null,"started_at":"2019-09-07T14:00:00.000+09:00","ended_at":"2019-09-10T08:59:59.000+09:00","limit_number":null,"address":"那覇市松尾1丁目6−1","place":"八汐荘","lat":26.2138,"lon":127.683,"state":"active","id":null},{"event_id":"601530","title":"【10名限定】FORTHイノベーション・メソッド公認ファシリテーター養成講座","url":"http://forth003.peatix.com","shortener_url":null,"started_at":"2019-09-06T14:00:00.000+09:00","ended_at":"2019-09-09T08:59:59.000+09:00","limit_number":null,"address":"湯河原町鍛冶屋572−1","place":"レクトーレ湯河原","lat":35.1572,"lon":139.114,"state":"active","id":null},{"event_id":"628856","title":"【一般観覧】南海沿線アトツギソン","url":"http://atotugithon-audience.peatix.com","shortener_url":null,"started_at":"2019-09-01T16:00:00.000+09:00","ended_at":"2019-09-04T08:59:59.000+09:00","limit_number":null,"address":"大阪市中央区難波5丁目1−60","place":"なんばスカイオ","lat":34.6637,"lon":135.501,"state":"active","id":null},{"event_id":"106197","title":"Hokimas: Agen Bola, Bandar Bola, Judi Online, Sbobet Terpercaya","url":"https://atnd.org/events/106197","shortener_url":null,"started_at":"2019-09-30T20:30:00.000+09:00","ended_at":"2019-10-31T16:00:00.000+09:00","limit_number":null,"address":"","place":"","lat":null,"lon":null,"state":"closed","id":null},{"event_id":"588770","title":"Japan Soca Weekend 2019","url":"http://jsw2019.peatix.com","shortener_url":null,"started_at":"2019-09-13T18:00:00.000+09:00","ended_at":"2019-09-16T08:59:59.000+09:00","limit_number":null,"address":"Tokyo, Japan","place":"Tokyo, Japan","lat":0.0,"lon":0.0,"state":"active","id":null},{"event_id":"726221","title":"ベアードビールシネマキャンプスタッフチケット【一般チケットではありません】","url":"http://bbcinemastaff.peatix.com","shortener_url":null,"started_at":"2019-09-28T12:00:00.000+09:00","ended_at":"2019-10-01T08:59:59.000+09:00","limit_number":null,"address":"静岡県伊豆市大平1052-1","place":"ベアード・ ブルワリーガーデン修善寺","lat":34.9516,"lon":138.94,"state":"active","id":null},{"event_id":"727177","title":"Local Intern Camp 2019","url":"http://localintencamp2019.peatix.com","shortener_url":null,"started_at":"2019-09-09T12:00:00.000+09:00","ended_at":"2019-09-12T08:59:59.000+09:00","limit_number":null,"address":"米原市宇賀野1364−1","place":"道の駅 近江母の郷","lat":35.3435,"lon":136.277,"state":"active","id":null},{"event_id":"137817","title":"【21卒対象】アイディア出しから実装までを体験できる3daysインターン","url":"https://ceres-inc.connpass.com/event/137817/","shortener_url":"https://bit.ly/2JjJlUF","started_at":"2019-09-18T19:00:00.000+09:00","ended_at":"2019-09-21T06:00:00.000+09:00","limit_number":15,"address":"〒158-0097 東京都世田谷区用賀４丁目１０ 用賀四丁目10番1号（世田谷ビジネススクエア タワー24階）","place":"株式会社セレス本社","lat":35.6267,"lon":139.633,"state":"active","id":null},{"event_id":"137816","title":"【21卒対象】アイディア出しから実装までを体験できる3daysインターン","url":"https://ceres-inc.connpass.com/event/137816/","shortener_url":"https://bit.ly/2JgxmY5","started_at":"2019-09-04T19:00:00.000+09:00","ended_at":"2019-09-07T06:00:00.000+09:00","limit_number":15,"address":"〒158-0097 東京都世田谷区用賀４丁目１０ 用賀四丁目10番1号（世田谷ビジネススクエア タワー24階）","place":"株式会社セレス本社","lat":35.6267,"lon":139.633,"state":"active","id":null},{"event_id":"107174","title":"【21卒対象】アイディア出しから実装までを体験できる3daysインターン","url":"https://atnd.org/events/107174","shortener_url":"https://bit.ly/2JlXNf5","started_at":"2019-09-18T10:00:00.000+09:00","ended_at":"2019-09-20T21:00:00.000+09:00","limit_number":15,"address":"東京都世田谷区用賀4丁目10 用賀四丁目10番1号","place":"株式会社セレス本社　世田谷ビジネススクエア タワー 24階","lat":35.6267,"lon":139.633,"state":"closed","id":null},{"event_id":"107173","title":"【21卒対象】アイディア出しから実装までを体験できる3daysインターン","url":"https://atnd.org/events/107173","shortener_url":"https://bit.ly/2JfYiHq","started_at":"2019-09-04T10:00:00.000+09:00","ended_at":"2019-09-06T21:00:00.000+09:00","limit_number":15,"address":"東京都世田谷区用賀4丁目10 用賀四丁目10番1号","place":"株式会社セレス本社　世田谷ビジネススクエア タワー 24階","lat":35.6267,"lon":139.633,"state":"closed","id":null},{"event_id":"732982","title":"単体05【大阪9月開催】提案の説得力を高める「ユーザー視点のUI設計＆提案書」","url":"http://peatix.com/event/732982","shortener_url":null,"started_at":"2019-09-22T13:00:00.000+09:00","ended_at":"2019-09-25T08:59:59.000+09:00","limit_number":null,"address":"大阪市淀川区西中島5-14-10新大阪トヨタビル9F, 14, 府淀川区","place":"アットビジネスセンターPREMIUM新大阪（正面口駅前）","lat":34.7313,"lon":135.499,"state":"active","id":null},{"event_id":"732977","title":"残席５：大阪一括9月開催｜他では絶対教えてくれないUIデザインのワザをたっぷり学ぶ《基礎・応用編》","url":"http://peatix.com/event/732977","shortener_url":null,"started_at":"2019-09-21T09:15:00.000+09:00","ended_at":"2019-09-24T08:59:59.000+09:00","limit_number":null,"address":"大阪市淀川区西中島5-14-10新大阪トヨタビル9F, 14, 府淀川区","place":"アットビジネスセンターPREMIUM新大阪（正面口駅前）","lat":34.7313,"lon":135.499,"state":"active","id":null},{"event_id":"732984","title":"残席２：06【大阪9月開催】初めてでもできる！「説得力ある分析＆評価レポート」V2","url":"http://peatix.com/event/732984","shortener_url":null,"started_at":"2019-09-23T09:30:00.000+09:00","ended_at":"2019-09-26T08:59:59.000+09:00","limit_number":null,"address":"大阪市淀川区西中島5丁目14−10 新大阪トヨタビル9F","place":"アットビジネスセンター PREMIUM新大阪（正面口駅前）","lat":34.7312,"lon":135.499,"state":"active","id":null},{"event_id":"751586","title":"＼お子さまの「個性」を「価値」に！／\"音楽の力\"で子どもの可能性を伸ばしてみませんか？","url":"http://peatix.com/event/751586","shortener_url":null,"started_at":"2019-09-22T11:30:00.000+09:00","ended_at":"2019-09-25T08:59:59.000+09:00","limit_number":null,"address":"神奈川県川崎市新丸子町749-6 GSハイム102","place":"武蔵小杉会場【レッスンスタジオ「話芸写」】","lat":35.5804,"lon":139.66,"state":"active","id":null},{"event_id":"751447","title":"＼「個性」を「価値」に変えていく！／\"音楽の力\"で、子どもの可能性を伸ばしてあげませんか？","url":"http://peatix.com/event/751447","shortener_url":null,"started_at":"2019-09-08T11:30:00.000+09:00","ended_at":"2019-09-11T08:59:59.000+09:00","limit_number":null,"address":"神奈川県川崎市新丸子町749-6 GSハイム102","place":"武蔵小杉会場【レッスンスタジオ「話芸写」】","lat":35.5804,"lon":139.66,"state":"active","id":null},{"event_id":"136558","title":"PyCon JP 2019 Sprint","url":"https://pyconjp.connpass.com/event/136558/","shortener_url":"https://bit.ly/2xL9whE","started_at":"2019-09-14T10:00:00.000+09:00","ended_at":"2019-09-14T18:00:00.000+09:00","limit_number":120,"address":"〒 150-0036 東京都渋谷区南平台町16番28号 Daiwa渋谷スクエア 5F","place":"HENNGE K.K. (Daiwa渋谷スクエア 5F)","lat":35.6548,"lon":139.695,"state":"active","id":null},{"event_id":"139381","title":"【学生向け】ディスカバリーハッカソン2019@関西（参加費宿泊費無料）","url":"https://connpass.com/event/139381/","shortener_url":"https://bit.ly/2jJBFmd","started_at":"2019-09-06T10:30:00.000+09:00","ended_at":"2019-09-08T18:00:00.000+09:00","limit_number":80,"address":"大阪府大阪市北区3 大深町3番1号 グランフロント大阪 ナレッジキャピタルタワーC 7階","place":"大阪イノベーションハブ","lat":34.7059,"lon":135.495,"state":"active","id":null},{"event_id":"737110","title":"9/21(土)~22(日) festivo ウェブデザイン Camp@東京 【学生20,000円、一般25,000円】～2講師体制で戦うスキルを身につける15時間！HTML/CSS/WEBサイトコーディング/Photoshop集中合宿！～","url":"http://peatix.com/event/737110","shortener_url":"https://bit.ly/2xJFGu4","started_at":"2019-09-21T10:30:00.000+09:00","ended_at":"2019-09-24T08:59:59.000+09:00","limit_number":null,"address":"東京都練馬区豊玉北3-15-17","place":"起業家シェアハウス x-garden セミナールーム","lat":35.7329,"lon":139.661,"state":"active","id":null},{"event_id":"738415","title":"＜震災時にも活躍できるスキル！下肢静脈エコーをはじめませんか＞","url":"http://peatix.com/event/738415","shortener_url":null,"started_at":"2019-09-01T09:30:00.000+09:00","ended_at":"2019-09-04T08:59:59.000+09:00","limit_number":null,"address":"台東区台東4丁目8−7 ヒューリック仲御徒町ビル8階","place":"メドフィット【MEDFit】","lat":35.7061,"lon":139.777,"state":"active","id":null},{"event_id":"94487","title":"【初開催】Startup Weekend 守山 Vol.1","url":"https://swmoriyama.doorkeeper.jp/events/94487","shortener_url":null,"started_at":"2019-09-27T18:30:00.000+09:00","ended_at":"2019-09-29T21:00:00.000+09:00","limit_number":null,"address":"滋賀県守山市勝部1丁目13番1号","place":"守山市中心市街地活性化交流プラザ「あまが池プラザ」","lat":null,"lon":null,"state":"active","id":null},{"event_id":"812395","title":"「横田めぐみ」さんの中学の同級生で、世界的ピアニスト「フジコ・ヘミング」さんと共演したヴァイオリニスト・吉田直矢の 「想い♪繋ぐコンサート」！","url":"http://megumi-omoi.peatix.com","shortener_url":null,"started_at":"2019-09-27T19:00:00.000+09:00","ended_at":"2019-09-30T08:59:59.000+09:00","limit_number":null,"address":"千代田区1 大手町1丁目1番2号","place":"3×3 Lab Future","lat":35.6861,"lon":139.762,"state":"active","id":null},{"event_id":"140179","title":"Kamakura Mok Mok Special Hack 56","url":"https://kamkura-mokmok.connpass.com/event/140179/","shortener_url":null,"started_at":"2019-09-07T11:00:00.000+09:00","ended_at":"2019-09-07T16:00:00.000+09:00","limit_number":15,"address":"神奈川県 鎌倉市由比ガ浜1丁目12-8","place":"HOUSE YUIGAHAMA","lat":35.3202,"lon":139.55,"state":"active","id":null},{"event_id":"140029","title":"ウェアラブル×サバゲーハッカソン","url":"https://enhanlabo.connpass.com/event/140029/","shortener_url":"https://bit.ly/2XYG7Af","started_at":"2019-09-07T09:30:00.000+09:00","ended_at":"2019-09-08T17:30:00.000+09:00","limit_number":30,"address":"東京都豊島区南池袋3-9-5 サトミビル 地下2F","place":"ASOBIBA池袋フィールド","lat":35.7246,"lon":139.712,"state":"active","id":null},{"event_id":"140400","title":"アイカレ1年夏JAM(9月9日～12日)","url":"https://aikaregame3ki.connpass.com/event/140400/","shortener_url":null,"started_at":"2019-09-09T10:00:00.000+09:00","ended_at":"2019-09-12T18:00:00.000+09:00","limit_number":null,"address":"沖縄県那覇市樋川１丁目１−７７","place":"ITカレッジ沖縄","lat":26.2107,"lon":127.686,"state":"active","id":null},{"event_id":"140320","title":"アイカレ1年夏JAM（9月2日～5日）","url":"https://aikaregame3ki.connpass.com/event/140320/","shortener_url":null,"started_at":"2019-09-02T10:00:00.000+09:00","ended_at":"2019-09-05T18:00:00.000+09:00","limit_number":22,"address":"沖縄県那覇市樋川１丁目１−７７","place":"ITカレッジ沖縄","lat":26.2107,"lon":127.686,"state":"active","id":null},{"event_id":"1059866","title":"9/14(土)~15(日)festivo はじめてのプログラミング Camp@東京【学生20,000円、一般25,000円】～戦うスキルを身につける15時間！プログラミング概要からPHP/SQL集中合宿！～","url":"http://peatix.com/event/1059866","shortener_url":"https://bit.ly/2XXK1JH","started_at":"2019-09-14T10:00:00.000+09:00","ended_at":"2019-09-17T08:59:59.000+09:00","limit_number":null,"address":"東京都練馬区豊玉北3-15-17","place":"起業家シェアハウス x-garden セミナールーム","lat":35.7329,"lon":139.661,"state":"active","id":null},{"event_id":"140689","title":"アイカレ1年夏JAM(9月24～27日)","url":"https://aikaregame3ki.connpass.com/event/140689/","shortener_url":null,"started_at":"2019-09-24T10:00:00.000+09:00","ended_at":"2019-09-27T18:00:00.000+09:00","limit_number":null,"address":"沖縄県那覇市樋川１丁目１−７７","place":"ITカレッジ沖縄","lat":26.2107,"lon":127.686,"state":"active","id":null},{"event_id":"1006069","title":"STARRY NIGHT JAM vol.45　天文講演会　～宇宙には、だれか いますか？～","url":"http://snj45.peatix.com","shortener_url":null,"started_at":"2019-09-01T16:30:00.000+09:00","ended_at":"2019-09-04T08:59:59.000+09:00","limit_number":null,"address":"福岡市中央区六本松4丁目2−1","place":"福岡市科学館","lat":33.5774,"lon":130.378,"state":"active","id":null},{"event_id":"137829","title":"第九陣信玄パイ「信玄パイ合宿 夏の陣」","url":"https://shingenpy.connpass.com/event/137829/","shortener_url":"https://bit.ly/310mFQM","started_at":"2019-09-28T14:00:00.000+09:00","ended_at":"2019-09-29T17:00:00.000+09:00","limit_number":20,"address":"〒401-0502 山梨県南都留郡山中湖村平野506-296","place":"山中湖畔荘 ホテル清渓","lat":35.4069,"lon":138.876,"state":"active","id":null},{"event_id":"95462","title":"9/14(土)~15(日)festivo はじめてのプログラミング Camp@東京【学生20,000円、一般25,000円】～戦うスキルを身につける15時間！プログラミング概要からPHP/SQL集中合宿！～","url":"https://festivo.doorkeeper.jp/events/95462","shortener_url":"https://bit.ly/2LMyQNw","started_at":"2019-09-14T10:00:00.000+09:00","ended_at":"2019-09-15T19:00:00.000+09:00","limit_number":10,"address":"東京都練馬区豊玉北3-15-17","place":"起業家シェアハウス x-garden セミナールーム","lat":null,"lon":null,"state":"active","id":null},{"event_id":"95463","title":"9/21(土)~22(日) festivo ウェブデザイン Camp@東京 【学生20,000円、一般25,000円】～2講師体制で戦うスキルを身につける15時間！HTML/CSS/WEBサイトコーディング/Photoshop集中合宿！～","url":"https://festivo.doorkeeper.jp/events/95463","shortener_url":"https://bit.ly/2LS1Qnd","started_at":"2019-09-21T10:30:00.000+09:00","ended_at":"2019-09-22T18:30:00.000+09:00","limit_number":7,"address":"東京都練馬区豊玉北3-15-17","place":"起業家シェアハウス x-garden セミナールーム","lat":null,"lon":null,"state":"active","id":null},{"event_id":"1148624","title":"参加者皆さんが研究員！居心地ってな〜んだ？?居心地研究所 vol.01","url":"http://peatix.com/event/1148624","shortener_url":null,"started_at":"2019-09-21T10:30:00.000+09:00","ended_at":"2019-09-24T08:59:59.000+09:00","limit_number":null,"address":"東京都渋谷区代々木4-50-13","place":"Atlya参宮橋","lat":35.6784,"lon":139.692,"state":"active","id":null},{"event_id":"1087065","title":"STARRY NIGHT JAM vol.46 プラネタリウムライブ　COSMIC DANCE","url":"http://snj46.peatix.com","shortener_url":null,"started_at":"2019-09-21T18:30:00.000+09:00","ended_at":"2019-09-24T08:59:59.000+09:00","limit_number":null,"address":"福岡市中央区六本松4丁目2−1","place":"福岡市科学館","lat":33.5774,"lon":130.378,"state":"active","id":null},{"event_id":"1150880","title":"【9/7~8開催】動画制作の基礎から学ぶ2日間！「動画合宿」講座を開催","url":"http://peatix.com/event/1150880","shortener_url":null,"started_at":"2019-09-07T12:45:00.000+09:00","ended_at":"2019-09-10T08:59:59.000+09:00","limit_number":null,"address":"都留市田原2丁目14−8 小宮ビル2F","place":"コワーキングコミュニティteraco.","lat":35.5414,"lon":138.898,"state":"active","id":null},{"event_id":"1146348","title":"【9月のUMUMおとなアトリエ 日野】彫刻ってなんだろう？~彫刻作品の歴史に触れ、「ねんど」で作品制作と感触あそびを楽しもう！~","url":"http://umumh201909.peatix.com","shortener_url":null,"started_at":"2019-09-28T14:00:00.000+09:00","ended_at":"2019-10-01T08:59:59.000+09:00","limit_number":null,"address":"〒191-0062 東京都日野市多摩平2-5-1","place":"planT 日野市多摩平の森産業連携センター","lat":35.6627,"lon":139.38,"state":"active","id":null},{"event_id":"1164319","title":"丸屋九兵衛トークライブ【Soul Food Assassins vol.11】八村塁に「外人やーん」と反応するレイシスト・ジャパン／移民と二世たちの世界と、これからの社会を見つめて","url":"http://sfa11.peatix.com","shortener_url":null,"started_at":"2019-09-01T14:00:00.000+09:00","ended_at":"2019-09-04T08:59:59.000+09:00","limit_number":null,"address":"豊島区東池袋3-1-1","place":"株式会社オルトプラス (AltPlusInc.)","lat":35.7295,"lon":139.718,"state":"active","id":null},{"event_id":"1169379","title":"【満員御礼】膝痛で走れないランナーのための膝痛改善教室(4名限定少人数制開催。走りません) 千葉県柏市 FLAT柏","url":"http://peatix.com/event/1169379","shortener_url":null,"started_at":"2019-09-21T14:00:00.000+09:00","ended_at":"2019-09-24T08:59:59.000+09:00","limit_number":null,"address":"千葉県柏市柏4-4-5メープル柏201","place":"【集合/受付】千葉県柏市 鍼灸マッサージ院FLAT柏","lat":35.863,"lon":139.974,"state":"active","id":null},{"event_id":"1210088","title":"満席【東京体験版9月】初心者歓迎！他では絶対教えてくれない！楽しく学ぶユーザー視点のUIデザイン","url":"http://peatix.com/event/1210088","shortener_url":null,"started_at":"2019-09-06T19:00:00.000+09:00","ended_at":"2019-09-09T08:59:59.000+09:00","limit_number":null,"address":"千代田区神田鍛冶町3丁目2−2","place":"エッサム神田ホール1号館","lat":35.6935,"lon":139.771,"state":"active","id":null},{"event_id":"1210197","title":"【東京9月開催】04：直感的で快適なWEB環境を作る｢スマホ用UIデザイン｣","url":"http://peatix.com/event/1210197","shortener_url":null,"started_at":"2019-09-08T16:45:00.000+09:00","ended_at":"2019-09-11T08:59:59.000+09:00","limit_number":null,"address":"千代田区神田鍛冶町3丁目2−2","place":"エッサム神田ホール1号館","lat":35.6935,"lon":139.771,"state":"active","id":null},{"event_id":"1210121","title":"【東京9月開催】03：ユーザーのニーズとリテラシーを基準に考える〜UIデザイン","url":"http://peatix.com/event/1210121","shortener_url":null,"started_at":"2019-09-08T13:00:00.000+09:00","ended_at":"2019-09-11T08:59:59.000+09:00","limit_number":null,"address":"千代田区神田鍛冶町3丁目2−2","place":"エッサム神田ホール1号館","lat":35.6935,"lon":139.771,"state":"active","id":null},{"event_id":"142207","title":"第10回ドラスゲームジャム in CODE BASE NAGOYA","url":"https://dorasugj.connpass.com/event/142207/","shortener_url":"https://bit.ly/2YIybPg","started_at":"2019-09-07T10:00:00.000+09:00","ended_at":"2019-09-07T19:00:00.000+09:00","limit_number":40,"address":"愛知県名古屋市中区葵1-23-14 プロト葵ビル6F","place":"CODE BASE NAGOYA","lat":35.1701,"lon":136.922,"state":"active","id":null},{"event_id":"1214568","title":"ビジネスパーソン向け演劇ワークショップ『シアターマインド』 合宿ver.　〜わたしはわたしに逢いにいく〜","url":"http://theatremind.peatix.com","shortener_url":"https://bit.ly/2YI1zVC","started_at":"2019-09-28T10:00:00.000+09:00","ended_at":"2019-10-01T08:59:59.000+09:00","limit_number":null,"address":"山梨市牧丘町倉科7190番地","place":"フフ山梨","lat":0.0,"lon":0.0,"state":"active","id":null},{"event_id":"1290154","title":"9/28(土)~29(日)festivo ホームページ作成（WordPress） Camp@東京【学生20,000円、一般25,000円】～戦うスキルを身につける15時間！WordPress集中合宿！～","url":"http://peatix.com/event/1290154","shortener_url":"https://bit.ly/2GOOTGA","started_at":"2019-09-28T10:30:00.000+09:00","ended_at":"2019-10-01T08:59:59.000+09:00","limit_number":null,"address":"東京都練馬区豊玉北3-15-17","place":"起業家シェアハウス x-garden セミナールーム","lat":35.7329,"lon":139.661,"state":"active","id":null},{"event_id":"1286633","title":"9月4日（水）19:00~22:00　かものはしで一緒にボランティアをしませんか？@恵比寿","url":"http://peatix.com/event/1286633","shortener_url":null,"started_at":"2019-09-04T19:00:00.000+09:00","ended_at":"2019-09-07T08:59:59.000+09:00","limit_number":null,"address":"東京都渋谷区広尾5-23-5 長谷部第一ビル402号室","place":"かものはしプロジェクト事務所（恵比寿）","lat":35.6485,"lon":139.718,"state":"active","id":null},{"event_id":"1170334","title":"【9/4(木)名古屋開催！】参加無料「Cybozu Days 2019」 〜モンスターへの挑戦状〜 ：河口 エレキテル（元気でんき 代表）・吉田 琢也（日経BP社 執行役員）・青野 慶久（サイボウズ代表）登壇！","url":"http://peatix.com/event/1170334","shortener_url":null,"started_at":"2019-09-04T11:00:00.000+09:00","ended_at":"2019-09-07T08:59:59.000+09:00","limit_number":null,"address":"名古屋市中村区平池町4丁目60−12 グローバルゲート","place":"名古屋コンベンションホール","lat":35.162,"lon":136.883,"state":"active","id":null},{"event_id":"1211034","title":"VTuberハッカソン2019横須賀大会","url":"http://vth2019-9yokosuka.peatix.com","shortener_url":"https://bit.ly/2YNsWhe","started_at":"2019-09-14T10:00:00.000+09:00","ended_at":"2019-09-17T08:59:59.000+09:00","limit_number":null,"address":"横須賀市小川町19−5","place":"16 Startups","lat":35.2811,"lon":139.673,"state":"active","id":null},{"event_id":"1254970","title":"『フランス大好きみんなでカフェトーク in大阪』Coucou! の主催者とお話してみませんか","url":"http://coucou-francais20190901.peatix.com","shortener_url":null,"started_at":"2019-09-01T14:00:00.000+09:00","ended_at":"2019-09-04T08:59:59.000+09:00","limit_number":null,"address":"大阪府大阪市中央区心斎橋筋2-1-31煉瓦館ビル","place":"カフェ 英國屋 心斎橋本店 ","lat":0.0,"lon":0.0,"state":"active","id":null},{"event_id":"142690","title":"NASA/宇宙デー­­タ分析ハッカソン by Team AI 9/1(日)","url":"https://teamai.connpass.com/event/142690/","shortener_url":"https://bit.ly/2GVF8WR","started_at":"2019-09-01T16:00:00.000+09:00","ended_at":"2019-09-01T18:00:00.000+09:00","limit_number":15,"address":"","place":"Online","lat":35.6618,"lon":139.696,"state":"active","id":null},{"event_id":"140890","title":"LOCAL DEVELOPER DAY ’19 /Security","url":"https://local.connpass.com/event/140890/","shortener_url":null,"started_at":"2019-09-07T13:30:00.000+09:00","ended_at":"2019-09-07T18:00:00.000+09:00","limit_number":100,"address":"札幌市中央区北4条西5丁目アスティ45","place":"ACU-A 12F 中研修室1206","lat":43.0661,"lon":141.348,"state":"active","id":null},{"event_id":"1290487","title":"心から実現したくなる戦略的未来を描こう～ビジョン構築合宿","url":"http://topleader-2days.peatix.com","shortener_url":null,"started_at":"2019-09-07T10:00:00.000+09:00","ended_at":"2019-09-10T08:59:59.000+09:00","limit_number":null,"address":"千代田区平河町2丁目4−1","place":"都市センターホテル","lat":35.6811,"lon":139.739,"state":"active","id":null},{"event_id":"142845","title":"【中止】自然言語データ分析ハッカソン by Team AI 9/8(日)","url":"https://teamai.connpass.com/event/142845/","shortener_url":"https://bit.ly/2GZFBaN","started_at":"2019-09-08T16:00:00.000+09:00","ended_at":"2019-09-08T18:00:00.000+09:00","limit_number":15,"address":"","place":"Online","lat":35.6618,"lon":139.696,"state":"active","id":null},{"event_id":"1206000","title":"Move On『2025年 社会課題を解決する生活空間を考えるアイデアソン　ー　SDGs 持続可能な未来に向けての提案』","url":"http://krp-moveon.peatix.com","shortener_url":"https://bit.ly/2GZUQQV","started_at":"2019-09-07T09:00:00.000+09:00","ended_at":"2019-09-10T08:59:59.000+09:00","limit_number":null,"address":"〒600-8815 京都市下京区中堂寺粟田町91","place":"京都リサーチパーク9号館","lat":34.9958,"lon":135.739,"state":"active","id":null},{"event_id":"1298389","title":"＜シャントエコーを学びませんか？「プローブを握ったことがない方」「ステップアップしたい方」におすすめです！＞","url":"http://peatix.com/event/1298389","shortener_url":null,"started_at":"2019-09-15T09:30:00.000+09:00","ended_at":"2019-09-18T08:59:59.000+09:00","limit_number":null,"address":"台東区台東4丁目8−7 ヒューリック仲御徒町ビル8階","place":"メドフィット【MEDFit】","lat":35.7061,"lon":139.777,"state":"active","id":null},{"event_id":"107805","title":"会津大学競技プログラミング合宿2019","url":"https://atnd.org/events/107805","shortener_url":"https://bit.ly/2GZMY1J","started_at":"2019-09-18T12:30:00.000+09:00","ended_at":"2019-09-20T14:00:00.000+09:00","limit_number":50,"address":"福島県会津若松市一箕町鶴賀","place":"会津大学","lat":37.5255,"lon":139.938,"state":"closed","id":null},{"event_id":"96124","title":"【9/7（土）午後】初心者向けシリーズ①『PythonとJupyterNotebookの基礎』","url":"https://soleildatadojo.doorkeeper.jp/events/96124","shortener_url":null,"started_at":"2019-09-07T13:00:00.000+09:00","ended_at":"2019-09-07T17:10:00.000+09:00","limit_number":8,"address":"大阪府大阪市北区西天満二丁目5番3号(堂島深川ビル3階)","place":"SCRIBBLE OSAKA LAB（SOL）（大阪メトロ御堂筋線「淀屋橋」駅から徒歩４分）","lat":null,"lon":null,"state":"active","id":null},{"event_id":"96125","title":"【9/21（土）午後】初心者向けシリーズ②『Pandasによるデータ前処理と可視化の基礎』","url":"https://soleildatadojo.doorkeeper.jp/events/96125","shortener_url":null,"started_at":"2019-09-21T13:00:00.000+09:00","ended_at":"2019-09-21T17:10:00.000+09:00","limit_number":8,"address":"大阪府大阪市北区西天満二丁目5番3号(堂島深川ビル3階)","place":"SCRIBBLE OSAKA LAB（SOL）（大阪メトロ御堂筋線「淀屋橋」駅から徒歩４分）","lat":null,"lon":null,"state":"active","id":null},{"event_id":"95904","title":"9/28(土)~29(日)festivo ホームページ作成（WordPress） Camp@東京【学生20,000円、一般25,000円】～戦うスキルを身につける15時間！WordPress集中合宿！～","url":"https://festivo.doorkeeper.jp/events/95904","shortener_url":"https://bit.ly/2Z6hQUN","started_at":"2019-09-28T10:30:00.000+09:00","ended_at":"2019-09-29T18:30:00.000+09:00","limit_number":10,"address":"東京都練馬区豊玉北3-15-17","place":"起業家シェアハウス x-garden セミナールーム","lat":null,"lon":null,"state":"active","id":null},{"event_id":"1300165","title":"つくばのテックでつくる家業の未来Ⅱ～家業イノベーション・アイデアソン～","url":"http://kagyolabtsukubaideathon.peatix.com","shortener_url":"https://bit.ly/2H5wnK3","started_at":"2019-09-08T14:00:00.000+09:00","ended_at":"2019-09-11T08:59:59.000+09:00","limit_number":null,"address":"つくば市吾妻1丁目10−1 105","place":"up Tsukuba","lat":36.082,"lon":140.114,"state":"active","id":null},{"event_id":"413298","title":"【入場無料】『2019 IYF Mind Conference in Japan』マインドは目には見えませんが、建物の設計図と同じです。設計図面をどう描くかによって、建物の形が変わり、構造が変わるように、どのようなマインドを持つかによって人生が変わり、生活が変わります。","url":"http://iyfmindconference.peatix.com","shortener_url":null,"started_at":"2019-09-13T18:30:00.000+09:00","ended_at":"2019-09-16T08:59:59.000+09:00","limit_number":null,"address":"渋谷区代々木神園町3−1","place":"国立オリンピック記念青少年総合センター","lat":35.6758,"lon":139.694,"state":"active","id":null},{"event_id":"96173","title":"【9/19（木）・26（木）】初心者向け・２回で学ぶシリーズ①『PythonとJupyterNotebookの基礎』","url":"https://soleildatadojo.doorkeeper.jp/events/96173","shortener_url":null,"started_at":"2019-09-19T19:30:00.000+09:00","ended_at":"2019-09-26T21:30:00.000+09:00","limit_number":8,"address":"大阪府大阪市北区西天満二丁目5番3号(堂島深川ビル3階)","place":"SCRIBBLE OSAKA LAB（SOL）（大阪メトロ御堂筋線「淀屋橋」駅から徒歩４分）","lat":null,"lon":null,"state":"active","id":null},{"event_id":"1301962","title":"仏教ってなんだろう？（全３回／１回目）","url":"http://shobo190907.peatix.com","shortener_url":null,"started_at":"2019-09-07T13:30:00.000+09:00","ended_at":"2019-09-10T08:59:59.000+09:00","limit_number":null,"address":"渋谷区恵比寿23 東3−23−3 猪瀬ビル1F","place":"書坊（shobo）","lat":35.6496,"lon":139.709,"state":"active","id":null},{"event_id":"1304726","title":"#04 予約リストをあなたの大好きなお客様でいっぱいにしませんか ９月","url":"http://hairlogy190910.peatix.com","shortener_url":null,"started_at":"2019-09-10T14:45:00.000+09:00","ended_at":"2019-09-13T08:59:59.000+09:00","limit_number":null,"address":"千代田区 神田和泉町1-11-15","place":"スペインバル ボラッチョ","lat":35.6996,"lon":139.778,"state":"active","id":null},{"event_id":"1304759","title":"#06 予約リストをあなたの大好きなお客様でいっぱいにしませんか ９月","url":"http://hairlogy190924.peatix.com","shortener_url":null,"started_at":"2019-09-24T14:45:00.000+09:00","ended_at":"2019-09-27T08:59:59.000+09:00","limit_number":null,"address":"千代田区 神田和泉町1-11-15","place":"スペインバル ボラッチョ","lat":35.6996,"lon":139.778,"state":"active","id":null},{"event_id":"1304750","title":"#05 予約リストをあなたの大好きなお客様でいっぱいにしませんか ９月","url":"http://hairlogy190917.peatix.com","shortener_url":null,"started_at":"2019-09-17T14:45:00.000+09:00","ended_at":"2019-09-20T08:59:59.000+09:00","limit_number":null,"address":"千代田区 神田和泉町1-11-15","place":"スペインバル ボラッチョ","lat":35.6996,"lon":139.778,"state":"active","id":null},{"event_id":"141353","title":"第九陣信玄パイ「信玄パイ合宿 夏の陣（もくもく会参加のみ）」","url":"https://shingenpy.connpass.com/event/141353/","shortener_url":"https://bit.ly/2Z6dBsb","started_at":"2019-09-29T09:00:00.000+09:00","ended_at":"2019-09-29T17:00:00.000+09:00","limit_number":20,"address":"〒401-0502 山梨県南都留郡山中湖村平野506-296","place":"山中湖畔荘 ホテル清渓","lat":35.4069,"lon":138.876,"state":"active","id":null},{"event_id":"95779","title":"［無料］スタートアップの始め方","url":"https://swkanmon.doorkeeper.jp/events/95779","shortener_url":null,"started_at":"2019-09-07T13:00:00.000+09:00","ended_at":"2019-09-07T16:00:00.000+09:00","limit_number":null,"address":"下関市赤間町1-10","place":"創業支援カフェKARASTA.","lat":null,"lon":null,"state":"active","id":null},{"event_id":"1298624","title":"(旧ページ）クリエイターズキャンプ2019〜星空の下でクリエイターが集まってBBQして語り明かすことに意味があるんじゃないか〜","url":"http://creators-camp-2019.peatix.com","shortener_url":null,"started_at":"2019-09-28T13:00:00.000+09:00","ended_at":"2019-10-01T08:59:59.000+09:00","limit_number":null,"address":"笠置町大字笠置佃","place":"笠置キャンプ場","lat":34.7591,"lon":135.936,"state":"active","id":null},{"event_id":"143701","title":"智恵の和勉強会","url":"https://connpass.com/event/143701/","shortener_url":null,"started_at":"2019-09-07T13:00:00.000+09:00","ended_at":"2019-09-07T17:00:00.000+09:00","limit_number":null,"address":"東京都港区港南 2-16-3 品川グランドセントラルタワー","place":"マイクロソフト品川本社","lat":35.6267,"lon":139.74,"state":"active","id":null},{"event_id":"96329","title":"9/4(水) [オンライン参加可/会場特典付] 英語でウェブ解析を学ぶ体験セミナー 第1+2章","url":"https://web-mining.doorkeeper.jp/events/96329","shortener_url":null,"started_at":"2019-09-04T19:30:00.000+09:00","ended_at":"2019-09-04T21:00:00.000+09:00","limit_number":20,"address":"〒160-0023 東京都新宿区西新宿8-14-19 西新宿STビル6階","place":"〒160-0023 東京都新宿区西新宿8-14-19 西新宿STビル6階","lat":null,"lon":null,"state":"active","id":null},{"event_id":"1305365","title":"Global Goals Jam Tokyo 2019","url":"http://peatix.com/event/1305365","shortener_url":null,"started_at":"2019-09-21T09:00:00.000+09:00","ended_at":"2019-09-24T08:59:59.000+09:00","limit_number":null,"address":"3 Chome-27-1 Shibuya, Shibuya City","place":"100BANCH","lat":35.656,"lon":139.705,"state":"active","id":null},{"event_id":"1307174","title":"【非認知能力を伸ばす幼児教室】 \"音楽の力\"で、子どもの可能性を伸ばしてみませんか？","url":"http://peatix.com/event/1307174","shortener_url":null,"started_at":"2019-09-28T11:00:00.000+09:00","ended_at":"2019-10-01T08:59:59.000+09:00","limit_number":null,"address":"神奈川県川崎市小杉陣屋町1丁目23−7","place":"武蔵小杉【ダンススタジオR】","lat":35.5858,"lon":139.659,"state":"active","id":null},{"event_id":"1308009","title":"クリエイターズキャンプ2019〜星空の下でクリエイターが100人集まってBBQして語り明かすことに意味があるんじゃないか〜","url":"http://creators-camp2019.peatix.com","shortener_url":null,"started_at":"2019-09-28T13:00:00.000+09:00","ended_at":"2019-10-01T08:59:59.000+09:00","limit_number":null,"address":"笠置町大字笠置佃","place":"笠置キャンプ場","lat":34.7591,"lon":135.936,"state":"active","id":null},{"event_id":"1307557","title":"【無料】入力しながら構造化するコツを練習！#グラレコ構造理解 ワークショップ( #スケッチノート朝活 シリーズ)","url":"http://peatix.com/event/1307557","shortener_url":null,"started_at":"2019-09-01T09:00:00.000+09:00","ended_at":"2019-09-04T08:59:59.000+09:00","limit_number":null,"address":"渋谷区道玄坂2丁目10−7 2F 新大宗ビル1号館","place":"BOOK LAB TOKYO - 書店とコーヒースタンド 渋谷店","lat":35.6583,"lon":139.697,"state":"active","id":null},{"event_id":"96539","title":"【無料】1分ピッチをやってみよう！（Startup Weekend 守山 プレイベント）","url":"https://swmoriyama.doorkeeper.jp/events/96539","shortener_url":null,"started_at":"2019-09-11T17:00:00.000+09:00","ended_at":"2019-09-11T20:00:00.000+09:00","limit_number":10,"address":"滋賀県守山市浮気町300-15 グランドメゾン守山115号","place":"COWORKING TORKS","lat":null,"lon":null,"state":"active","id":null},{"event_id":"1307114","title":"記事添削もあり！初心者向け「WEBライティング合宿」開催","url":"http://peatix.com/event/1307114","shortener_url":null,"started_at":"2019-09-21T13:00:00.000+09:00","ended_at":"2019-09-24T08:59:59.000+09:00","limit_number":null,"address":"富津市金谷3870","place":"コワーキングスペース まるも","lat":35.1665,"lon":139.824,"state":"active","id":null},{"event_id":"1308964","title":"SHIBUYA SCRAMBLE SERIES vol.4　SHIBUYA QWS Presents クエスチョン・カンファレンス「幸せな老後ってなんだろう？」","url":"http://shibuya-scramble-series-vol4.peatix.com","shortener_url":null,"started_at":"2019-09-09T15:30:00.000+09:00","ended_at":"2019-09-12T08:59:59.000+09:00","limit_number":null,"address":"東京都渋谷区渋谷一丁目13番9号 渋谷たくぎんビル 7階","place":"Shibuya Open Innovation Lab（SOIL）","lat":35.6599,"lon":139.703,"state":"active","id":null},{"event_id":"144166","title":"熊ゆに Unityもくもく会　2019/9/1（日）","url":"https://kumauni.connpass.com/event/144166/","shortener_url":null,"started_at":"2019-09-01T13:00:00.000+09:00","ended_at":"2019-09-01T17:00:00.000+09:00","limit_number":10,"address":"熊本県熊本市 中央区下通１丁目１２−２７","place":"未来会議室","lat":32.7998,"lon":130.708,"state":"active","id":null},{"event_id":"1300480","title":"「RPA導入の落とし穴　～そのやり方間違ってませんか？～」","url":"http://mamezou-dx-5.peatix.com","shortener_url":null,"started_at":"2019-09-11T18:00:00.000+09:00","ended_at":"2019-09-14T08:59:59.000+09:00","limit_number":null,"address":"中央区京橋3丁目1−1","place":"東京スクエアガーデン","lat":35.676,"lon":139.768,"state":"active","id":null},{"event_id":"141474","title":"群馬開催！Web×IoT メイカーズチャレンジ 2019-20 【ハンズオン講習 \u0026 ハッカソン】","url":"https://webiotmakers.connpass.com/event/141474/","shortener_url":"https://bit.ly/2ZoWfHj","started_at":"2019-09-22T10:00:00.000+09:00","ended_at":"2019-09-23T18:00:00.000+09:00","limit_number":35,"address":"群馬県前橋市古市町1-50-21","place":"上毛新聞社","lat":36.3775,"lon":139.048,"state":"active","id":null},{"event_id":"144308","title":"第27回　CoderDojo横浜","url":"https://coderdojo-yokohama.connpass.com/event/144308/","shortener_url":null,"started_at":"2019-09-01T10:00:00.000+09:00","ended_at":"2019-09-01T12:00:00.000+09:00","limit_number":null,"address":"神奈川県横浜市神奈川区鶴屋町2-24-2","place":"かながわ県民センター","lat":35.4684,"lon":139.621,"state":"active","id":null},{"event_id":"1309179","title":"はじまりをはじめてみない？？ -日本橋CONNECTから「コミュニティ」を始めてみませんか？-","url":"http://peatix.com/event/1309179","shortener_url":null,"started_at":"2019-09-21T14:00:00.000+09:00","ended_at":"2019-09-24T08:59:59.000+09:00","limit_number":null,"address":"東京都中央区日本橋人形町3−7−6","place":"日本橋CONNECT","lat":35.6867,"lon":139.782,"state":"active","id":null},{"event_id":"1308435","title":"サイクリスト・登山客おもてなし大作戦！ 事業創造アイデアソン","url":"http://ideathon.peatix.com","shortener_url":"https://bit.ly/2ZiolDW","started_at":"2019-09-07T10:00:00.000+09:00","ended_at":"2019-09-10T08:59:59.000+09:00","limit_number":null,"address":"茨城県つくば市小田3107","place":"旧つくば市立小田小学校","lat":36.1529,"lon":140.112,"state":"active","id":null},{"event_id":"1304640","title":"【満員御礼！】9月9日開催！ABテストJAM/国内外主要ABテストベンダー参集。 CROのプロが語る「ABテストのプロがハマった落とし穴」","url":"http://dd-omd-abtestjam.peatix.com","shortener_url":null,"started_at":"2019-09-09T17:30:00.000+09:00","ended_at":"2019-09-12T08:59:59.000+09:00","limit_number":null,"address":"東京都中央区銀座8-21-1","place":"株式会社電通デジタル　浜離宮オフィス（住友不動産汐留浜離宮ビル19F）","lat":35.6642,"lon":139.764,"state":"active","id":null},{"event_id":"1311451","title":"「北欧ぷちとりっぷ vol.11 直球勝負で、北欧の魅力ってなんだ！？」","url":"http://peatix.com/event/1311451","shortener_url":null,"started_at":"2019-09-13T19:00:00.000+09:00","ended_at":"2019-09-16T08:59:59.000+09:00","limit_number":null,"address":"渋谷区渋谷1丁目23−16","place":"東京カルチャーカルチャー","lat":35.662,"lon":139.703,"state":"active","id":null},{"event_id":"1304961","title":"【本の街で、こころの目線を合わせる】第二回　まいさん×中川洋さんトークイベント","url":"http://kokoro-2.peatix.com","shortener_url":null,"started_at":"2019-09-13T19:00:00.000+09:00","ended_at":"2019-09-16T08:59:59.000+09:00","limit_number":null,"address":"千代田区神田神保町2丁目3−1 1F・2F・3F 岩波書店アネックス","place":"神保町ブックセンター","lat":35.6957,"lon":139.758,"state":"active","id":null},{"event_id":"1311069","title":"【9月前半のレッスン受付中】プロ講師のオンライン英語レッスンを試してみませんか？　リラックスして受講OK【水道橋駅 徒歩1分】","url":"http://offline201909vipabc01.peatix.com","shortener_url":null,"started_at":"2019-09-01T11:00:00.000+09:00","ended_at":"2019-09-04T08:59:59.000+09:00","limit_number":null,"address":"東京都千代田区神田三崎町2-20-5","place":"VIPABC東京本社　JR水道橋駅徒歩1分　住友不動産水道橋西口ビル7階","lat":35.7016,"lon":139.753,"state":"active","id":null},{"event_id":"96662","title":"【無料】カタチにできるアイデアの作り方（Startup Weekend 守山 プレイベント）in Tajima","url":"https://swmoriyama.doorkeeper.jp/events/96662","shortener_url":null,"started_at":"2019-09-08T13:00:00.000+09:00","ended_at":"2019-09-08T16:00:00.000+09:00","limit_number":10,"address":"兵庫県養父市大屋町加保","place":"BIGLABO","lat":null,"lon":null,"state":"active","id":null},{"event_id":"144760","title":"第19回 PCNひろしま こどもプログラミング教室","url":"https://pcn-hiroshima.connpass.com/event/144760/","shortener_url":null,"started_at":"2019-09-29T10:30:00.000+09:00","ended_at":"2019-09-29T12:30:00.000+09:00","limit_number":14,"address":"オンライン","place":"オンライン","lat":34.3941,"lon":132.459,"state":"active","id":null},{"event_id":"1312573","title":"はじまりをはじめてみない？？ -日本橋connectから「コミュニティ」を始めてみませんか？-","url":"http://peatix.com/event/1312573","shortener_url":null,"started_at":"2019-09-22T14:00:00.000+09:00","ended_at":"2019-09-25T08:59:59.000+09:00","limit_number":null,"address":"東京都中央区日本橋人形町3−7−6","place":"日本橋CONNECT","lat":35.6867,"lon":139.782,"state":"active","id":null},{"event_id":"143862","title":"Firebase Hackathon＋もくもく会＠pieceofcake HALL","url":"https://firebase-community.connpass.com/event/143862/","shortener_url":"https://bit.ly/2Hr8lta","started_at":"2019-09-14T10:00:00.000+09:00","ended_at":"2019-09-14T21:00:00.000+09:00","limit_number":100,"address":"東京都港区北青山3-1-2 青山セント・シオンビル4階（メトロ 外苑前駅 から 徒歩約５分）","place":"pieceofcake HALL","lat":35.6693,"lon":139.715,"state":"active","id":null},{"event_id":"96745","title":"琉ゲ部主催！GameJam！","url":"https://igda-ryukyus.doorkeeper.jp/events/96745","shortener_url":"https://bit.ly/2ZveQ4i","started_at":"2019-09-14T09:30:00.000+09:00","ended_at":"2019-09-15T19:30:00.000+09:00","limit_number":30,"address":"沖縄県中頭郡西原町字千原1番地","place":"琉球大学工学部1号館321教室","lat":null,"lon":null,"state":"active","id":null},{"event_id":"1310090","title":"【9/22日】インバウンド観光をビジネスチャンスに変えるには？　～オーバーツーリズムを考える起業志望者向けアイデアソン～","url":"http://peatix.com/event/1310090","shortener_url":"https://bit.ly/2HlSJqT","started_at":"2019-09-22T13:00:00.000+09:00","ended_at":"2019-09-25T08:59:59.000+09:00","limit_number":null,"address":"新宿区新宿5丁目18−21(2-1会議室) ※1F受付にてお待ちください","place":"吉本興業","lat":0.0,"lon":0.0,"state":"active","id":null},{"event_id":"144651","title":"初心に帰ってAPIを駆使するハッカソン","url":"https://osaka.connpass.com/event/144651/","shortener_url":"https://bit.ly/2ZvISoq","started_at":"2019-09-25T19:00:00.000+09:00","ended_at":"2019-10-10T21:00:00.000+09:00","limit_number":20,"address":"大阪府大阪市北区角田町8番1号 梅田阪急ビルオフィスタワー","place":"サイボウズ大阪オフィス","lat":34.7023,"lon":135.499,"state":"active","id":null},{"event_id":"145060","title":"子どものためのプログラミングクラブ コーダー道場韮崎 #6","url":"https://coderdojo-nirasaki.connpass.com/event/145060/","shortener_url":null,"started_at":"2019-09-22T13:30:00.000+09:00","ended_at":"2019-09-22T15:40:00.000+09:00","limit_number":13,"address":"山梨県韮崎市若宮一丁目2番50号","place":"韮崎市民交流センター","lat":35.7117,"lon":138.45,"state":"active","id":null},{"event_id":"145058","title":"子どものためのプログラミングクラブ コーダー道場北杜 #6","url":"https://coderdojo-hokuto.connpass.com/event/145058/","shortener_url":null,"started_at":"2019-09-22T09:30:00.000+09:00","ended_at":"2019-09-22T11:40:00.000+09:00","limit_number":8,"address":"山梨県北杜市高根町村山北割３２８８","place":"北杜市高根町農村環境改善センター","lat":35.8375,"lon":138.412,"state":"active","id":null},{"event_id":"96822","title":"【大阪開催】みんなでKaggleもくもく会#4","url":"https://soleildatadojo.doorkeeper.jp/events/96822","shortener_url":null,"started_at":"2019-09-29T13:00:00.000+09:00","ended_at":"2019-09-29T16:30:00.000+09:00","limit_number":10,"address":"大阪府大阪市北区西天満二丁目5番3号(堂島深川ビル3階)","place":"SCRIBBLE OSAKA LAB（SOL）（大阪メトロ御堂筋線「淀屋橋」駅から徒歩４分）","lat":null,"lon":null,"state":"active","id":null},{"event_id":"1244608","title":"起業家がクラウドファンディングでできること 　～資金調達できると思っていませんか","url":"http://peatix.com/event/1244608","shortener_url":null,"started_at":"2019-09-04T14:00:00.000+09:00","ended_at":"2019-09-07T08:59:59.000+09:00","limit_number":null,"address":"東京都中央区日本橋人形町1-18-5 TK人形町ビル2F","place":"Global Labo Tokyo（クラファン株式会社東京本社）","lat":35.6857,"lon":139.782,"state":"active","id":null},{"event_id":"1314252","title":"9/10(火) キャッシュレスでおみせを盛り上げませんか！？「おみせ支援マスター」説明会開催！","url":"http://peatix.com/event/1314252","shortener_url":null,"started_at":"2019-09-10T11:00:00.000+09:00","ended_at":"2019-09-13T08:59:59.000+09:00","limit_number":null,"address":"〒104-0061 東京都中央区銀座一丁目14-5 銀座ウィング南 3F","place":"一般社団法人NIPPON応援団　銀座オフィス","lat":35.6732,"lon":139.77,"state":"active","id":null},{"event_id":"1314248","title":"9/3(火) キャッシュレスでおみせを盛り上げませんか！？「おみせ支援マスター」説明会開催！","url":"http://peatix.com/event/1314248","shortener_url":null,"started_at":"2019-09-03T11:00:00.000+09:00","ended_at":"2019-09-06T08:59:59.000+09:00","limit_number":null,"address":"〒104-0061 東京都中央区銀座一丁目14-5 銀座ウィング南 3F","place":"一般社団法人NIPPON応援団　銀座オフィス","lat":35.6732,"lon":139.77,"state":"active","id":null},{"event_id":"1300273","title":"JILLA フリーランスの働き方座談 \u0026 交流会 〜フリーを続けていくには？みんな何をしてるんだろ？〜","url":"http://sapporo-symposium.peatix.com","shortener_url":null,"started_at":"2019-09-14T18:00:00.000+09:00","ended_at":"2019-09-17T08:59:59.000+09:00","limit_number":null,"address":"北海道札幌市北区北6条西8丁目3-4","place":"Ten to Ten SAPPORO STATION","lat":43.068,"lon":141.343,"state":"active","id":null},{"event_id":"1313230","title":"はっとり♡かんなの似顔絵やさん inみんなの浅草花やしき展","url":"http://hattori-kanna-hanayashiki.peatix.com","shortener_url":null,"started_at":"2019-09-14T12:00:00.000+09:00","ended_at":"2019-09-17T08:59:59.000+09:00","limit_number":null,"address":"台東区寿3丁目14−13 寿ビル","place":"トーキョーピクセル","lat":35.7063,"lon":139.793,"state":"active","id":null},{"event_id":"1303793","title":"「18時間で作る新規事業案」ブロックチェーン・ビジネスアイデアソン#7","url":"http://blockchainbusinessideathon9.peatix.com","shortener_url":"https://bit.ly/2MIc6yq","started_at":"2019-09-28T10:00:00.000+09:00","ended_at":"2019-10-01T08:59:59.000+09:00","limit_number":null,"address":"東京都中央区銀座1丁目8-19 キラリトギンザ11F","place":"BINARYSTAR","lat":35.6743,"lon":139.769,"state":"active","id":null},{"event_id":"1310232","title":"なんも大学presents『憧れのあきた・ん・ぼ・う  〜秋田とつながるナイト〜』","url":"http://akogareno-akitanbou.peatix.com","shortener_url":null,"started_at":"2019-09-17T19:00:00.000+09:00","ended_at":"2019-09-20T08:59:59.000+09:00","limit_number":null,"address":"錦町ブンカイサン 1-2F, 3 Chome-15番地 Kanda Nishikicho, Chiyoda City","place":"風土はfoodから","lat":35.6918,"lon":139.762,"state":"active","id":null},{"event_id":"1244647","title":"起業家がクラウドファンディングでできること 　～資金調達できると思っていませんか","url":"http://peatix.com/event/1244647","shortener_url":null,"started_at":"2019-09-25T18:30:00.000+09:00","ended_at":"2019-09-28T08:59:59.000+09:00","limit_number":null,"address":"東京都中央区日本橋人形町1-18-5 TK人形町ビル2F","place":"Global Labo Tokyo（クラファン株式会社東京本社）","lat":35.6857,"lon":139.782,"state":"active","id":null},{"event_id":"1244598","title":"起業家がクラウドファンディングでできること 　～資金調達できると思っていませんか","url":"http://peatix.com/event/1244598","shortener_url":null,"started_at":"2019-09-11T18:30:00.000+09:00","ended_at":"2019-09-14T08:59:59.000+09:00","limit_number":null,"address":"東京都中央区日本橋人形町1-18-5 TK人形町ビル2F","place":"Global Labo Tokyo（クラファン株式会社東京本社）","lat":35.6857,"lon":139.782,"state":"active","id":null},{"event_id":"1244631","title":"起業家がクラウドファンディングでできること 　～資金調達できると思っていませんか","url":"http://peatix.com/event/1244631","shortener_url":null,"started_at":"2019-09-18T14:00:00.000+09:00","ended_at":"2019-09-21T08:59:59.000+09:00","limit_number":null,"address":"東京都中央区日本橋人形町1-18-5 TK人形町ビル2F","place":"Global Labo Tokyo（クラファン株式会社東京本社）","lat":35.6857,"lon":139.782,"state":"active","id":null},{"event_id":"145283","title":"スクラム道関西 オープン・ジャム","url":"https://scrumdo-kansai.connpass.com/event/145283/","shortener_url":null,"started_at":"2019-09-10T19:30:00.000+09:00","ended_at":"2019-09-10T21:30:00.000+09:00","limit_number":20,"address":"大阪市西区川口2丁目2番17号(川口住倉ビルディング)","place":"株式会社Rise UP","lat":34.6835,"lon":135.482,"state":"active","id":null},{"event_id":"96744","title":"【初開催！】Startup Weekend Tokyo Hachioji","url":"https://swtokyo.doorkeeper.jp/events/96744","shortener_url":"https://bit.ly/2MJ2PX7","started_at":"2019-09-27T18:00:00.000+09:00","ended_at":"2019-09-29T20:00:00.000+09:00","limit_number":30,"address":"〒192-0982 東京都八王子市片倉町1404-1","place":"東京工科大学 八王子キャンパス 研究棟Ａ706","lat":null,"lon":null,"state":"active","id":null},{"event_id":"1313249","title":"「あたりまえ」をうたがってみよう、『文化人類学の思考法』を読む。９月の「本で遊ぶじかん」","url":"http://sugoi201909.peatix.com","shortener_url":null,"started_at":"2019-09-19T19:00:00.000+09:00","ended_at":"2019-09-22T08:59:59.000+09:00","limit_number":null,"address":"東京都目黒区青葉台3丁目15-15 BUENA CASA 青葉台302","place":"株式会社SUGOI","lat":0.0,"lon":0.0,"state":"active","id":null},{"event_id":"1314543","title":"集客につなげるビジネス活用講座「バリアフリー×接客応対」～あなたのコミュニケーションスキルを上げてみませんか？～","url":"http://peatix.com/event/1314543","shortener_url":null,"started_at":"2019-09-25T18:45:00.000+09:00","ended_at":"2019-09-28T08:59:59.000+09:00","limit_number":null,"address":"東京都千代田区神田錦町3‐21 ちよだプラットフォームスクウェア","place":"ちよだプラットフォームスクウェア　地下1階　ミーティングルーム004号室","lat":35.6914,"lon":139.762,"state":"active","id":null},{"event_id":"145510","title":"自然言語データ分析ハッカソン by Team AI 9/22(日)","url":"https://teamai.connpass.com/event/145510/","shortener_url":"https://bit.ly/2NGPRbT","started_at":"2019-09-22T16:00:00.000+09:00","ended_at":"2019-09-22T18:00:00.000+09:00","limit_number":15,"address":"","place":"Online","lat":35.6618,"lon":139.696,"state":"active","id":null},{"event_id":"143675","title":"信州開催！Web×IoT メイカーズチャレンジ 2019-20 【ハンズオン講習 \u0026 ハッカソン】","url":"https://webiotmakers.connpass.com/event/143675/","shortener_url":"https://bit.ly/2MLXONl","started_at":"2019-09-28T10:00:00.000+09:00","ended_at":"2019-09-29T18:00:00.000+09:00","limit_number":30,"address":"長野県塩尻市大門八番町1番27号（塩尻情報プラザ）","place":"塩尻情報プラザ","lat":36.1116,"lon":137.95,"state":"active","id":null},{"event_id":"97088","title":"『Python, Machine Learning \u0026 Raspberry PI』もくもく会#31","url":"https://soleildatadojo.doorkeeper.jp/events/97088","shortener_url":null,"started_at":"2019-09-13T19:30:00.000+09:00","ended_at":"2019-09-13T21:30:00.000+09:00","limit_number":8,"address":"大阪府大阪市北区西天満二丁目5番3号(堂島深川ビル3階)","place":"SCRIBBLE OSAKA LAB（SOL）（大阪メトロ御堂筋線「淀屋橋」駅から徒歩４分）","lat":null,"lon":null,"state":"active","id":null},{"event_id":"1316707","title":"オープントーク「Global Goals Jam -SDGsへ向けた世界のデザイン活動の現在形-」","url":"http://190913ggj.peatix.com","shortener_url":null,"started_at":"2019-09-13T19:00:00.000+09:00","ended_at":"2019-09-16T08:59:59.000+09:00","limit_number":null,"address":"京都市下京区本塩竈町554","place":"FabCafe Kyoto / MTRL KYOTO","lat":34.9952,"lon":135.764,"state":"active","id":null},{"event_id":"145604","title":"東京ハッカソン@ヒーローズ・リーグ 2019 by MA","url":"https://mashupawards.connpass.com/event/145604/","shortener_url":"https://bit.ly/2MO8gEe","started_at":"2019-09-14T10:00:00.000+09:00","ended_at":"2019-09-15T20:00:00.000+09:00","limit_number":35,"address":"東京都千代田区岩本町三丁目11番11号 プルータスビル2F","place":"L is Bオープンスペース","lat":35.6967,"lon":139.777,"state":"active","id":null},{"event_id":"145335","title":"［中止］高知ハッカソン@ヒーローズ・リーグ 2019 by MA","url":"https://mashupawards.connpass.com/event/145335/","shortener_url":"https://bit.ly/2NJwJtU","started_at":"2019-09-21T10:00:00.000+09:00","ended_at":"2019-09-22T20:00:00.000+09:00","limit_number":30,"address":"高知県高知市永国寺町６番２８号","place":"高知工科大学永国寺キャンパス地域連携棟4F","lat":33.5634,"lon":133.534,"state":"active","id":null},{"event_id":"108425","title":"【未経験〜初級エンジニア】youtubeAPIを使ってyoutuberをHACKせよ！＠駒沢大学前","url":"https://atnd.org/events/108425","shortener_url":"https://bit.ly/2NMaLXg","started_at":"2019-09-21T11:00:00.000+09:00","ended_at":"2019-09-21T21:00:00.000+09:00","limit_number":10,"address":"東京都世田谷区駒沢5丁目26−7 コマザワパークサイドテラスノース3F","place":"株式会社ALCHEMY","lat":35.6271,"lon":139.656,"state":"closed","id":null},{"event_id":"145748","title":"子ども向けプログラミングクラブ コーダー道場甲府#26","url":"https://coderdojokofu.connpass.com/event/145748/","shortener_url":null,"started_at":"2019-09-23T09:20:00.000+09:00","ended_at":"2019-09-23T11:40:00.000+09:00","limit_number":13,"address":"山梨県甲府市北口２丁目８番１号","place":"山梨県立図書館","lat":35.6685,"lon":138.57,"state":"active","id":null},{"event_id":"145731","title":"名古ゲ部ゲームジャム・2019夏　9月14日（土）～9月15日（日）通常利用OK","url":"https://nagogebu.connpass.com/event/145731/","shortener_url":"https://bit.ly/2NKQe5t","started_at":"2019-09-14T10:00:00.000+09:00","ended_at":"2019-09-15T18:00:00.000+09:00","limit_number":15,"address":"愛知県名古屋市中区丸の内３丁目５－３４（セントラルコーポ５０３号室）","place":"名古屋ゲーム制作部(セントラルコーポ 503号室)","lat":35.1773,"lon":136.906,"state":"active","id":null},{"event_id":"97107","title":"【未経験〜初級エンジニア】youtubeAPIを使ってyoutuberをHACKせよ！＠駒沢大学前","url":"https://079b6c31b6971a2978c6fd92bd.doorkeeper.jp/events/97107","shortener_url":"https://bit.ly/2MRlWOR","started_at":"2019-09-21T11:00:00.000+09:00","ended_at":"2019-09-21T21:00:00.000+09:00","limit_number":10,"address":"東京都世田谷区駒沢5丁目26−7 コマザワパークサイドテラスノース3F","place":"株式会社ALCHEMY","lat":null,"lon":null,"state":"active","id":null},{"event_id":"1310031","title":"カートラジャパン2019: ソトカイギ2「ニッポン全域ホテル化構想」アイデアソン","url":"http://cartra-sotokaigi2.peatix.com","shortener_url":"https://bit.ly/2MSBfXs","started_at":"2019-09-22T11:00:00.000+09:00","ended_at":"2019-09-25T08:59:59.000+09:00","limit_number":null,"address":"千葉市美浜区中瀬2丁目1","place":"幕張メッセ屋外展示場","lat":35.6493,"lon":140.034,"state":"active","id":null},{"event_id":"1310029","title":"カートラジャパン2019:  ソトカイギ1「未来のサービスをつくる」アイデアソン","url":"http://cartra-sotokaigi1.peatix.com","shortener_url":"https://bit.ly/2MOPfS8","started_at":"2019-09-21T11:00:00.000+09:00","ended_at":"2019-09-24T08:59:59.000+09:00","limit_number":null,"address":"千葉市美浜区中瀬2丁目1","place":"幕張メッセ屋外展示場","lat":35.6493,"lon":140.034,"state":"active","id":null},{"event_id":"1318712","title":"インド人によるインド怪談～インドの怪談てどんなんだ？～","url":"http://peatix.com/event/1318712","shortener_url":null,"started_at":"2019-09-20T18:00:00.000+09:00","ended_at":"2019-09-23T08:59:59.000+09:00","limit_number":null,"address":"文京区本駒込6丁目15−18 creation六義園8F","place":"イベントルーム Medic room","lat":35.7334,"lon":139.748,"state":"active","id":null},{"event_id":"1319195","title":"【東京9月開催】03：ユーザーのニーズとリテラシーを基準に考える〜UIデザイン","url":"http://peatix.com/event/1319195","shortener_url":null,"started_at":"2019-09-14T13:00:00.000+09:00","ended_at":"2019-09-17T08:59:59.000+09:00","limit_number":null,"address":"千代田区神田鍛冶町3丁目2−2","place":"エッサム神田ホール1号館","lat":35.6935,"lon":139.771,"state":"active","id":null},{"event_id":"1319202","title":"【東京9月開催】04：直感的で快適なWEB環境を作る｢スマホ用UIデザイン｣","url":"http://peatix.com/event/1319202","shortener_url":null,"started_at":"2019-09-14T16:45:00.000+09:00","ended_at":"2019-09-17T08:59:59.000+09:00","limit_number":null,"address":"千代田区神田鍛冶町3丁目2−2","place":"エッサム神田ホール1号館","lat":35.6935,"lon":139.771,"state":"active","id":null},{"event_id":"143602","title":"FD.io / VPP ユーザ有志の会 #2","url":"https://vppug.connpass.com/event/143602/","shortener_url":null,"started_at":"2019-09-19T18:30:00.000+09:00","ended_at":"2019-09-19T20:30:00.000+09:00","limit_number":55,"address":"東京都中央区京橋 3-1-1  東京スクエアガーデン 14F","place":"東京スクエアガーデン","lat":35.6761,"lon":139.769,"state":"active","id":null},{"event_id":"1315170","title":"テーマは「STEAM教育」。教育現場と考える、新しい学びの場とは？ ー未来の教育 アイデアソン開催","url":"http://peatix.com/event/1315170","shortener_url":"https://bit.ly/2MUnoA4","started_at":"2019-09-20T10:00:00.000+09:00","ended_at":"2019-09-23T08:59:59.000+09:00","limit_number":null,"address":"渋谷区道玄坂1丁目22−7 道玄坂ピアビル2階","place":"FabCafe MTRL（MTRL TOKYO）","lat":35.6561,"lon":139.695,"state":"active","id":null},{"event_id":"1317289","title":"Intern Meetup～長期インターン仲間とゆるくお話ししませんか？～","url":"http://peatix.com/event/1317289","shortener_url":null,"started_at":"2019-09-11T19:00:00.000+09:00","ended_at":"2019-09-14T08:59:59.000+09:00","limit_number":null,"address":"港区白金台5丁目12−7 4F MG白金台ビル","place":"ウォンテッドリー","lat":35.6397,"lon":139.722,"state":"active","id":null},{"event_id":"1312545","title":"【9/12(木)】MakeSmileDay｜秋メイクに衣替えしませんか？お顔のバランスメイクレッスン","url":"http://makesmile0912.peatix.com","shortener_url":null,"started_at":"2019-09-12T19:00:00.000+09:00","ended_at":"2019-09-15T08:59:59.000+09:00","limit_number":null,"address":"港区虎ノ門4丁目3−1 城山トラストタワー1F","place":"Café \u0026 Deli GGCo.","lat":35.6646,"lon":139.743,"state":"active","id":null},{"event_id":"146158","title":"【中止】AI機能付きSlackAppを構築しよう! by Team AI 9/25(水)","url":"https://teamai.connpass.com/event/146158/","shortener_url":null,"started_at":"2019-09-25T19:30:00.000+09:00","ended_at":"2019-09-25T21:30:00.000+09:00","limit_number":23,"address":"","place":"Online","lat":35.6618,"lon":139.696,"state":"active","id":null},{"event_id":"146112","title":"【福岡】UX JAM in FUKUOKA 01","url":"https://uxmilk.connpass.com/event/146112/","shortener_url":null,"started_at":"2019-09-25T19:30:00.000+09:00","ended_at":"2019-09-25T22:00:00.000+09:00","limit_number":70,"address":"福岡市中央区天神2-7-21 天神プライム","place":"GMOペパボ株式会社（福岡）","lat":33.5902,"lon":130.396,"state":"active","id":null},{"event_id":"97222","title":"【レベルと目的に応じて2冊の本で学ぶ】DeepLearning勉強会#7","url":"https://soleildatadojo.doorkeeper.jp/events/97222","shortener_url":null,"started_at":"2019-09-05T19:30:00.000+09:00","ended_at":"2019-09-05T21:30:00.000+09:00","limit_number":8,"address":"大阪府大阪市北区西天満二丁目5番3号(堂島深川ビル3階)","place":"SCRIBBLE OSAKA LAB（SOL）（大阪メトロ御堂筋線「淀屋橋」駅から徒歩４分）","lat":null,"lon":null,"state":"active","id":null},{"event_id":"1321232","title":"べんチョキ先生〜色であそぼう〜","url":"http://peatix.com/event/1321232","shortener_url":null,"started_at":"2019-09-29T11:00:00.000+09:00","ended_at":"2019-10-02T08:59:59.000+09:00","limit_number":null,"address":"東京都葛飾区亀有3-26-1","place":" 絵と言葉のライブラリー ミッカ（リリオ亀有7F）","lat":35.7666,"lon":139.848,"state":"active","id":null},{"event_id":"1320709","title":"【旅するいっぴんいち Vol.2】大川組子のコースター製作体験","url":"http://peatix.com/event/1320709","shortener_url":null,"started_at":"2019-09-14T10:00:00.000+09:00","ended_at":"2019-09-17T08:59:59.000+09:00","limit_number":null,"address":"東京都港区西新橋2丁目17-4","place":"新虎通り","lat":35.6662,"lon":139.751,"state":"active","id":null},{"event_id":"1320686","title":"【旅するいっぴんいち Vol.2】白河だるまの絵付けワークショップ","url":"http://peatix.com/event/1320686","shortener_url":null,"started_at":"2019-09-14T10:00:00.000+09:00","ended_at":"2019-09-17T08:59:59.000+09:00","limit_number":null,"address":"東京都港区西新橋2丁目17-4","place":"新虎通り","lat":35.6662,"lon":139.751,"state":"active","id":null},{"event_id":"1316402","title":"旅するうたげ大交流会　〜旅するいっぴんいちver.〜","url":"http://tabisuru-koryukai0914.peatix.com","shortener_url":null,"started_at":"2019-09-14T16:00:00.000+09:00","ended_at":"2019-09-17T08:59:59.000+09:00","limit_number":null,"address":"東京都港区西新橋2-17-4","place":"「旅するスタンド」「TREX TORANOMON CAFE」","lat":35.6662,"lon":139.751,"state":"active","id":null},{"event_id":"1315769","title":"【9/14(土)　参加無料 キッズイベント】子供向けお絵かきワークショップでアートのボランティアイベントに参加してみませんか？","url":"http://peatix.com/event/1315769","shortener_url":null,"started_at":"2019-09-14T11:00:00.000+09:00","ended_at":"2019-09-17T08:59:59.000+09:00","limit_number":null,"address":"港区麻布台1丁目11−10","place":"ORANGE brainery","lat":35.6609,"lon":139.744,"state":"active","id":null},{"event_id":"1320171","title":"☆★参加無料＆オンライン受講可能★☆人事が作業になっていませんか？2,500社の評価ビックデータが教える、人事が会社を変える方法！！","url":"http://peatix.com/event/1320171","shortener_url":null,"started_at":"2019-09-18T17:00:00.000+09:00","ended_at":"2019-09-21T08:59:59.000+09:00","limit_number":null,"address":"〒104-0061 東京都中央区銀座6-10-1","place":"株式会社あしたのチーム(GINZASIX11階)","lat":35.6697,"lon":139.764,"state":"active","id":null},{"event_id":"145279","title":"【大阪】UX JAM in OSAKA 01","url":"https://uxmilk.connpass.com/event/145279/","shortener_url":null,"started_at":"2019-09-26T19:15:00.000+09:00","ended_at":"2019-09-26T21:35:00.000+09:00","limit_number":100,"address":"ヤフー株式会社 大阪グランフロントオフィス","place":"大阪府大阪市北区大深町4-20 グランフロント大阪 タワーA 37階","lat":34.7039,"lon":135.495,"state":"active","id":null},{"event_id":"145735","title":"Mix Leap Study #51 - UX JAM in OSAKA 01","url":"https://yahoo-osaka.connpass.com/event/145735/","shortener_url":null,"started_at":"2019-09-26T19:15:00.000+09:00","ended_at":"2019-09-26T21:35:00.000+09:00","limit_number":70,"address":"大阪府大阪市北区大深町4-20 グランフロント大阪 タワーA 37階","place":"ヤフー株式会社 大阪グランフロントオフィス","lat":34.7054,"lon":135.495,"state":"active","id":null},{"event_id":"1317014","title":"第30回　駿馬 NAGOYA DAI-KAIKOU「大邂逅」〜ポートフォリオJAM〜","url":"http://shunme-30.peatix.com","shortener_url":null,"started_at":"2019-09-21T10:30:00.000+09:00","ended_at":"2019-09-24T08:59:59.000+09:00","limit_number":null,"address":"名古屋市中村区則武1丁目6−3 ベルヴュオフィス名古屋","place":"TKPガーデンシティPREMIUM名駅西口","lat":35.1721,"lon":136.878,"state":"active","id":null},{"event_id":"1321812","title":"【満員御礼】【無料】リアルタイムに図解する楽描（らくがき） 体験会 #楽描ワイワイ ⇒ 別日あります！","url":"http://rkgkyy-20190928.peatix.com","shortener_url":null,"started_at":"2019-09-28T14:30:00.000+09:00","ended_at":"2019-10-01T08:59:59.000+09:00","limit_number":null,"address":"千代田区紀尾井町1−2 17F","place":"LODGE","lat":35.6797,"lon":139.737,"state":"active","id":null},{"event_id":"146479","title":"NASA/宇宙デー­­タ分析ハッカソン by Team AI 9/29(日)","url":"https://teamai.connpass.com/event/146479/","shortener_url":"https://bit.ly/34tBiyw","started_at":"2019-09-29T16:00:00.000+09:00","ended_at":"2019-09-29T18:00:00.000+09:00","limit_number":17,"address":"","place":"Online","lat":35.6618,"lon":139.696,"state":"active","id":null},{"event_id":"97327","title":"【レベルと目的に応じて2冊の本で学ぶ】DeepLearning勉強会#8","url":"https://soleildatadojo.doorkeeper.jp/events/97327","shortener_url":null,"started_at":"2019-09-24T19:30:00.000+09:00","ended_at":"2019-09-24T21:30:00.000+09:00","limit_number":10,"address":"大阪府大阪市北区西天満二丁目5番3号(堂島深川ビル3階)","place":"SCRIBBLE OSAKA LAB（SOL）（大阪メトロ御堂筋線「淀屋橋」駅から徒歩４分）","lat":null,"lon":null,"state":"active","id":null},{"event_id":"1320809","title":"志んまち勘亭流書道會《長月》","url":"http://peatix.com/event/1320809","shortener_url":null,"started_at":"2019-09-22T10:30:00.000+09:00","ended_at":"2019-09-25T08:59:59.000+09:00","limit_number":null,"address":"大阪市淀川区西中島4-3-2","place":"フリースペース類","lat":0.0,"lon":0.0,"state":"active","id":null},{"event_id":"1323401","title":"初めての方も一度でハマる！ボードゲーム会を体験してみませんか？in大阪","url":"http://careerplus7.peatix.com","shortener_url":null,"started_at":"2019-09-29T13:15:00.000+09:00","ended_at":"2019-10-02T08:59:59.000+09:00","limit_number":null,"address":"大阪府大阪市中央区北久宝寺町1-5-6","place":"堺筋本町ブリックスペース【堺筋本町アーバンライフ地下1Ｆ 3号室】","lat":34.6802,"lon":135.509,"state":"active","id":null},{"event_id":"108552","title":"日本Androidの会秋葉原支部ロボット部　第84回勉強会 ~STEM教材、掃除機、深セン~","url":"https://atnd.org/events/108552","shortener_url":null,"started_at":"2019-09-08T13:00:00.000+09:00","ended_at":"2019-09-08T17:00:00.000+09:00","limit_number":15,"address":"東京都江東区亀戸2-19-1カメリアプラザ6階 第3会議室","place":"亀戸文化センター","lat":35.6976,"lon":139.825,"state":"closed","id":null},{"event_id":"108604","title":"My Assignment Services innovated by Mobile Radio Communication Assignment Help","url":"https://atnd.org/events/108604","shortener_url":null,"started_at":"2019-09-07T00:30:00.000+09:00","ended_at":"2019-09-09T08:59:59.000+09:00","limit_number":null,"address":"4/64-66 Castlereagh St. Liverpool, NSW, 2170  Australia","place":"My Assignment Services","lat":-33.9228,"lon":150.92,"state":"closed","id":null},{"event_id":"146651","title":"IT×ロート製薬 スポーツ事業開発アイデアソン","url":"https://connpass.com/event/146651/","shortener_url":"https://bit.ly/34zbGjJ","started_at":"2019-09-29T12:00:00.000+09:00","ended_at":"2019-09-29T18:00:00.000+09:00","limit_number":20,"address":"大阪市北区大深町3-1( グランフロント大阪 ナレッジキャピタルタワーC 7F)","place":"大阪イノベーションハブ プレゼンスペース","lat":34.7054,"lon":135.494,"state":"active","id":null},{"event_id":"144875","title":"GDG Cloud Oita  vol.1","url":"https://gdgcloudoita.connpass.com/event/144875/","shortener_url":null,"started_at":"2019-09-21T14:00:00.000+09:00","ended_at":"2019-09-21T18:00:00.000+09:00","limit_number":25,"address":"大分県大分市府内町1-6-36 (TSアパートメント1F)","place":"QOX Lab","lat":33.2359,"lon":131.611,"state":"active","id":null},{"event_id":"146061","title":"大垣Pythonハッカソン@ヒーローズ・リーグ 2019 by MA","url":"https://mashupawards.connpass.com/event/146061/","shortener_url":"https://bit.ly/2LDUYXL","started_at":"2019-09-28T10:00:00.000+09:00","ended_at":"2019-09-29T20:00:00.000+09:00","limit_number":30,"address":"岐阜県大垣市今宿6-52-16","place":"ソフトピアジャパン ドリーム・コア実習室1（3F）","lat":35.3679,"lon":136.637,"state":"active","id":null},{"event_id":"146920","title":"東京公共交通オープンデータチャレンジ(アイデアソン) vol.2","url":"https://zero-ichi.connpass.com/event/146920/","shortener_url":"https://bit.ly/2Lq8xv5","started_at":"2019-09-28T09:30:00.000+09:00","ended_at":"2019-09-28T17:00:00.000+09:00","limit_number":10,"address":"〒102-0094 東京都千代田区紀尾井町１−２ 17F","place":"ヤフー株式会社オープンコラボレーションスペース「LODGE」","lat":35.68,"lon":139.738,"state":"active","id":null},{"event_id":"1324593","title":"滝の上の家庭菜園と季節のジャム ｜南伊豆くらし図鑑","url":"http://peatix.com/event/1324593","shortener_url":null,"started_at":"2019-09-16T13:30:00.000+09:00","ended_at":"2019-09-19T08:59:59.000+09:00","limit_number":null,"address":"静岡県賀茂郡南伊豆町伊浜","place":"静岡県賀茂郡南伊豆町","lat":0.0,"lon":0.0,"state":"active","id":null},{"event_id":"1322910","title":"Google Cloud Study Jam: Deploying Applications","url":"http://apusds-studyjam.peatix.com","shortener_url":null,"started_at":"2019-09-28T11:00:00.000+09:00","ended_at":"2019-10-01T08:59:59.000+09:00","limit_number":null,"address":"Jalan Teknologi 5, Taman Teknologi Malaysia, Kuala Lumpur","place":"Asia Pacific University of Technology \u0026 Innovation (APU)","lat":3.05507,"lon":101.701,"state":"active","id":null},{"event_id":"738318","title":"【沖縄開催】地元創生アイデアソン「第7回 さぶみっと！ヨクスル in 沖縄」お一人でのご参加・はじめての方大歓迎！","url":"http://peatix.com/event/738318","shortener_url":"https://bit.ly/2O0MI6S","started_at":"2019-09-28T14:00:00.000+09:00","ended_at":"2019-10-01T08:59:59.000+09:00","limit_number":null,"address":"那覇市松尾1丁目6−1","place":"八汐荘","lat":26.2138,"lon":127.683,"state":"active","id":null},{"event_id":"1322267","title":"【保護者向け説明会②】ゑもんキッズプロジェクト with a.school（小学生向け特別講座＠池上）","url":"http://wemonkids2.peatix.com","shortener_url":null,"started_at":"2019-09-18T17:00:00.000+09:00","ended_at":"2019-09-21T08:59:59.000+09:00","limit_number":null,"address":"大田区池上4丁目31−16","place":"SANDO BY WEMON PROJECTS","lat":35.5731,"lon":139.704,"state":"active","id":null},{"event_id":"1320439","title":"【旅するいっぴんいち Vol.2】天然藍染料（すくも）を用いた阿波藍の藍染めワークショップ","url":"http://tabisuruippinichi21.peatix.com","shortener_url":null,"started_at":"2019-09-14T10:00:00.000+09:00","ended_at":"2019-09-17T08:59:59.000+09:00","limit_number":null,"address":"東京都港区西新橋2丁目17-4","place":"新虎通り","lat":35.6662,"lon":139.751,"state":"active","id":null},{"event_id":"1322258","title":"【保護者向け説明会①】ゑもんキッズプロジェクト with a.school（小学生向け特別講座＠池上）","url":"http://wemonkids.peatix.com","shortener_url":null,"started_at":"2019-09-14T10:00:00.000+09:00","ended_at":"2019-09-17T08:59:59.000+09:00","limit_number":null,"address":"大田区池上4丁目31−16","place":"SANDO BY WEMON PROJECTS","lat":35.5731,"lon":139.704,"state":"active","id":null},{"event_id":"145949","title":"【抽選30名】AWE Nite Tokyo #4 「ARKit3 Hackathon」","url":"https://awenitetokyo.connpass.com/event/145949/","shortener_url":"https://bit.ly/2LtyolG","started_at":"2019-09-28T09:30:00.000+09:00","ended_at":"2019-09-28T23:00:00.000+09:00","limit_number":30,"address":"東京都品川区西五反田2-8-1 五反田ファーストビル 9F","place":"freee株式会社","lat":35.6268,"lon":139.722,"state":"active","id":null},{"event_id":"1300629","title":"【参加無料】「くるまの3Dデータでかなえたい未来」を考えるアイデアソン【大賞10万円】","url":"http://toyotasystems-ideathon.peatix.com","shortener_url":"https://bit.ly/2NW8Dw1","started_at":"2019-09-21T11:00:00.000+09:00","ended_at":"2019-09-24T08:59:59.000+09:00","limit_number":null,"address":"港区六本木3丁目2−1 住友不動産六本木グランドタワー 24階","place":"合同会社DMM.com","lat":35.6647,"lon":139.738,"state":"active","id":null},{"event_id":"1319881","title":"地域にかかわるこれからの働き方 ～地域企業の課題に挑む、兼業体験アイデアソン～","url":"http://hatarakikata02.peatix.com","shortener_url":"https://bit.ly/2LpRXeT","started_at":"2019-09-27T19:00:00.000+09:00","ended_at":"2019-09-30T08:59:59.000+09:00","limit_number":null,"address":"東京都渋谷区代官山町8-7","place":"Daiwa代官山ビル　リージャススクエア代官山センター","lat":35.6519,"lon":139.705,"state":"active","id":null},{"event_id":"146966","title":"スクラム道関西 オープン・ジャム","url":"https://scrumdo-kansai.connpass.com/event/146966/","shortener_url":null,"started_at":"2019-09-24T19:30:00.000+09:00","ended_at":"2019-09-24T21:30:00.000+09:00","limit_number":25,"address":"大阪府大阪市北区末広町3-7","place":"TAM COWORKING OSAKA","lat":34.7019,"lon":135.51,"state":"active","id":null},{"event_id":"1323477","title":"【アイデアソン参加者募集】- Vision \u0026 Design DAY of DIVERSIFY-","url":"http://lda-ideason0928.peatix.com","shortener_url":"https://bit.ly/2ZYfdJO","started_at":"2019-09-28T12:00:00.000+09:00","ended_at":"2019-10-01T08:59:59.000+09:00","limit_number":null,"address":"渋谷区道玄坂1丁目22−7 道玄坂ピア10F","place":"loftwork COOOP10","lat":35.656,"lon":139.695,"state":"active","id":null},{"event_id":"1324869","title":"【アイデアソン参加者募集】- Tech \u0026 Material DAY of SOLUTION -","url":"http://lda-ideason0929.peatix.com","shortener_url":"https://bit.ly/2O1EwDu","started_at":"2019-09-29T12:00:00.000+09:00","ended_at":"2019-10-02T08:59:59.000+09:00","limit_number":null,"address":"渋谷区道玄坂1丁目22−7 道玄坂ピアビル2階","place":"FabCafe MTRL（MTRL TOKYO）","lat":35.6561,"lon":139.695,"state":"active","id":null},{"event_id":"1327134","title":"ワークショップイベント 「めぞん梅の湯を作ろう！ 網戸張り」","url":"http://maison-umenoy-02.peatix.com","shortener_url":null,"started_at":"2019-09-21T13:00:00.000+09:00","ended_at":"2019-09-24T08:59:59.000+09:00","limit_number":null,"address":"東京都荒川区西尾久2-32","place":"めぞん梅の湯（マスミ美容室 2F,3F ）","lat":35.7482,"lon":139.762,"state":"active","id":null},{"event_id":"1324882","title":"採用担当者同士でスカウトメールのイロハを語り合いませんか？ピザ付きです！ HeaRoom#13","url":"http://peatix.com/event/1324882","shortener_url":null,"started_at":"2019-09-26T19:30:00.000+09:00","ended_at":"2019-09-29T08:59:59.000+09:00","limit_number":null,"address":"品川区西五反田7丁目9−5 SGテラス 1F","place":"五反田 TA conference セミナールーム","lat":35.6234,"lon":139.72,"state":"active","id":null},{"event_id":"147480","title":"Global Startup Creators Workshop - Vol.5","url":"https://globalstartup.connpass.com/event/147480/","shortener_url":"https://bit.ly/2O41QR4","started_at":"2019-09-26T19:00:00.000+09:00","ended_at":"2019-09-26T21:00:00.000+09:00","limit_number":30,"address":"東京都港区西麻布4-21-2","place":"コートヤードHIROO","lat":35.6571,"lon":139.72,"state":"active","id":null},{"event_id":"147601","title":"地域課題解決IoTハッカソン　中間報告会","url":"https://sanuki-gamen.connpass.com/event/147601/","shortener_url":"https://bit.ly/2O5L4RQ","started_at":"2019-09-28T16:00:00.000+09:00","ended_at":"2019-09-28T17:30:00.000+09:00","limit_number":15,"address":"高松市亀井町10番地3","place":"燈屋","lat":34.3393,"lon":134.049,"state":"active","id":null},{"event_id":"108791","title":"If the kitchen freezer ","url":"https://atnd.org/events/108791","shortener_url":null,"started_at":"2019-09-04T00:00:00.000+09:00","ended_at":"2019-09-06T08:59:59.000+09:00","limit_number":null,"address":"","place":"","lat":null,"lon":null,"state":"closed","id":null},{"event_id":"97867","title":"『Python, Machine Learning \u0026 Raspberry PI』もくもく会#32","url":"https://soleildatadojo.doorkeeper.jp/events/97867","shortener_url":null,"started_at":"2019-09-25T19:30:00.000+09:00","ended_at":"2019-09-25T21:30:00.000+09:00","limit_number":8,"address":"大阪府大阪市北区西天満二丁目5番3号(堂島深川ビル3階)","place":"SCRIBBLE OSAKA LAB（SOL）（大阪メトロ御堂筋線「淀屋橋」駅から徒歩４分）","lat":null,"lon":null,"state":"active","id":null},{"event_id":"108291","title":"【ハースストーン】埼玉がっつり働き亭No.67【炉端の集い】","url":"https://atnd.org/events/108291","shortener_url":null,"started_at":"2019-09-22T17:00:00.000+09:00","ended_at":"2019-09-22T21:00:00.000+09:00","limit_number":10,"address":"埼玉県さいたま市大宮区宮町1丁目46  大宮蓮見ビル4階B号室","place":"バタフライ会議室","lat":35.9085,"lon":139.625,"state":"closed","id":null},{"event_id":"1329446","title":"Sep 30 - NBT Jam Session hosted by Michael Veerapen","url":"http://peatix.com/event/1329446","shortener_url":null,"started_at":"2019-09-30T22:00:00.000+09:00","ended_at":"2019-10-03T08:59:59.000+09:00","limit_number":null,"address":"17, Jalan Mesui, off, Jalan Nagasari, Bukit Bintang, Kuala Lumpur","place":"No Black Tie","lat":3.14868,"lon":101.708,"state":"active","id":null},{"event_id":"147955","title":"サウンドミニハッカソン#5 VRサウンドもくもく会","url":"https://effectorhack.connpass.com/event/147955/","shortener_url":"https://bit.ly/309VQxF","started_at":"2019-09-21T13:00:00.000+09:00","ended_at":"2019-09-21T18:00:00.000+09:00","limit_number":6,"address":"111-0053 東京都台東区浅草橋2-28-12  ＮＫグリーンビル4F","place":"MyDearest株式会社","lat":35.6999,"lon":139.787,"state":"active","id":null},{"event_id":"1330336","title":"笹塚を面白がる会 - 面白がる会式 夜の路地歩き編 -","url":"http://peatix.com/event/1330336","shortener_url":null,"started_at":"2019-09-25T19:30:00.000+09:00","ended_at":"2019-09-28T08:59:59.000+09:00","limit_number":null,"address":"渋谷区笹塚1丁目56−7","place":"笹塚アキチ！","lat":35.6741,"lon":139.668,"state":"active","id":null},{"event_id":"148174","title":"Kamakura Mok Mok Hack 57","url":"https://kamkura-mokmok.connpass.com/event/148174/","shortener_url":null,"started_at":"2019-09-21T11:00:00.000+09:00","ended_at":"2019-09-21T13:00:00.000+09:00","limit_number":7,"address":"神奈川県 鎌倉市由比ガ浜1丁目12-8","place":"HOUSE YUIGAHAMA","lat":35.3202,"lon":139.55,"state":"active","id":null},{"event_id":"148100","title":"【福岡】UX居酒屋 in Fukuoka","url":"https://uxmilk.connpass.com/event/148100/","shortener_url":null,"started_at":"2019-09-27T19:30:00.000+09:00","ended_at":"2019-09-27T22:00:00.000+09:00","limit_number":16,"address":"福岡県福岡市中央区天神三丁目4番2号 (高橋天神ビル3階)","place":"株式会社メンバーズキャリア 福岡オフィス","lat":33.592,"lon":130.396,"state":"active","id":null},{"event_id":"148358","title":"Kamakura Mok Mok Hack 58","url":"https://kamkura-mokmok.connpass.com/event/148358/","shortener_url":null,"started_at":"2019-09-28T11:00:00.000+09:00","ended_at":"2019-09-28T13:00:00.000+09:00","limit_number":7,"address":"神奈川県 鎌倉市由比ガ浜1丁目12-8","place":"HOUSE YUIGAHAMA","lat":35.3202,"lon":139.55,"state":"active","id":null},{"event_id":"148417","title":"第21回ゆるもく会","url":"https://sanuki-gamen.connpass.com/event/148417/","shortener_url":null,"started_at":"2019-09-28T13:00:00.000+09:00","ended_at":"2019-09-28T16:00:00.000+09:00","limit_number":null,"address":"香川県高松市亀井町10番地3","place":"燈屋","lat":34.3393,"lon":134.049,"state":"active","id":null},{"event_id":"1327712","title":"【めるびる→東京出張イベント】とやま × トーキョー ミーティング！ 〜富山気になる人で集まりませんか〜","url":"http://lifullfab-toyama.peatix.com","shortener_url":null,"started_at":"2019-09-16T14:00:00.000+09:00","ended_at":"2019-09-19T08:59:59.000+09:00","limit_number":null,"address":"東京都千代田区麹町1-4-4 (新宿通り裏手入り口)","place":" LIFULL Fab","lat":35.6844,"lon":139.743,"state":"active","id":null},{"event_id":"1323835","title":"ラグビーフェスティバル in KURASHIKI ボランティア登録","url":"http://engage2019kurashiki.peatix.com","shortener_url":null,"started_at":"2019-09-28T11:00:00.000+09:00","ended_at":"2019-10-01T08:59:59.000+09:00","limit_number":null,"address":"倉敷市真備町市場4338","place":"倉敷市立薗小学校","lat":0.0,"lon":0.0,"state":"active","id":null},{"event_id":"141551","title":"【AAJUG主催】Alexa スキルアワード2019 応募スキル発表会！","url":"https://aajug.connpass.com/event/141551/","shortener_url":"https://bit.ly/2nmiDDx","started_at":"2019-09-28T13:00:00.000+09:00","ended_at":"2019-09-28T17:00:00.000+09:00","limit_number":140,"address":"東京都品川区上大崎3-1-1 目黒セントラルスクエア 17F","place":"AWS Loft Tokyo","lat":35.6334,"lon":139.717,"state":"active","id":null},{"event_id":"1328506148798906368","title":"2020年度ひらかたアイデアソン・ハッカソンプロジェクト「ヒラソン」のアイデアソン成果発表会をオンラインで開催｜トピックス | 大阪工業大学","url":"https://www.oit.ac.jp/japanese/topics/index.php","shortener_url":null,"started_at":"2019-09-13T18:00:00.000+09:00","ended_at":"2020-11-17T18:00:00.000+09:00","limit_number":null,"address":"大阪府枚方市北山1丁目79-1","place":"大阪府枚方市北山1丁目79-1","lat":34.8413,"lon":135.705,"state":"active","id":null},{"event_id":"73715835047","title":"Network \u0026 Learn","url":"https://www.eventbrite.com/e/network-learn-tickets-73715835047","shortener_url":null,"started_at":"2019-09-25T08:00:00.000+09:00","ended_at":"2021-12-29T11:00:00.000+09:00","limit_number":null,"address":null,"place":"online","lat":null,"lon":null,"state":"active","id":null},{"event_id":"70659874587","title":"Surgical Technology Virtual Information Session","url":"https://www.eventbrite.com/e/surgical-technology-virtual-information-session-tickets-70659874587","shortener_url":null,"started_at":"2019-09-17T23:00:00.000+09:00","ended_at":"2022-06-15T08:30:00.000+09:00","limit_number":null,"address":null,"place":"online","lat":null,"lon":null,"state":"active","id":null},{"event_id":"69238170231","title":"Masters Certificate in Organization Development and Change  Webinar ","url":"https://www.eventbrite.ca/e/masters-certificate-in-organization-development-and-change-webinar-tickets-69238170231","shortener_url":null,"started_at":"2019-09-18T01:00:00.000+09:00","ended_at":"2022-04-07T02:00:00.000+09:00","limit_number":null,"address":null,"place":"online","lat":null,"lon":null,"state":"active","id":null},{"event_id":"69238170231","title":"Masters Certificate in Organization Development and Change","url":"https://www.eventbrite.ca/e/masters-certificate-in-organization-development-and-change-tickets-69238170231","shortener_url":null,"started_at":"2019-09-18T01:00:00.000+09:00","ended_at":"2023-12-15T03:00:00.000+09:00","limit_number":null,"address":null,"place":"online","lat":null,"lon":null,"state":"active","id":null}]