[{"event_id":"582870","title":"離乳食インストラクター協会1級講座【オンライン】 2019年5月18日","url":"http://peatix.com/event/582870","shortener_url":null,"started_at":"2019-05-18T13:00:00.000+09:00","ended_at":"2019-05-21T08:59:59.000+09:00","limit_number":null,"address":"兵庫県西宮市","place":"離乳食インストラクター協会","lat":34.7376,"lon":135.342,"state":"active","id":null},{"event_id":"597435","title":"Comedy Masala ft. LARS CALLIEOU (CAN) | as seen on The Comedy Network \u0026  '​Just for Laughs Montreal' |  with Special Guest: TOM LIGHTNING (NED)","url":"http://larscallieou.peatix.com","shortener_url":null,"started_at":"2019-05-07T21:00:00.000+09:00","ended_at":"2019-05-10T08:59:59.000+09:00","limit_number":null,"address":"69 Circular Road, Boat Quay, Singapore 049423","place":"HERO'S, 69 Circular Road, Singapore 049423","lat":1.28641,"lon":103.849,"state":"active","id":null},{"event_id":"591203","title":"Emerald Hill Walking Tour","url":"http://emeraldhill160519.peatix.com","shortener_url":null,"started_at":"2019-05-16T10:00:00.000+09:00","ended_at":"2019-05-19T08:59:59.000+09:00","limit_number":null,"address":"216 Orchard Rd, Singapore","place":"Emerald Hill Singapore","lat":1.30162,"lon":103.839,"state":"active","id":null},{"event_id":"602557","title":"第７回 さぶみっと！ヨクスル in 仙台【2019年5月17日(金)開催】","url":"http://peatix.com/event/602557","shortener_url":null,"started_at":"2019-05-17T19:00:00.000+09:00","ended_at":"2019-05-20T08:59:59.000+09:00","limit_number":null,"address":"会場未定","place":"会場未定","lat":0.0,"lon":0.0,"state":"active","id":null},{"event_id":"606154","title":"5月17日(金)19:00～★ 代官山 婚活恋活OnlyのGaitomo国際交流パーティー","url":"http://peatix.com/event/606154","shortener_url":null,"started_at":"2019-05-17T19:00:00.000+09:00","ended_at":"2019-05-20T08:59:59.000+09:00","limit_number":null,"address":"東京都渋谷区恵比寿西1-34-17 Za HOUSEビルB1","place":"代官山 unice(ユナイス) ","lat":35.6471,"lon":139.702,"state":"active","id":null},{"event_id":"606170","title":"5月23日(木)19:00～★ 新宿御苑 本場ナポリピッツァが食べれる平日Gaitomo国際交流パーティー","url":"http://peatix.com/event/606170","shortener_url":null,"started_at":"2019-05-23T19:00:00.000+09:00","ended_at":"2019-05-26T08:59:59.000+09:00","limit_number":null,"address":"新宿区新宿2丁目8−1","place":"ピッツァナポレターノカフェ 新宿御苑前店","lat":35.689,"lon":139.71,"state":"active","id":null},{"event_id":"604959","title":"5月5日(日)18:00～★ 六本木【独身限定】駅近セレブラウンジでGaitomo国際交流パーティー","url":"http://peatix.com/event/604959","shortener_url":null,"started_at":"2019-05-05T18:00:00.000+09:00","ended_at":"2019-05-08T08:59:59.000+09:00","limit_number":null,"address":"東京都港区六本木4-10-10","place":"六本木 balance(バランス) ","lat":35.6639,"lon":139.732,"state":"active","id":null},{"event_id":"87478","title":"a-blog cms Training Camp 2019 Spring","url":"https://ablogcms.doorkeeper.jp/events/87478","shortener_url":null,"started_at":"2019-05-17T14:00:00.000+09:00","ended_at":"2019-05-18T16:00:00.000+09:00","limit_number":60,"address":"愛知県名古屋市中村区那古野1−47−1","place":"名古屋国際センタービル","lat":35.1728,"lon":136.89,"state":"active","id":null},{"event_id":"88087","title":"StartupWeekend 熊本 Vol.9 @合志市","url":"https://swkumamoto.doorkeeper.jp/events/88087","shortener_url":null,"started_at":"2019-05-03T19:00:00.000+09:00","ended_at":"2019-05-05T21:00:00.000+09:00","limit_number":40,"address":"〒861-1115 熊本県合志市豊岡2201","place":"合志市 三つの木の家","lat":32.8755,"lon":130.775,"state":"active","id":null},{"event_id":"609278","title":"5月3日(金)19:00～★ 恵比寿 新しい出会いの場立ち飲みバーでGaitomo国際交流パーティー","url":"http://peatix.com/event/609278","shortener_url":null,"started_at":"2019-05-03T19:00:00.000+09:00","ended_at":"2019-05-06T08:59:59.000+09:00","limit_number":null,"address":"東京都渋谷区恵比寿1-7-9","place":"恵比寿 私を恵比寿に連れてってEbisu330BAR ","lat":35.648,"lon":139.711,"state":"active","id":null},{"event_id":"609281","title":"5月4日(土)19:00～★ 六本木 土曜日は新しい飲み友作りGaitomo国際交流パーティー","url":"http://peatix.com/event/609281","shortener_url":null,"started_at":"2019-05-04T19:00:00.000+09:00","ended_at":"2019-05-07T08:59:59.000+09:00","limit_number":null,"address":"港区六本木3丁目10−5 1階 マリナービル","place":"ＮＥＷ ＰＬＡＮＥＴ","lat":35.6632,"lon":139.733,"state":"active","id":null},{"event_id":"609284","title":"5月4日(土)19:00～★ 心斎橋 駅近の隠れ家ラウンジでオリジナルGaitomo国際交流パーティー","url":"http://peatix.com/event/609284","shortener_url":null,"started_at":"2019-05-04T19:00:00.000+09:00","ended_at":"2019-05-07T08:59:59.000+09:00","limit_number":null,"address":"大阪市中央区東心斎橋1-18-6","place":"心斎橋 Singles Bar Eden ","lat":34.6738,"lon":135.503,"state":"active","id":null},{"event_id":"604847","title":"ROTH BART BARON \"HEX\" Tour Final - Live at 渋谷 WWW -","url":"http://0510www.peatix.com","shortener_url":null,"started_at":"2019-05-10T19:30:00.000+09:00","ended_at":"2019-05-13T08:59:59.000+09:00","limit_number":null,"address":"渋谷区宇田川町13−17 ライズビル","place":"WWW","lat":35.6615,"lon":139.699,"state":"active","id":null},{"event_id":"609293","title":"5月11日(土)19:00～★ 西麻布 シックでお洒落なNYスタイルのバーでGaitomo国際交流パーティー","url":"http://peatix.com/event/609293","shortener_url":null,"started_at":"2019-05-11T19:00:00.000+09:00","ended_at":"2019-05-14T08:59:59.000+09:00","limit_number":null,"address":"Japan","place":"B612","lat":35.6621,"lon":139.726,"state":"active","id":null},{"event_id":"614643","title":"ジブン起業塾 1DAYスタートアップ講座 in 福島(郡山)","url":"http://jibun-startup20190511.peatix.com","shortener_url":null,"started_at":"2019-05-11T10:00:00.000+09:00","ended_at":"2019-05-14T08:59:59.000+09:00","limit_number":null,"address":"福島県郡山市緑町9−12","place":"co-ba koriyama","lat":37.403,"lon":140.364,"state":"active","id":null},{"event_id":"615309","title":"【オンライン講座】グーグルアナリティクス講座 (5/23)","url":"http://peatix.com/event/615309","shortener_url":null,"started_at":"2019-05-23T13:00:00.000+09:00","ended_at":"2019-05-26T08:59:59.000+09:00","limit_number":null,"address":"日本","place":"ご自宅のPC","lat":0.0,"lon":0.0,"state":"active","id":null},{"event_id":"615295","title":"【名古屋/栄】グーグルアナリティクス講座(5/18)","url":"http://peatix.com/event/615295","shortener_url":null,"started_at":"2019-05-18T09:00:00.000+09:00","ended_at":"2019-05-21T08:59:59.000+09:00","limit_number":null,"address":"愛知県名古屋市中区錦3-22-24","place":"名古屋会議室 栄店 (ATS広小路ビル4F)","lat":35.1689,"lon":136.904,"state":"active","id":null},{"event_id":"615310","title":"【オンライン講座】グーグルアナリティクス講座 (5/11)","url":"http://peatix.com/event/615310","shortener_url":null,"started_at":"2019-05-11T13:00:00.000+09:00","ended_at":"2019-05-14T08:59:59.000+09:00","limit_number":null,"address":"日本","place":"ご自宅のPC","lat":0.0,"lon":0.0,"state":"active","id":null},{"event_id":"615293","title":"【名古屋/栄】グーグルアナリティクス講座(5/9)","url":"http://peatix.com/event/615293","shortener_url":null,"started_at":"2019-05-09T09:00:00.000+09:00","ended_at":"2019-05-12T08:59:59.000+09:00","limit_number":null,"address":"愛知県名古屋市中区錦3-22-24","place":"名古屋会議室 栄店 (ATS広小路ビル4F)","lat":35.1689,"lon":136.904,"state":"active","id":null},{"event_id":"609064","title":"Comedy Masala ft. ADRIAN SAW (AUS) | Hilarious Comedy-Magic Show (Adults Only)","url":"http://adriannsaw.peatix.com","shortener_url":null,"started_at":"2019-05-14T21:00:00.000+09:00","ended_at":"2019-05-17T08:59:59.000+09:00","limit_number":null,"address":"69 Circular Road, Boat Quay, Singapore 049423","place":"HERO'S, 69 Circular Road, Singapore 049423","lat":1.28641,"lon":103.849,"state":"active","id":null},{"event_id":"615713","title":"5月10日(金)19:00～★ 原宿 トリックアートカフェでインスタ映えのGaitomo国際交流パーティー","url":"http://peatix.com/event/615713","shortener_url":null,"started_at":"2019-05-10T19:00:00.000+09:00","ended_at":"2019-05-13T08:59:59.000+09:00","limit_number":null,"address":"東京都渋谷区神宮前1-19-1","place":"原宿 Cafe Art ","lat":35.6717,"lon":139.704,"state":"active","id":null},{"event_id":"615722","title":"5月15日(水)19:00～★ 恵比寿 仕事帰りにロマンチックカフェで平日Gaitomo国際交流パーティー","url":"http://peatix.com/event/615722","shortener_url":null,"started_at":"2019-05-15T19:00:00.000+09:00","ended_at":"2019-05-18T08:59:59.000+09:00","limit_number":null,"address":"渋谷区恵比寿1丁目18−14","place":"dot.Eatery and Bar","lat":35.6475,"lon":139.715,"state":"active","id":null},{"event_id":"615075","title":"5月1日(水祝)18:00～★ 渋谷 ＧＷスペシャル飲み放題Gaitomo国際交流パーティー","url":"http://peatix.com/event/615075","shortener_url":null,"started_at":"2019-05-01T18:00:00.000+09:00","ended_at":"2019-05-04T08:59:59.000+09:00","limit_number":null,"address":"東京都渋谷区宇田川町17-2 渋谷伸工ビル4F","place":"TIME SPACE 渋谷 ","lat":35.6608,"lon":139.699,"state":"active","id":null},{"event_id":"615706","title":"5月6日(月祝)18:00～★ 銀座 GWラストデー★最後の充実時間Gaitomo国際交流パーティー","url":"http://peatix.com/event/615706","shortener_url":null,"started_at":"2019-05-06T18:00:00.000+09:00","ended_at":"2019-05-09T08:59:59.000+09:00","limit_number":null,"address":"中央区 銀座4-3-5 ハトリビル4F","place":"POP INN.GINZA(ポップイン 銀座)","lat":35.6723,"lon":139.765,"state":"active","id":null},{"event_id":"615715","title":"5月12日(日)18:00～★ 青山【シングル限定】優雅なセレブラウンジでGaitomo国際交流パーティー","url":"http://peatix.com/event/615715","shortener_url":null,"started_at":"2019-05-12T18:00:00.000+09:00","ended_at":"2019-05-15T08:59:59.000+09:00","limit_number":null,"address":"東京都港区北青山3-2-5","place":"青山 Aoyama Lounge ","lat":35.6689,"lon":139.715,"state":"active","id":null},{"event_id":"615731","title":"5月19日(日)18:00～★ 銀座 国際結婚したい人の為のGaitomo国際交流パーティー","url":"http://peatix.com/event/615731","shortener_url":null,"started_at":"2019-05-19T18:00:00.000+09:00","ended_at":"2019-05-22T08:59:59.000+09:00","limit_number":null,"address":"中央区銀座5丁目9−13 菊正ビル9F","place":"パーティプラネット「銀座PPサロン」-貸切ダイニング-","lat":35.6699,"lon":139.765,"state":"active","id":null},{"event_id":"617956","title":"【参加費無料・懇親会あり】管理職ゼロの組織が実践する新しい目標管理の形とは？","url":"http://peatix.com/event/617956","shortener_url":null,"started_at":"2019-05-15T16:00:00.000+09:00","ended_at":"2019-05-18T08:59:59.000+09:00","limit_number":null,"address":"東京都台東区浅草橋5‐20-8 CSタワー7階","place":"株式会社ISAO","lat":35.7014,"lon":139.781,"state":"active","id":null},{"event_id":"619973","title":"chaTomoマルシェvol6","url":"http://chatomomarche6.peatix.com","shortener_url":null,"started_at":"2019-05-19T10:00:00.000+09:00","ended_at":"2019-05-22T08:59:59.000+09:00","limit_number":null,"address":"さいたま市浦和区 高砂1−12−1","place":"コルソホール","lat":35.8582,"lon":139.656,"state":"active","id":null},{"event_id":"620416","title":"5/18(土)~19(日)festivo はじめてのプログラミング Camp@東京【学生20,000円、一般25,000円】～戦うスキルを身につける15時間！プログラミング概要からPHP/SQL集中合宿！～","url":"http://peatix.com/event/620416","shortener_url":"https://goo.gl/tj8xkn","started_at":"2019-05-18T10:00:00.000+09:00","ended_at":"2019-05-21T08:59:59.000+09:00","limit_number":null,"address":"東京都練馬区豊玉北3-15-17","place":"起業家シェアハウス x-garden セミナールーム","lat":35.7329,"lon":139.661,"state":"active","id":null},{"event_id":"620126","title":"５月１２日　下北沢タロット読書会（テーマ：The Chariot　戦車）★ミニ占い付き★","url":"http://peatix.com/event/620126","shortener_url":null,"started_at":"2019-05-12T14:00:00.000+09:00","ended_at":"2019-05-15T08:59:59.000+09:00","limit_number":null,"address":"世田谷区 北沢3-30-3 北沢T.Tビル301","place":"Tbooks下北沢","lat":35.6644,"lon":139.667,"state":"active","id":null},{"event_id":"618036","title":"GOLDEN WEEK FINALE, DAY 5! (SAT) ゴールデンウイーク・フィナーレ、5日目！（土）","url":"http://peatix.com/event/618036","shortener_url":null,"started_at":"2019-05-04T19:00:00.000+09:00","ended_at":"2019-05-07T08:59:59.000+09:00","limit_number":null,"address":"東京都港区六本木3-14-9 ユア六本木2F","place":"Bar Propaganda (2F)","lat":35.6623,"lon":139.735,"state":"active","id":null},{"event_id":"618032","title":"MADNESS GOLDEN WEEK, DAY 4! (FRI) マッドネス・ゴールデンウイーク 4日目! (金）","url":"http://peatix.com/event/618032","shortener_url":null,"started_at":"2019-05-03T19:00:00.000+09:00","ended_at":"2019-05-06T08:59:59.000+09:00","limit_number":null,"address":"東京都港区六本木3-14-9 ユア六本木2F","place":"Bar Propaganda (2F)","lat":35.6623,"lon":139.735,"state":"active","id":null},{"event_id":"88396","title":"【参加者満員御礼！！】【3日間で起業体験】Startup Weekend Yokohama 10 IoT　(20190531-0602)","url":"https://swyokohama.doorkeeper.jp/events/88396","shortener_url":null,"started_at":"2019-05-31T18:30:00.000+09:00","ended_at":"2019-06-02T21:00:00.000+09:00","limit_number":89,"address":"〒221-0835 横浜市神奈川区鶴屋町2-17","place":"学校法人岩崎学園情報科学専門学校 8F大教室(8階)","lat":35.4682,"lon":139.622,"state":"active","id":null},{"event_id":"619929","title":"5/1(Wed) Shibuya Travel Lovers Meetup","url":"http://peatix.com/event/619929","shortener_url":null,"started_at":"2019-05-01T15:00:00.000+09:00","ended_at":"2019-05-04T08:59:59.000+09:00","limit_number":null,"address":"渋谷区道玄坂1丁目3−11 一番ビル 3F","place":"Hobgoblin Shibuya British Pub","lat":35.6583,"lon":139.7,"state":"active","id":null},{"event_id":"620073","title":"5/2(Thu) Latin Lovers Meetup Spain, Portugal, Italy, Brazil★","url":"http://peatix.com/event/620073","shortener_url":null,"started_at":"2019-05-02T19:00:00.000+09:00","ended_at":"2019-05-05T08:59:59.000+09:00","limit_number":null,"address":"東京都渋谷区道玄坂1-3-11","place":"■Hobgoblin Shibuya","lat":35.6583,"lon":139.7,"state":"active","id":null},{"event_id":"620667","title":"5/3(Fri) Russian Meetup in Roppongi ٩(ˊᗜˋ*)و","url":"http://peatix.com/event/620667","shortener_url":null,"started_at":"2019-05-03T15:00:00.000+09:00","ended_at":"2019-05-06T08:59:59.000+09:00","limit_number":null,"address":"東京都港区六本木3−16−33","place":"Hobgoblin Roppongi","lat":35.6623,"lon":139.737,"state":"active","id":null},{"event_id":"620005","title":"5/1(Wed) German Night in Roppongi","url":"http://peatix.com/event/620005","shortener_url":null,"started_at":"2019-05-01T19:00:00.000+09:00","ended_at":"2019-05-04T08:59:59.000+09:00","limit_number":null,"address":"東京都港区六本木3−16−33","place":"Hobgoblin Roppongi","lat":35.6623,"lon":139.737,"state":"active","id":null},{"event_id":"620078","title":"5/2(木)ラテン交流会＝スペイン、ブラジル、ポルトガル＠渋谷","url":"http://peatix.com/event/620078","shortener_url":null,"started_at":"2019-05-02T19:00:00.000+09:00","ended_at":"2019-05-05T08:59:59.000+09:00","limit_number":null,"address":"東京都渋谷区道玄坂1-3-11","place":"■Hobgoblin Shibuya","lat":35.6583,"lon":139.7,"state":"active","id":null},{"event_id":"618320","title":"GOLDEN WEEK FINALE!(SAT) ゴールデンウイーク・フィナーレ！（土）","url":"http://peatix.com/event/618320","shortener_url":null,"started_at":"2019-05-04T19:00:00.000+09:00","ended_at":"2019-05-07T08:59:59.000+09:00","limit_number":null,"address":"大阪市中央区東心斎橋2-5-27","place":"The Blarney Stone (B1F)","lat":34.6718,"lon":135.504,"state":"active","id":null},{"event_id":"618319","title":"Golden Week Day 3 (FRI) ゴールデンウイーク３日目！（金）","url":"http://peatix.com/event/618319","shortener_url":null,"started_at":"2019-05-03T19:00:00.000+09:00","ended_at":"2019-05-06T08:59:59.000+09:00","limit_number":null,"address":"大阪市中央区東心斎橋2-5-27","place":"The Blarney Stone (B1F)","lat":34.6718,"lon":135.504,"state":"active","id":null},{"event_id":"609850","title":"【ASIA初 HOLLYWOOD AUCTION】(6月開催/東京200名)","url":"http://peatix.com/event/609850","shortener_url":null,"started_at":"2019-05-01T00:00:00.000+09:00","ended_at":"2019-05-03T08:59:59.000+09:00","limit_number":null,"address":"東京都千代田区","place":"東京A会場B会場","lat":0.0,"lon":0.0,"state":"active","id":null},{"event_id":"621363","title":"「生き方、暮らし方を考える」狩猟体験ツアー 春の罠祭り編","url":"http://syuryou-wanamatsuri.peatix.com","shortener_url":null,"started_at":"2019-05-01T13:00:00.000+09:00","ended_at":"2019-05-04T08:59:59.000+09:00","limit_number":null,"address":"那智勝浦町大野216","place":"円満地公園オートキャンプ場","lat":33.6636,"lon":135.855,"state":"active","id":null},{"event_id":"621530","title":"【オンライン/東京会場同時開催】ウェブ解析士認定講座","url":"http://20190529awac.peatix.com","shortener_url":null,"started_at":"2019-05-29T13:00:00.000+09:00","ended_at":"2019-06-01T08:59:59.000+09:00","limit_number":null,"address":"東京都中央区八重洲1-6-14","place":"KIZUNA会議室　八重洲２F（ISO八重洲ビル　201）","lat":35.6813,"lon":139.771,"state":"active","id":null},{"event_id":"620229","title":"Comedy Masala presents: JINX YEO (SIN) - ONE HOUR COMEDY SPECIAL | Wed 29 May","url":"http://jinxyeowed29may.peatix.com","shortener_url":null,"started_at":"2019-05-29T21:00:00.000+09:00","ended_at":"2019-06-01T08:59:59.000+09:00","limit_number":null,"address":"69 Circular Road, Boat Quay, Singapore 049423","place":"HERO'S, 69 Circular Road, Singapore 049423","lat":1.28641,"lon":103.849,"state":"active","id":null},{"event_id":"620200","title":"Comedy Masala presents: JINX YEO (SIN) - ONE HOUR COMEDY SPECIAL | Wed 22 May","url":"http://jinxyeowed22may.peatix.com","shortener_url":null,"started_at":"2019-05-22T21:00:00.000+09:00","ended_at":"2019-05-25T08:59:59.000+09:00","limit_number":null,"address":"69 Circular Road, Boat Quay, Singapore 049423","place":"HERO'S, 69 Circular Road, Singapore 049423","lat":1.28641,"lon":103.849,"state":"active","id":null},{"event_id":"617319","title":"Comedy Masala presents: JINX YEO (SIN) - ONE HOUR COMEDY SPECIAL | Wed 08 May","url":"http://jinxyeowed08may.peatix.com","shortener_url":null,"started_at":"2019-05-08T21:00:00.000+09:00","ended_at":"2019-05-11T08:59:59.000+09:00","limit_number":null,"address":"69 Circular Road, Boat Quay, Singapore 049423","place":"HERO'S, 69 Circular Road, Singapore 049423","lat":1.28641,"lon":103.849,"state":"active","id":null},{"event_id":"620227","title":"Comedy Masala presents: JINX YEO (SIN) - ONE HOUR COMEDY SPECIAL | Wed 15 May","url":"http://jinxyeowed15may.peatix.com","shortener_url":null,"started_at":"2019-05-15T21:00:00.000+09:00","ended_at":"2019-05-18T08:59:59.000+09:00","limit_number":null,"address":"69 Circular Road, Boat Quay, Singapore 049423","place":"HERO'S, 69 Circular Road, Singapore 049423","lat":1.28641,"lon":103.849,"state":"active","id":null},{"event_id":"621476","title":"【オンライン/東京会場同時開催】上級Google アナリティクス講座〜GAをマスターするとともに、レポートを自動化し業務効率化〜","url":"http://20190509swacga.peatix.com","shortener_url":null,"started_at":"2019-05-09T13:00:00.000+09:00","ended_at":"2019-05-12T08:59:59.000+09:00","limit_number":null,"address":"東京都中央区八重洲1-6-14","place":"KIZUNA会議室　八重洲２F（ISO八重洲ビル　201）","lat":35.6813,"lon":139.771,"state":"active","id":null},{"event_id":"621519","title":"【オンライン/東京会場同時開催】Google アナリティクス講座〜GAIQ対策付き〜","url":"http://20190518ga.peatix.com","shortener_url":null,"started_at":"2019-05-18T13:00:00.000+09:00","ended_at":"2019-05-21T08:59:59.000+09:00","limit_number":null,"address":"東京都中央区八重洲1-6-14","place":"KIZUNA会議室　八重洲2F（ISO八重洲ビル　201）","lat":35.6813,"lon":139.771,"state":"active","id":null},{"event_id":"621528","title":"【オンライン/東京会場同時開催】上級Google アナリティクス講座〜GAをマスターするとともに、レポートを自動化し業務効率化〜","url":"http://20190522swacga.peatix.com","shortener_url":null,"started_at":"2019-05-22T13:00:00.000+09:00","ended_at":"2019-05-25T08:59:59.000+09:00","limit_number":null,"address":"東京都中央区八重洲1-6-14","place":"KIZUNA会議室　八重洲２F（ISO八重洲ビル　201）","lat":35.6813,"lon":139.771,"state":"active","id":null},{"event_id":"621496","title":"【オンライン/新宿会場同時開催】Google アナリティクス講座〜GAIQ対策付き〜","url":"http://20190515ga.peatix.com","shortener_url":null,"started_at":"2019-05-15T10:00:00.000+09:00","ended_at":"2019-05-18T08:59:59.000+09:00","limit_number":null,"address":"東京都新宿区西新宿7-1-7","place":"新宿ダイカンプラザＡ館６１０号会議室","lat":35.6945,"lon":139.699,"state":"active","id":null},{"event_id":"620147","title":"UNBLOCKATHON - The Reality Show Hackathon","url":"http://unblockathon2019.peatix.com","shortener_url":"https://bit.ly/2ObG7Vk","started_at":"2019-05-03T17:00:00.000+09:00","ended_at":"2019-05-06T08:59:59.000+09:00","limit_number":null,"address":"The Grand Ballroom, e-City @ One City Subang Jay","place":"The Grand Ballroom, e-City @ One City Subang Jaya","lat":0.0,"lon":0.0,"state":"active","id":null},{"event_id":"611923","title":"5月18日（土）ソロビズ「起業の適性検査plus」","url":"http://tekiesi190518.peatix.com","shortener_url":null,"started_at":"2019-05-18T13:00:00.000+09:00","ended_at":"2019-05-21T08:59:59.000+09:00","limit_number":null,"address":"横浜市中区海岸通1-1","place":"波止場会館　３Ｆ小会議室Ｃ（日本大通り駅 徒歩５分）","lat":35.4484,"lon":139.645,"state":"active","id":null},{"event_id":"621431","title":"5月18日（土）アイデアからビジネスを創る起業ワークショップ「Startup Discussion」","url":"http://peatix.com/event/621431","shortener_url":null,"started_at":"2019-05-18T14:30:00.000+09:00","ended_at":"2019-05-21T08:59:59.000+09:00","limit_number":null,"address":"横浜市中区海岸通1-1","place":"波止場会館　３Ｆ小会議室Ｃ（日本大通り駅 徒歩５分）","lat":35.4483,"lon":139.645,"state":"active","id":null},{"event_id":"620001","title":"5/1(水・ 祝) ドイツ語ナイト@六本木 / German Night in Roppongi","url":"http://peatix.com/event/620001","shortener_url":null,"started_at":"2019-05-01T19:00:00.000+09:00","ended_at":"2019-05-04T08:59:59.000+09:00","limit_number":null,"address":"東京都港区六本木3−16−33","place":"Hob goblin at Roppongi","lat":35.6623,"lon":139.737,"state":"active","id":null},{"event_id":"604458","title":"第三回マデイラ100選試飲会","url":"http://kinoshita-wine201905madeira.peatix.com","shortener_url":null,"started_at":"2019-05-26T14:00:00.000+09:00","ended_at":"2019-05-29T08:59:59.000+09:00","limit_number":null,"address":"品川区東品川2丁目","place":"T-LOTUS M","lat":35.6222,"lon":139.747,"state":"active","id":null},{"event_id":"620664","title":"5/3(金・祝) ロシア語交流会@六本木 / Russian Meetup in Roppongi ٩(ˊᗜˋ*)و","url":"http://peatix.com/event/620664","shortener_url":null,"started_at":"2019-05-03T15:00:00.000+09:00","ended_at":"2019-05-06T08:59:59.000+09:00","limit_number":null,"address":"東京都港区六本木3−16−33","place":"Hob goblin at Roppongi","lat":35.6623,"lon":139.737,"state":"active","id":null},{"event_id":"89054","title":"5/18(土)~19(日)festivo はじめてのプログラミング Camp@東京【学生20,000円、一般25,000円】～戦うスキルを身につける15時間！プログラミング概要からPHP/SQL集中合宿！～","url":"https://festivo.doorkeeper.jp/events/89054","shortener_url":"https://bit.ly/2HChros","started_at":"2019-05-18T10:00:00.000+09:00","ended_at":"2019-05-19T19:00:00.000+09:00","limit_number":10,"address":"東京都練馬区豊玉北3-15-17","place":"起業家シェアハウス x-garden セミナールーム","lat":35.733,"lon":139.661,"state":"active","id":null},{"event_id":"623106","title":"戦わないコミュニケーション＠SG","url":"http://tatakawanai-communication.peatix.com","shortener_url":null,"started_at":"2019-05-12T11:00:00.000+09:00","ended_at":"2019-05-15T08:59:59.000+09:00","limit_number":null,"address":"120 Adam Road","place":"The Japanese Association","lat":1.33037,"lon":103.816,"state":"active","id":null},{"event_id":"623038","title":"最高の居場所シリーズ企画「知恵」大久保寛司さん＆本間正人さんスペシャル・トークライブ～参加者を交えて素敵な生き方を考える","url":"http://peatix.com/event/623038","shortener_url":null,"started_at":"2019-05-18T13:00:00.000+09:00","ended_at":"2019-05-21T08:59:59.000+09:00","limit_number":null,"address":"東京都千代田区神田駿河台三丁目11-1","place":"TKPガーデンシティ御茶ノ水 [2階]カンファレンスルーム2C","lat":35.6972,"lon":139.765,"state":"active","id":null},{"event_id":"624564","title":"Silent Disco Asia @ Marina Bay Sands Observation Deck","url":"http://silent-disco-mbs.peatix.com","shortener_url":null,"started_at":"2019-05-11T23:00:00.000+09:00","ended_at":"2019-05-14T08:59:59.000+09:00","limit_number":null,"address":"10 Bayfront Avenue","place":"Marina Bay Sands","lat":1.28338,"lon":103.861,"state":"active","id":null},{"event_id":"625248","title":"【満員御礼】【共催：仙台市】第７回 さぶみっと！ヨクスル in 仙台【2019年5月16日(木)開催】","url":"http://peatix.com/event/625248","shortener_url":null,"started_at":"2019-05-16T19:00:00.000+09:00","ended_at":"2019-05-19T08:59:59.000+09:00","limit_number":null,"address":"仙台市若林区卸町2丁目9−1","place":"INTILAQ 東北イノベーションセンター：仙台市のコワーキングスペース・イベント会場","lat":38.2547,"lon":140.922,"state":"active","id":null},{"event_id":"625197","title":"ワークショップから学ぶ！デザインスプリント Vol.4","url":"http://peatix.com/event/625197","shortener_url":null,"started_at":"2019-05-22T19:00:00.000+09:00","ended_at":"2019-05-25T08:59:59.000+09:00","limit_number":null,"address":"東京都中央区築地6-16-1 築地616ビル","place":"株式会社ニューロマジック　7階セミナースペース","lat":35.664,"lon":139.774,"state":"active","id":null},{"event_id":"621527","title":"5/4(土) にほんご交流会@西新宿 / Nihongo meetup","url":"http://peatix.com/event/621527","shortener_url":null,"started_at":"2019-05-04T15:00:00.000+09:00","ended_at":"2019-05-07T08:59:59.000+09:00","limit_number":null,"address":"東京都新宿区西新宿8-19-11","place":"KASHIWAGI CAFE ","lat":35.6956,"lon":139.691,"state":"active","id":null},{"event_id":"623805","title":"5/5(Sun) English Only Meetup in Shibuya","url":"http://peatix.com/event/623805","shortener_url":null,"started_at":"2019-05-05T14:00:00.000+09:00","ended_at":"2019-05-08T08:59:59.000+09:00","limit_number":null,"address":"渋谷区道玄坂1丁目3−11 一番ビル 3F","place":"Hobgoblin Shibuya British Pub","lat":35.6583,"lon":139.7,"state":"active","id":null},{"event_id":"625016","title":"5/7(Tue) Drink Meetup in Meguro","url":"http://peatix.com/event/625016","shortener_url":null,"started_at":"2019-05-07T19:00:00.000+09:00","ended_at":"2019-05-10T08:59:59.000+09:00","limit_number":null,"address":"目黒区下目黒1-3-28","place":"The Meguro Tavern","lat":35.6343,"lon":139.713,"state":"active","id":null},{"event_id":"621526","title":"5/4(Sat) Nihongo Meetup in Nishi-Shinjuku","url":"http://peatix.com/event/621526","shortener_url":null,"started_at":"2019-05-04T15:00:00.000+09:00","ended_at":"2019-05-07T08:59:59.000+09:00","limit_number":null,"address":"東京都新宿区西新宿8-19-11","place":"KASHIWAGI CAFE  ","lat":35.6956,"lon":139.691,"state":"active","id":null},{"event_id":"625126","title":"5/8 (Web) 20s Social Meetup Nishi-Shinjuku","url":"http://peatix.com/event/625126","shortener_url":null,"started_at":"2019-05-08T19:00:00.000+09:00","ended_at":"2019-05-11T08:59:59.000+09:00","limit_number":null,"address":"新宿区西新宿8丁目19−11","place":"KASHIWAGI CAFE","lat":35.6956,"lon":139.691,"state":"active","id":null},{"event_id":"625988","title":"半田付け体験とテスター・オシロスコープ入門【05/09(木)開催】","url":"http://dmmmake190509hand.peatix.com","shortener_url":null,"started_at":"2019-05-09T11:00:00.000+09:00","ended_at":"2019-05-12T08:59:59.000+09:00","limit_number":null,"address":"東京都千代田区神田練塀町3 富士ソフト秋葉原ビル 10F DMM.make AKIBA Studio","place":"DMM.make AKIBA 10F Studio","lat":35.7008,"lon":139.774,"state":"active","id":null},{"event_id":"625983","title":"真空管ヘッドフォンアンプをつくろう！【05/01(水)開催】","url":"http://dmmmake1905sink.peatix.com","shortener_url":null,"started_at":"2019-05-01T13:00:00.000+09:00","ended_at":"2019-05-04T08:59:59.000+09:00","limit_number":null,"address":"東京都千代田区神田練塀町3 富士ソフト秋葉原ビル 10F DMM.make AKIBA Studio","place":"DMM.make AKIBA 10F Studio","lat":35.7008,"lon":139.774,"state":"active","id":null},{"event_id":"625982","title":"半田付け体験とテスター・オシロスコープ入門【05/01(水)開催】","url":"http://dmmmake190501hand.peatix.com","shortener_url":null,"started_at":"2019-05-01T10:00:00.000+09:00","ended_at":"2019-05-04T08:59:59.000+09:00","limit_number":null,"address":"東京都千代田区神田練塀町3 富士ソフト秋葉原ビル 10F DMM.make AKIBA Studio","place":"DMM.make AKIBA 10F Studio","lat":35.7008,"lon":139.774,"state":"active","id":null},{"event_id":"625986","title":"ワイヤレスでスマホに繋がるアンプ【05月04日(土)開催】","url":"http://dmmmake1905blue.peatix.com","shortener_url":null,"started_at":"2019-05-04T11:00:00.000+09:00","ended_at":"2019-05-07T08:59:59.000+09:00","limit_number":null,"address":"東京都千代田区神田練塀町3 富士ソフト秋葉原ビル 10F DMM.make AKIBA Studio","place":"DMM.make AKIBA 10F Studio","lat":35.7008,"lon":139.774,"state":"active","id":null},{"event_id":"625992","title":"Makers College イチから始める3Dプリント講座","url":"http://dmmmake3dp-1905.peatix.com","shortener_url":null,"started_at":"2019-05-11T13:00:00.000+09:00","ended_at":"2019-05-14T08:59:59.000+09:00","limit_number":null,"address":"東京都千代田区神田練塀町3 富士ソフト秋葉原ビル 10F DMM.make AKIBA Studio","place":"DMM.make AKIBA 10F Studio","lat":35.7008,"lon":139.774,"state":"active","id":null},{"event_id":"626000","title":"Happiness Get-Together  #3","url":"http://actionforhappinessmymay.peatix.com","shortener_url":null,"started_at":"2019-05-11T11:00:00.000+09:00","ended_at":"2019-05-14T08:59:59.000+09:00","limit_number":null,"address":"Unit 2-1, Level 2, The Podium, Tower 3, UOA Business Park No, 1, Jalan Pengaturcara U1/51a, Seksyen U1, Shah Alam","place":"WORQ Subang","lat":3.08599,"lon":101.587,"state":"active","id":null},{"event_id":"125233","title":"さぬきアイデアソン","url":"https://connpass.com/event/125233/","shortener_url":"https://bit.ly/2WwLUYK","started_at":"2019-05-05T10:00:00.000+09:00","ended_at":"2019-05-05T19:00:00.000+09:00","limit_number":10,"address":"高松市亀井町10番地3","place":"燈屋","lat":34.3393,"lon":134.049,"state":"active","id":null},{"event_id":"625407","title":"「シナリオランド」オフラインイベント　ノベライズを書く！～小説と映像の間～","url":"http://peatix.com/event/625407","shortener_url":null,"started_at":"2019-05-25T19:00:00.000+09:00","ended_at":"2019-05-28T08:59:59.000+09:00","limit_number":null,"address":"東京都豊島区東池袋4-5-2","place":"あうるすぽっと（ライズアリーナビル3F：会議室B2）","lat":35.7269,"lon":139.719,"state":"active","id":null},{"event_id":"623663","title":"STARRY NIGHT JAM vol.39 　星語り ～幸せの星を目指して～","url":"http://snj39.peatix.com","shortener_url":null,"started_at":"2019-05-18T16:00:00.000+09:00","ended_at":"2019-05-21T08:59:59.000+09:00","limit_number":null,"address":"福岡市中央区 六本松4丁目2−1","place":"福岡市科学館","lat":33.5774,"lon":130.378,"state":"active","id":null},{"event_id":"623609","title":"STARRY NIGHT JAM vol.38 　プラネタリウムコンサート　～星空とバイオリン弾きの物語～","url":"http://snj38.peatix.com","shortener_url":null,"started_at":"2019-05-05T17:00:00.000+09:00","ended_at":"2019-05-08T08:59:59.000+09:00","limit_number":null,"address":"福岡市中央区 六本松4丁目2−1","place":"福岡市科学館","lat":33.5774,"lon":130.378,"state":"active","id":null},{"event_id":"617091","title":"鬼太鼓座「白砂青松を駆ける MEGI-ONI-Festival 2019」","url":"http://setouchi2019event-e09.peatix.com","shortener_url":null,"started_at":"2019-05-11T15:30:00.000+09:00","ended_at":"2019-05-14T08:59:59.000+09:00","limit_number":null,"address":"香川県高松市女木町233(233 Megicho, Takamatsu, Kagawa )","place":"八幡神社・松原( Hachiman Shrine, Pine tree forest)","lat":34.3914,"lon":134.053,"state":"active","id":null},{"event_id":"126581","title":"【Incubate School 第1期】〜前編・VC資金調達のための基礎編〜","url":"https://incubatefund.connpass.com/event/126581/","shortener_url":null,"started_at":"2019-05-09T19:30:00.000+09:00","ended_at":"2019-05-09T21:30:00.000+09:00","limit_number":20,"address":"〒107-6003 東京都港区赤坂1-12-32 アーク森ビル3F","place":"インキュベイトファンドイベントスペース","lat":35.6671,"lon":139.74,"state":"active","id":null},{"event_id":"126583","title":"【増席！】【Incubate School 第1期】〜後編・VC資金調達のためのピッチブック入門編〜","url":"https://incubatefund.connpass.com/event/126583/","shortener_url":null,"started_at":"2019-05-16T19:30:00.000+09:00","ended_at":"2019-05-16T21:30:00.000+09:00","limit_number":30,"address":"〒107-6003 東京都港区赤坂1-12-32 アーク森ビル3F","place":"インキュベイトファンドイベントスペース","lat":35.6671,"lon":139.74,"state":"active","id":null},{"event_id":"127250","title":"Unityゆるゆる勉強会#4","url":"https://yoyogigame.connpass.com/event/127250/","shortener_url":null,"started_at":"2019-05-04T13:00:00.000+09:00","ended_at":"2019-05-04T18:00:00.000+09:00","limit_number":11,"address":"渋谷区代々木1-13-4-4F","place":"コワーキングスペース spAce4510","lat":35.682,"lon":139.7,"state":"active","id":null},{"event_id":"127671","title":"デジットハッカソン2019 令和","url":"https://code4osaka.connpass.com/event/127671/","shortener_url":"https://bit.ly/2X6VUIp","started_at":"2019-05-25T12:00:00.000+09:00","ended_at":"2019-05-26T19:00:00.000+09:00","limit_number":80,"address":"〒556-0011 大阪府大阪市浪速区難波中2丁目10番70号 (なんばパークス内パークスタワー17F)","place":"タビオ大阪本社 大会議室","lat":34.6614,"lon":135.502,"state":"active","id":null},{"event_id":"127770","title":"【とらのあな主催】オタク生活をITで豊かにするハッカソン","url":"https://yumenosora.connpass.com/event/127770/","shortener_url":"https://bit.ly/2Ig4zVG","started_at":"2019-05-18T09:30:00.000+09:00","ended_at":"2019-05-18T19:30:00.000+09:00","limit_number":16,"address":"〒101-0021 東京都千代田区外神田4-7-3","place":"虎ビル","lat":35.7026,"lon":139.772,"state":"active","id":null},{"event_id":"88284","title":"スタートアップウィークエンド 京都　学生限定","url":"https://swkyoto.doorkeeper.jp/events/88284","shortener_url":null,"started_at":"2019-05-24T18:00:00.000+09:00","ended_at":"2019-05-26T21:00:00.000+09:00","limit_number":38,"address":"〒604-8152 京都府京都市中京区中京区手洗水町 手洗水町670番地 京都フクトクビル2F Co\u0026Co KYOTO","place":"ザ　ワールドラウンジ　コーアンドコー　京都","lat":null,"lon":null,"state":"active","id":null},{"event_id":"90018","title":"【5/5（日）】初心者向けシリーズ②『Pandasによるデータ前処理と可視化の基礎』","url":"https://soleildatadojo.doorkeeper.jp/events/90018","shortener_url":null,"started_at":"2019-05-05T13:00:00.000+09:00","ended_at":"2019-05-05T17:10:00.000+09:00","limit_number":6,"address":"大阪府大阪市北区西天満二丁目5番3号(堂島深川ビル3階)","place":"SCRIBBLE OSAKA LAB（SOL）（大阪メトロ御堂筋線「淀屋橋」駅から徒歩４分）","lat":null,"lon":null,"state":"active","id":null},{"event_id":"90017","title":"【5/4（土）午後】初心者向けシリーズ①『PythonとJupyterNotebookの基礎』","url":"https://soleildatadojo.doorkeeper.jp/events/90017","shortener_url":null,"started_at":"2019-05-04T13:00:00.000+09:00","ended_at":"2019-05-04T17:10:00.000+09:00","limit_number":8,"address":"大阪府大阪市北区西天満二丁目5番3号(堂島深川ビル3階)","place":"SCRIBBLE OSAKA LAB（SOL）（大阪メトロ御堂筋線「淀屋橋」駅から徒歩４分）","lat":null,"lon":null,"state":"active","id":null},{"event_id":"105090","title":"競技プログラミング勉強合宿 in 大阪","url":"https://atnd.org/events/105090","shortener_url":"https://bit.ly/2InTvWD","started_at":"2019-05-04T12:00:00.000+09:00","ended_at":"2019-05-06T14:00:00.000+09:00","limit_number":45,"address":"大阪府豊中市柴原町5-5-23","place":"コワーキングスペース Umidass","lat":34.8025,"lon":135.461,"state":"closed","id":null},{"event_id":"629735","title":"【いすみ会場】ついに登場！「YouTubeマネタイズ強化合宿」","url":"http://youtube0518.peatix.com","shortener_url":null,"started_at":"2019-05-18T12:30:00.000+09:00","ended_at":"2019-05-21T08:59:59.000+09:00","limit_number":null,"address":"いすみ市深堀1712−1","place":"hinode","lat":35.2596,"lon":140.398,"state":"active","id":null},{"event_id":"629733","title":"【都留会場】ついに登場！「YouTubeマネタイズ強化合宿」","url":"http://youtube0501.peatix.com","shortener_url":null,"started_at":"2019-05-01T12:30:00.000+09:00","ended_at":"2019-05-04T08:59:59.000+09:00","limit_number":null,"address":"都留市田原2丁目14−8 小宮ビル2F","place":"コワーキングコミュニティteraco.","lat":35.5414,"lon":138.898,"state":"active","id":null},{"event_id":"629793","title":"モバイルアプリハッカソン「\"モバイル時代\"の新しいワークスタイル」","url":"http://hackathon0519.peatix.com","shortener_url":"https://bit.ly/2IhGJIY","started_at":"2019-05-19T11:30:00.000+09:00","ended_at":"2019-05-22T08:59:59.000+09:00","limit_number":null,"address":"新宿区西五軒町 2-10 東松ビル2F","place":"Co-nect 神楽坂（コネクト）","lat":35.7061,"lon":139.738,"state":"active","id":null},{"event_id":"620636","title":"IMPACT,  a Two Day Event Jam","url":"http://impact2019.peatix.com","shortener_url":null,"started_at":"2019-05-04T11:00:00.000+09:00","ended_at":"2019-05-07T08:59:59.000+09:00","limit_number":null,"address":"20, Jalan SS 4d/14, Seksyen 22, Petaling Jaya","place":"Twenty20Two","lat":3.11069,"lon":101.598,"state":"active","id":null},{"event_id":"636528","title":"5月31日(金)19:00～★ 代官山 目的別ブレスレットで出会い率アップのGaitomo国際交流パーティー","url":"http://peatix.com/event/636528","shortener_url":null,"started_at":"2019-05-31T19:00:00.000+09:00","ended_at":"2019-06-03T08:59:59.000+09:00","limit_number":null,"address":"〒150-0034, 20-20 代官山町, 渋谷区","place":"BLU JAM CAFE Daikanyama","lat":35.648,"lon":139.702,"state":"active","id":null},{"event_id":"624987","title":"官民連携ラボCamp","url":"http://camplabo.peatix.com","shortener_url":null,"started_at":"2019-05-05T12:00:00.000+09:00","ended_at":"2019-05-08T08:59:59.000+09:00","limit_number":null,"address":"長南町佐坪1348−1 長南町立西小学校跡地","place":"仲間と泊まる学校 ちょうなん西小","lat":35.3612,"lon":140.235,"state":"active","id":null},{"event_id":"628433","title":"仕事で活かせる強みを引きだす「自分史の棚卸ワークショップ」 40代から考える人生二毛作#9（フォローアップセッション付き）","url":"http://nimousaku9.peatix.com","shortener_url":null,"started_at":"2019-05-19T10:00:00.000+09:00","ended_at":"2019-05-22T08:59:59.000+09:00","limit_number":null,"address":"東京都港区麻布十番2-9-7","place":"麻布十番Charie'sBar（ディオーネ8ビル6F-B）","lat":35.6549,"lon":139.735,"state":"active","id":null},{"event_id":"629228","title":"先行リリース　まちの大学「フード学部　鎌倉でお菓子屋さんをはじめよう」（全６回）","url":"http://machinodaigakufood01.peatix.com","shortener_url":null,"started_at":"2019-05-25T10:00:00.000+09:00","ended_at":"2019-05-28T08:59:59.000+09:00","limit_number":null,"address":"鎌倉市御成町11-13面白法人カヤック パートナーオフィス (第一興産26号館)2F","place":"鎌倉市御成町11-13","lat":35.3184,"lon":139.549,"state":"active","id":null},{"event_id":"631937","title":"BTY LIVE 2019 in Ichihara vol.3","url":"http://btylive2019ichihara3.peatix.com","shortener_url":null,"started_at":"2019-05-19T12:15:00.000+09:00","ended_at":"2019-05-22T08:59:59.000+09:00","limit_number":null,"address":"市原市五井中央西1丁目1−25","place":"サンプラザ市原","lat":35.5129,"lon":140.089,"state":"active","id":null},{"event_id":"629199","title":"5/14(Tue) Latin Lovers Meetup Spain, Portugal, Italy, Brazil★","url":"http://peatix.com/event/629199","shortener_url":null,"started_at":"2019-05-14T19:00:00.000+09:00","ended_at":"2019-05-17T08:59:59.000+09:00","limit_number":null,"address":"東京都渋谷区道玄坂1-3-11","place":"■Hobgoblin Shibuya","lat":35.6583,"lon":139.7,"state":"active","id":null},{"event_id":"626551","title":"5/11(Sat) Nihongo Night in Jiyugaoka","url":"http://peatix.com/event/626551","shortener_url":null,"started_at":"2019-05-11T19:00:00.000+09:00","ended_at":"2019-05-14T08:59:59.000+09:00","limit_number":null,"address":"目黒区自由が丘1丁目8−18 ノーブルビル 3F","place":"Irish pub Clann","lat":35.6069,"lon":139.669,"state":"active","id":null},{"event_id":"630398","title":"5/18(Sat) Nihongo Night in Nishi-Shinjuku","url":"http://peatix.com/event/630398","shortener_url":null,"started_at":"2019-05-18T19:00:00.000+09:00","ended_at":"2019-05-21T08:59:59.000+09:00","limit_number":null,"address":"東京都新宿区西新宿8-19-11","place":"KASHIWAGI CAFE  ","lat":35.6956,"lon":139.691,"state":"active","id":null},{"event_id":"630641","title":"5/21(tue) Drink Meetup in Meguro","url":"http://peatix.com/event/630641","shortener_url":null,"started_at":"2019-05-21T19:00:00.000+09:00","ended_at":"2019-05-24T08:59:59.000+09:00","limit_number":null,"address":"目黒区下目黒1-3-28","place":"The Meguro Tavern","lat":35.6343,"lon":139.713,"state":"active","id":null},{"event_id":"626320","title":"5/9(Thu) Drink Meetup in Shibuya!!（ Near Shibuya Station!!）","url":"http://peatix.com/event/626320","shortener_url":null,"started_at":"2019-05-09T19:00:00.000+09:00","ended_at":"2019-05-12T08:59:59.000+09:00","limit_number":null,"address":"東京都渋谷区宇田川町17-1 渋谷ブラザービル7F","place":"event lounge warp","lat":35.6608,"lon":139.699,"state":"active","id":null},{"event_id":"628427","title":"5/12(Sun) Drink Meetup in Meguro","url":"http://peatix.com/event/628427","shortener_url":null,"started_at":"2019-05-12T18:00:00.000+09:00","ended_at":"2019-05-15T08:59:59.000+09:00","limit_number":null,"address":"目黒区下目黒1-3-28","place":"The Meguro Tavern","lat":35.6343,"lon":139.713,"state":"active","id":null},{"event_id":"630427","title":"5/18 (sun) 20s Social Meetup Shibuya","url":"http://peatix.com/event/630427","shortener_url":null,"started_at":"2019-05-19T14:00:00.000+09:00","ended_at":"2019-05-22T08:59:59.000+09:00","limit_number":null,"address":"渋谷区道玄坂1丁目3−11 一番ビル 3F","place":"Hobgoblin Shibuya British Pub","lat":35.6583,"lon":139.7,"state":"active","id":null},{"event_id":"629622","title":"5/16(Thu) French Night in Jiyugaoka","url":"http://peatix.com/event/629622","shortener_url":null,"started_at":"2019-05-16T18:00:00.000+09:00","ended_at":"2019-05-19T08:59:59.000+09:00","limit_number":null,"address":"東京都目黒区自由が丘1丁目8-18","place":"Clann","lat":35.6069,"lon":139.669,"state":"active","id":null},{"event_id":"626293","title":"MAYDAY! SG 2019 FT. MAYDAY PARADE, WITH CONFIDENCE \u0026 MORE","url":"http://mayday-sg-2019-ft-mayday-parade-with-confidence-more-tickets.peatix.com","shortener_url":null,"started_at":"2019-05-01T15:00:00.000+09:00","ended_at":"2019-05-04T08:59:59.000+09:00","limit_number":null,"address":"1 Venture Avenue","place":"Zepp@BIGBOX Singapore","lat":1.33188,"lon":103.745,"state":"active","id":null},{"event_id":"628399","title":"5/12 (sun) Shibuya Around 30s Drink Meetup","url":"http://peatix.com/event/628399","shortener_url":null,"started_at":"2019-05-12T14:00:00.000+09:00","ended_at":"2019-05-15T08:59:59.000+09:00","limit_number":null,"address":"渋谷区道玄坂1丁目3−11 一番ビル 3F","place":"Hobgoblin Shibuya British Pub","lat":35.6583,"lon":139.7,"state":"active","id":null},{"event_id":"631119","title":"5/22(Wed) Russian Night in Roppongi","url":"http://peatix.com/event/631119","shortener_url":null,"started_at":"2019-05-22T19:00:00.000+09:00","ended_at":"2019-05-25T08:59:59.000+09:00","limit_number":null,"address":"東京都港区六本木3−16−33","place":"Hobgoblin Roppongi","lat":35.6623,"lon":139.737,"state":"active","id":null},{"event_id":"633381","title":"5/25(Sat) Nihongo DrinkMeetup in Nishi-Sinjuku","url":"http://peatix.com/event/633381","shortener_url":null,"started_at":"2019-05-25T17:00:00.000+09:00","ended_at":"2019-05-28T08:59:59.000+09:00","limit_number":null,"address":"〒160-0023, 8丁目-19-11 西新宿, 新宿区","place":"カシワギカフェ","lat":35.6956,"lon":139.691,"state":"active","id":null},{"event_id":"626536","title":"5/11(Sat) Shibuya Travel Lovers Meetup【Where are you going on summer vacation?】","url":"http://peatix.com/event/626536","shortener_url":null,"started_at":"2019-05-11T15:00:00.000+09:00","ended_at":"2019-05-14T08:59:59.000+09:00","limit_number":null,"address":"渋谷区道玄坂1丁目3−11 一番ビル 3F","place":"Hobgoblin Shibuya British Pub","lat":35.6583,"lon":139.7,"state":"active","id":null},{"event_id":"629236","title":"5/15(Wed) Shibuya Nihongo Curry Night","url":"http://peatix.com/event/629236","shortener_url":null,"started_at":"2019-05-15T19:00:00.000+09:00","ended_at":"2019-05-18T08:59:59.000+09:00","limit_number":null,"address":"渋谷区 猿楽町2−12","place":"Asian Spice King 渋谷・代官山","lat":35.6533,"lon":139.705,"state":"active","id":null},{"event_id":"629778","title":"【英検3級】絶対合格！無料セミナー！＠四条烏丸","url":"http://peatix.com/event/629778","shortener_url":null,"started_at":"2019-05-25T14:00:00.000+09:00","ended_at":"2019-05-28T08:59:59.000+09:00","limit_number":null,"address":"京都市下京区 童侍者町 161 綾小路スクエア8F","place":"ジーエルアカデミア","lat":35.0024,"lon":135.759,"state":"active","id":null},{"event_id":"629740","title":"【英検3級】絶対合格！無料セミナー！＠四条烏丸","url":"http://peatix.com/event/629740","shortener_url":null,"started_at":"2019-05-11T14:00:00.000+09:00","ended_at":"2019-05-14T08:59:59.000+09:00","limit_number":null,"address":"京都市下京区 童侍者町 161 綾小路スクエア8F","place":"ジーエルアカデミア","lat":35.0024,"lon":135.759,"state":"active","id":null},{"event_id":"626797","title":"弁護士のための会社法人の利用による税・健康保険料の節減セミナー@大阪","url":"http://locolo1.peatix.com","shortener_url":null,"started_at":"2019-05-23T18:30:00.000+09:00","ended_at":"2019-05-26T08:59:59.000+09:00","limit_number":null,"address":"大阪府大阪市北区堂山町1-5","place":"三共梅田ビル B1F","lat":34.7026,"lon":135.504,"state":"active","id":null},{"event_id":"631176","title":"5/23(木) イタリアンナイト@目黒 / Italian Night in Meguro","url":"http://peatix.com/event/631176","shortener_url":null,"started_at":"2019-05-23T19:00:00.000+09:00","ended_at":"2019-05-26T08:59:59.000+09:00","limit_number":null,"address":"目黒区下目黒1丁目3−3−28 サンウッド目黒ビル2F","place":"The Meguro Tavern","lat":35.6343,"lon":139.713,"state":"active","id":null},{"event_id":"629775","title":"【英検4級】絶対合格！無料セミナー！＠四条烏丸","url":"http://peatix.com/event/629775","shortener_url":null,"started_at":"2019-05-18T14:00:00.000+09:00","ended_at":"2019-05-21T08:59:59.000+09:00","limit_number":null,"address":"京都市下京区 童侍者町 161 綾小路スクエア8F","place":"ジーエルアカデミア","lat":35.0024,"lon":135.759,"state":"active","id":null},{"event_id":"631174","title":"5/23(木) イタリアンナイト@目黒 / Italian Night in Meguro","url":"http://peatix.com/event/631174","shortener_url":null,"started_at":"2019-05-23T19:00:00.000+09:00","ended_at":"2019-05-26T08:59:59.000+09:00","limit_number":null,"address":"目黒区下目黒1丁目3−28 サンウッド目黒ビル2F","place":"The Meguro Tavern","lat":35.6343,"lon":139.713,"state":"active","id":null},{"event_id":"630378","title":"第２７回　Table Cruise【ポーカー】【コントラクトブリッジ】【バックギャモン】","url":"http://tablecruise-tc027.peatix.com","shortener_url":null,"started_at":"2019-05-18T13:00:00.000+09:00","ended_at":"2019-05-21T08:59:59.000+09:00","limit_number":null,"address":"東京都千代田区神田佐久間町3-21-5 東神田ビル","place":"Comfort Space 秋葉原Ⅱ","lat":35.698,"lon":139.779,"state":"active","id":null},{"event_id":"630377","title":"第２７回　Table Cruise【ポーカー】【コントラクトブリッジ】【バックギャモン】","url":"http://sc-tablecruise-tc027.peatix.com","shortener_url":null,"started_at":"2019-05-18T13:00:00.000+09:00","ended_at":"2019-05-21T08:59:59.000+09:00","limit_number":null,"address":"東京都千代田区神田佐久間町3-21-5 東神田ビル","place":"Comfort Space 秋葉原Ⅱ","lat":35.698,"lon":139.779,"state":"active","id":null},{"event_id":"625113","title":"5/8(水) 20代の英会話@西新宿 / 20's Social Meetup in Nishi-Shinjuku","url":"http://peatix.com/event/625113","shortener_url":null,"started_at":"2019-05-08T19:00:00.000+09:00","ended_at":"2019-05-11T08:59:59.000+09:00","limit_number":null,"address":"東京都新宿区西新宿8-19-11","place":"KASHIWAGI CAFE ","lat":35.6954,"lon":139.691,"state":"active","id":null},{"event_id":"629196","title":"5/14(火)ラテン交流会＝スペイン、ブラジル、ポルトガル＠渋谷","url":"http://peatix.com/event/629196","shortener_url":null,"started_at":"2019-05-14T19:00:00.000+09:00","ended_at":"2019-05-17T08:59:59.000+09:00","limit_number":null,"address":"東京都渋谷区道玄坂1-3-11","place":"■Hobgoblin Shibuya","lat":35.6583,"lon":139.7,"state":"active","id":null},{"event_id":"629656","title":"5/17(Fri)Spanish DrinkMeetup in Nishi-Shinjuku","url":"http://peatix.com/event/629656","shortener_url":null,"started_at":"2019-05-17T17:00:00.000+09:00","ended_at":"2019-05-20T08:59:59.000+09:00","limit_number":null,"address":"東京都新宿区西新宿8-19-11","place":"KASHIWAGI CAFE ","lat":35.6956,"lon":139.691,"state":"active","id":null},{"event_id":"630432","title":"5/19(日) 20代の異文化交流会＠渋谷 / 20's Social Meetup in Shibuya","url":"http://peatix.com/event/630432","shortener_url":null,"started_at":"2019-05-19T14:00:00.000+09:00","ended_at":"2019-05-22T08:59:59.000+09:00","limit_number":null,"address":"渋谷区道玄坂1丁目3−11 一番ビル 3F","place":"Hobgoblin Shibuya British Pub","lat":35.6583,"lon":139.7,"state":"active","id":null},{"event_id":"632945","title":"Sugarbook Party: The Sweet Escape","url":"http://sugarbook-party-the-sweet-escape-tickets.peatix.com","shortener_url":null,"started_at":"2019-05-31T08:30:00.000+09:00","ended_at":"2019-06-02T08:59:59.000+09:00","limit_number":null,"address":"Wisma Lim Foo Yoong, 86, Jalan Raja Chulan, Kuala Lumpur","place":"Suzie Wong","lat":3.15096,"lon":101.709,"state":"active","id":null},{"event_id":"633361","title":"5/25(土) にほんご交流会@西新宿 / Nihongo DrinkMeetup!!","url":"http://peatix.com/event/633361","shortener_url":null,"started_at":"2019-05-25T15:00:00.000+09:00","ended_at":"2019-05-28T08:59:59.000+09:00","limit_number":null,"address":"東京都新宿区西新宿8-19-11","place":"KASHIWAGI CAFE ","lat":35.6956,"lon":139.691,"state":"active","id":null},{"event_id":"630399","title":"5/18(土) にほんご交流会@西新宿 / Nihongo DrinkMeetup!!","url":"http://peatix.com/event/630399","shortener_url":null,"started_at":"2019-05-18T19:00:00.000+09:00","ended_at":"2019-05-21T08:59:59.000+09:00","limit_number":null,"address":"東京都新宿区西新宿8-19-11","place":"KASHIWAGI CAFE ","lat":35.6956,"lon":139.691,"state":"active","id":null},{"event_id":"626550","title":"5/11(土) にほんごナイト@自由が丘 / Nihongo Night in Jiyugaoka","url":"http://peatix.com/event/626550","shortener_url":null,"started_at":"2019-05-11T19:00:00.000+09:00","ended_at":"2019-05-14T08:59:59.000+09:00","limit_number":null,"address":"目黒区自由が丘1丁目8−18 ノーブルビル 3F","place":"Irish pub Clann","lat":35.6069,"lon":139.669,"state":"active","id":null},{"event_id":"636006","title":"中村伊知哉学長授業！『イノベーションの志』","url":"http://peatix.com/event/636006","shortener_url":null,"started_at":"2019-05-11T10:00:00.000+09:00","ended_at":"2019-05-14T08:59:59.000+09:00","limit_number":null,"address":"新宿区新宿区百人町1丁目24−20","place":"日本電子専門学校9号館メディアセンター","lat":35.6991,"lon":139.698,"state":"active","id":null},{"event_id":"631092","title":"柔軟性向上と筋力向上の複合トレーニング（上肢編）","url":"http://peatix.com/event/631092","shortener_url":null,"started_at":"2019-05-28T15:00:00.000+09:00","ended_at":"2019-05-31T08:59:59.000+09:00","limit_number":null,"address":"新宿区西新宿1丁目22−2 新宿サンエービル4F","place":"【YMCメディカルトレーナーズスクール新宿校】新宿のヨガ/ヨガ資格取得","lat":35.6888,"lon":139.696,"state":"active","id":null},{"event_id":"625714","title":"【edoARTworkshop】青森伝統の技と心を知る 津軽こぎん刺し体験～こぎん刺しで作るコンパクトミラー","url":"http://edoart215.peatix.com","shortener_url":null,"started_at":"2019-05-11T13:30:00.000+09:00","ended_at":"2019-05-14T08:59:59.000+09:00","limit_number":null,"address":"〒108-0014 東京都港区芝4丁目7ー6","place":"芝ビルディング 704号室 ","lat":35.649,"lon":139.752,"state":"active","id":null},{"event_id":"631800","title":"講師3.0本講座～リピートされ、講師単価が上がる「行動変容型研修講師」養成講座","url":"http://koushi3.peatix.com","shortener_url":null,"started_at":"2019-05-25T10:00:00.000+09:00","ended_at":"2019-05-28T08:59:59.000+09:00","limit_number":null,"address":"中央区銀座3丁目11−3","place":"LEAGUE銀座","lat":35.6712,"lon":139.769,"state":"active","id":null},{"event_id":"629620","title":"5/16(木) フレンチナイト@自由が丘 / French Night in Jiyuugaoka","url":"http://peatix.com/event/629620","shortener_url":null,"started_at":"2019-05-16T19:00:00.000+09:00","ended_at":"2019-05-19T08:59:59.000+09:00","limit_number":null,"address":"東京都目黒区自由が丘1丁目8-18","place":"アイリッシュパブ クラン（Clann)","lat":35.6069,"lon":139.669,"state":"active","id":null},{"event_id":"631120","title":"5/22(水) ロシア語ナイト@六本木 / Russian Night in Roppongi","url":"http://peatix.com/event/631120","shortener_url":null,"started_at":"2019-05-22T19:00:00.000+09:00","ended_at":"2019-05-25T08:59:59.000+09:00","limit_number":null,"address":"東京都港区六本木3−16−33","place":"Hob goblin at Roppongi","lat":35.6623,"lon":139.737,"state":"active","id":null},{"event_id":"625662","title":"【edoARTworkshop】竹細工職人が手ほどきする　竹バスケットづくり","url":"http://edoart216.peatix.com","shortener_url":null,"started_at":"2019-05-19T12:30:00.000+09:00","ended_at":"2019-05-22T08:59:59.000+09:00","limit_number":null,"address":"〒169-0075東京都新宿区高田馬場3-1-5","place":"サンパティオ高田馬場309 ","lat":35.7144,"lon":139.704,"state":"active","id":null},{"event_id":"629904","title":"NECKTIE\u0026BOWTIE PUB CRAWL PARTY! (FRI) ネクタイ＆リボン パーティー！（金）","url":"http://peatix.com/event/629904","shortener_url":null,"started_at":"2019-05-31T19:00:00.000+09:00","ended_at":"2019-06-03T08:59:59.000+09:00","limit_number":null,"address":"東京都港区六本木3-14-9 ユア六本木2F","place":"Bar Propaganda (2F)","lat":35.6623,"lon":139.735,"state":"active","id":null},{"event_id":"629827","title":"HAWAIIAN PUB CRAWL PARTY! (FRI) ハワイアン・パーティー（金）","url":"http://peatix.com/event/629827","shortener_url":null,"started_at":"2019-05-10T19:00:00.000+09:00","ended_at":"2019-05-13T08:59:59.000+09:00","limit_number":null,"address":"東京都港区六本木3-14-9 ユア六本木2F","place":"Bar Propaganda (2F)","lat":35.6623,"lon":139.735,"state":"active","id":null},{"event_id":"633445","title":"第62回堀江貴文とカウンターで高級寿司を食べる【限定9名】テリヤキプレミアム鮨会","url":"http://peatix.com/event/633445","shortener_url":null,"started_at":"2019-05-07T19:00:00.000+09:00","ended_at":"2019-05-10T08:59:59.000+09:00","limit_number":null,"address":"横浜市中区住吉町3丁目29 関内住吉ビル1b号","place":"なか條","lat":35.4466,"lon":139.638,"state":"active","id":null},{"event_id":"634710","title":"Crackhouse Comedy Open-Mic Night | Open-Crack!","url":"http://opencrack1may.peatix.com","shortener_url":null,"started_at":"2019-05-01T22:00:00.000+09:00","ended_at":"2019-05-04T08:59:59.000+09:00","limit_number":null,"address":"24A, 1st Floor, Lorong Rahim Kajai 14, Taman Tun Dr. Ismail, 60000 Kuala Lumpur","place":"The Crackhouse Comedy Club KL","lat":3.15493,"lon":101.623,"state":"active","id":null},{"event_id":"629900","title":"MEMORIAL DAY PARTY! (SAT) メモリアル・デイ　パーティー！（土）","url":"http://peatix.com/event/629900","shortener_url":null,"started_at":"2019-05-25T19:00:00.000+09:00","ended_at":"2019-05-28T08:59:59.000+09:00","limit_number":null,"address":"東京都港区六本木3-14-9 ユア六本木2F","place":"Bar Propaganda (2F)","lat":35.6623,"lon":139.735,"state":"active","id":null},{"event_id":"629828","title":"HAWAIIAN PUB CRAWL PARTY! (SAT) ハワイアン・パーティー（土）","url":"http://peatix.com/event/629828","shortener_url":null,"started_at":"2019-05-11T19:00:00.000+09:00","ended_at":"2019-05-14T08:59:59.000+09:00","limit_number":null,"address":"東京都港区六本木3-14-9 ユア六本木2F","place":"Bar Propaganda (2F)","lat":35.6623,"lon":139.735,"state":"active","id":null},{"event_id":"629883","title":"TRAFFIC LIGHT PUB CRAWL PARTY! (SAT) トラフィック・ライト パーティー！（土）","url":"http://peatix.com/event/629883","shortener_url":null,"started_at":"2019-05-18T19:00:00.000+09:00","ended_at":"2019-05-21T08:59:59.000+09:00","limit_number":null,"address":"東京都港区六本木3-14-9 ユア六本木2F","place":"Bar Propaganda (2F)","lat":35.6623,"lon":139.735,"state":"active","id":null},{"event_id":"629899","title":"MEMORIAL DAY PARTY! (FRI) メモリアル・デイ　パーティー！（金）","url":"http://peatix.com/event/629899","shortener_url":null,"started_at":"2019-05-24T19:00:00.000+09:00","ended_at":"2019-05-27T08:59:59.000+09:00","limit_number":null,"address":"東京都港区六本木3-14-9 ユア六本木2F","place":"Bar Propaganda (2F)","lat":35.6623,"lon":139.735,"state":"active","id":null},{"event_id":"629882","title":"TRAFFIC LIGHT PUB CRAWL PARTY! (FRI) トラフィック・ライト パーティー！（金）","url":"http://peatix.com/event/629882","shortener_url":null,"started_at":"2019-05-17T19:00:00.000+09:00","ended_at":"2019-05-20T08:59:59.000+09:00","limit_number":null,"address":"東京都港区六本木3-14-9 ユア六本木2F","place":"Bar Propaganda (2F)","lat":35.6623,"lon":139.735,"state":"active","id":null},{"event_id":"633130","title":"5月25日(土)19:00～★ 六本木 土曜日は楽しい飲み友作りGaitomo国際交流パーティー","url":"http://peatix.com/event/633130","shortener_url":null,"started_at":"2019-05-25T19:00:00.000+09:00","ended_at":"2019-05-28T08:59:59.000+09:00","limit_number":null,"address":"港区六本木3丁目13−12 エルサビル2階","place":"LEX TOKYO","lat":35.6629,"lon":139.734,"state":"active","id":null},{"event_id":"636775","title":"5月10日(金)19:00～★ 表参道 国際的な友活をしようGaitomo国際交流パーティー","url":"http://peatix.com/event/636775","shortener_url":null,"started_at":"2019-05-10T19:00:00.000+09:00","ended_at":"2019-05-13T08:59:59.000+09:00","limit_number":null,"address":"港区南青山5丁目10−1 H2 AOYAMA BLDG B1","place":"エラグ青山","lat":35.6627,"lon":139.711,"state":"active","id":null},{"event_id":"628370","title":"大阪開催：Microsoft Power BI 実践ハンズオン応用編【DAX関数と分析データモデリング】(2019年5月）","url":"http://powerbi201904advanceosaka.peatix.com","shortener_url":null,"started_at":"2019-05-22T14:00:00.000+09:00","ended_at":"2019-05-25T08:59:59.000+09:00","limit_number":null,"address":"大阪府大阪市淀川区西中島4-2-26 天神第一ビル 6階","place":"貸し会議室プランセカンス","lat":34.7264,"lon":135.498,"state":"active","id":null},{"event_id":"627146","title":"5/25(土)集まってつながる公式イベント nanaるday栃木宇都宮","url":"http://nanaruday-2019525utsunomiya.peatix.com","shortener_url":null,"started_at":"2019-05-25T15:00:00.000+09:00","ended_at":"2019-05-28T08:59:59.000+09:00","limit_number":null,"address":"宇都宮市江野町9−8山崎ビル","place":"Cafe ink Blue","lat":36.5599,"lon":139.883,"state":"active","id":null},{"event_id":"637809","title":"［入門］箔  PIGMENT LAB WORKSHOP  Introduction to Metal Leaf","url":"http://peatix.com/event/637809","shortener_url":null,"started_at":"2019-05-26T13:00:00.000+09:00","ended_at":"2019-05-29T08:59:59.000+09:00","limit_number":null,"address":"品川区東品川2丁目5−5 TERRADA Harbor One Bldg. 1F","place":"PIGMENT","lat":35.6213,"lon":139.75,"state":"active","id":null},{"event_id":"633069","title":"5月18日(土)19:00～★ 銀座 いい人に出会えたらいいな～Gaitomo国際交流パーティー","url":"http://peatix.com/event/633069","shortener_url":null,"started_at":"2019-05-18T19:00:00.000+09:00","ended_at":"2019-05-21T08:59:59.000+09:00","limit_number":null,"address":"中央区銀座4丁目2−17 B1F/1F 銀座111レジャービル","place":"LAPIS TOKYO(ラピストーキョー)銀座","lat":35.6728,"lon":139.764,"state":"active","id":null},{"event_id":"633141","title":"5月29日(水)19:00～★ 恵比寿 仕事帰りに駅近のお洒落カフェで平日Gaitomo国際交流パーティー","url":"http://peatix.com/event/633141","shortener_url":null,"started_at":"2019-05-29T19:00:00.000+09:00","ended_at":"2019-06-01T08:59:59.000+09:00","limit_number":null,"address":"東京都渋谷区恵比寿南1-3-2","place":"恵比寿 dot. Grill and Bar ","lat":35.6457,"lon":139.708,"state":"active","id":null},{"event_id":"634505","title":"5月26(日)18:00～★ 麻布十番 恋愛に関係なく国際交流したい人のGaitomo国際交流パーティー","url":"http://peatix.com/event/634505","shortener_url":null,"started_at":"2019-05-26T18:00:00.000+09:00","ended_at":"2019-05-29T08:59:59.000+09:00","limit_number":null,"address":"港区麻布十番1丁目9−2 ユニマット麻布十番ビル7F","place":"SPUTNIK LOUNGE","lat":35.6564,"lon":139.735,"state":"active","id":null},{"event_id":"633055","title":"5月9日(木)19:00～日本橋 駅直結イタリアンレストランお仕事帰りに平日Gaitomo国際交流パーティー","url":"http://peatix.com/event/633055","shortener_url":null,"started_at":"2019-05-09T19:00:00.000+09:00","ended_at":"2019-05-12T08:59:59.000+09:00","limit_number":null,"address":"東京都中央区日本橋室町3-4-4","place":"日本橋 Locanda MEAT \u0026 ITALY(ロカンダ ミート＆イタリー) ","lat":35.6883,"lon":139.773,"state":"active","id":null},{"event_id":"128014","title":"子ども向けプログラミングクラブ コーダー道場甲府#22","url":"https://coderdojokofu.connpass.com/event/128014/","shortener_url":null,"started_at":"2019-05-26T09:20:00.000+09:00","ended_at":"2019-05-26T11:40:00.000+09:00","limit_number":13,"address":"山梨県甲府市北口２丁目８番１号","place":"山梨県立図書館","lat":35.6685,"lon":138.57,"state":"active","id":null},{"event_id":"637775","title":"アメトーク～大丈夫。心配するな。何とかなる。～","url":"http://peatix.com/event/637775","shortener_url":null,"started_at":"2019-05-10T19:00:00.000+09:00","ended_at":"2019-05-13T08:59:59.000+09:00","limit_number":null,"address":"兵庫県尼崎市寺町9","place":"大覚寺信徒会館","lat":34.718,"lon":135.413,"state":"active","id":null},{"event_id":"636833","title":"内海聡の内海塾 in東京第5回「ガン対策とガンの代替療法」5/10(金)","url":"http://20190510.peatix.com","shortener_url":null,"started_at":"2019-05-10T19:00:00.000+09:00","ended_at":"2019-05-13T08:59:59.000+09:00","limit_number":null,"address":"千代田区 神田小川町3丁目10 新駿河台ビル10F","place":"ハロー貸会議室神保町","lat":35.6961,"lon":139.761,"state":"active","id":null},{"event_id":"636768","title":"地域×金融×デジタル　Meetupイベント#1","url":"http://drt20190516ft.peatix.com","shortener_url":null,"started_at":"2019-05-16T16:00:00.000+09:00","ended_at":"2019-05-19T08:59:59.000+09:00","limit_number":null,"address":"中央区八重洲2丁目8−7 福岡ビル4F","place":"DIAGONAL RUN TOKYO（ダイアゴナルラン トウキョウ）","lat":35.6767,"lon":139.768,"state":"active","id":null},{"event_id":"639694","title":"Jane's Walk Singapore 2019 - Finding the Spirit of Chinatown [WAITING LIST OPEN]","url":"http://peatix.com/event/639694","shortener_url":null,"started_at":"2019-05-04T11:00:00.000+09:00","ended_at":"2019-05-07T08:59:59.000+09:00","limit_number":null,"address":"333 New Bridge Rd, Singapore","place":"Street level of Exit H of Outram MRT Interchange, which is just outside Dorsett Hotel. It is by the junction of Teo Hong Road and New Bridge Road.","lat":1.27965,"lon":103.84,"state":"active","id":null},{"event_id":"128238","title":"令和最初の！スクラム道関西 オープン・ジャム","url":"https://scrumdo-kansai.connpass.com/event/128238/","shortener_url":null,"started_at":"2019-05-07T19:00:00.000+09:00","ended_at":"2019-05-07T21:00:00.000+09:00","limit_number":25,"address":"大阪府大阪市北区末広町3-7","place":"TAM COWORKING OSAKA","lat":34.7019,"lon":135.51,"state":"active","id":null},{"event_id":"90187","title":"［無料］ものづくり経営管理・人材育成講座","url":"https://swtokyo.doorkeeper.jp/events/90187","shortener_url":null,"started_at":"2019-05-19T13:00:00.000+09:00","ended_at":"2019-05-19T17:00:00.000+09:00","limit_number":70,"address":"東京都大田区南蒲田1丁目20-20","place":"大田区産業プラザPiO","lat":null,"lon":null,"state":"active","id":null},{"event_id":"626133","title":"スポーツ栄養講座「アスリートの食事2019・基本編」","url":"http://peatix.com/event/626133","shortener_url":null,"started_at":"2019-05-30T13:00:00.000+09:00","ended_at":"2019-06-02T08:59:59.000+09:00","limit_number":null,"address":"東京都渋谷区恵比寿4-20-3","place":"クックパッド本社（恵比寿ガーデンプレイス12階）","lat":35.6424,"lon":139.713,"state":"active","id":null},{"event_id":"638926","title":"株式会社POL×株式会社HRBrain合同セミナー 「HRTechを活用したエンジニアの採用\u0026定着のノウハウ」~理系学生・エンジニア社員の採用、人事評価、目標管理の成功失敗体験~","url":"http://peatix.com/event/638926","shortener_url":null,"started_at":"2019-05-15T18:00:00.000+09:00","ended_at":"2019-05-18T08:59:59.000+09:00","limit_number":null,"address":"東京都中央区日本橋室町3丁目3−3 CMビル","place":"Clip ニホンバシビル 1 階 セミナースペース","lat":0.0,"lon":0.0,"state":"active","id":null},{"event_id":"638029","title":"プログラム説明会 兼 体験型セッション ～新興国ソーシャルベンチャー共創プログラム 第2弾 インドネシア編～","url":"http://session-copro02.peatix.com","shortener_url":null,"started_at":"2019-05-19T13:00:00.000+09:00","ended_at":"2019-05-22T08:59:59.000+09:00","limit_number":null,"address":"港区芝4丁目7−1","place":"西山ビル ４階","lat":0.0,"lon":0.0,"state":"active","id":null},{"event_id":"641490","title":"Mindfulness MBSR Preview: Saturday 25 May 2019","url":"http://takeapause-25may2019.peatix.com","shortener_url":null,"started_at":"2019-05-25T16:00:00.000+09:00","ended_at":"2019-05-28T08:59:59.000+09:00","limit_number":null,"address":"190 Clemenceau Avenue, Singapore Shopping Centre, #04-10","place":"Singapore Shopping Centre #04-10","lat":1.29815,"lon":103.844,"state":"active","id":null},{"event_id":"637716","title":"ブロックチェーン研究教育講座　初級コース　第2講","url":"http://blockchaincourse2.peatix.com","shortener_url":null,"started_at":"2019-05-11T14:00:00.000+09:00","ended_at":"2019-05-14T08:59:59.000+09:00","limit_number":null,"address":"1丁目8−19 キラリトギンザ11階","place":"BINARYSTAR 株式会社","lat":35.6744,"lon":139.769,"state":"active","id":null},{"event_id":"127842","title":"LemoMade　IoT Planner-Road 『IoTビジネスプランナーセミナー』","url":"https://connpass.com/event/127842/","shortener_url":"https://bit.ly/2XhJltO","started_at":"2019-05-11T13:00:00.000+09:00","ended_at":"2019-07-19T22:00:00.000+09:00","limit_number":40,"address":"大阪市北区茶屋町1-27　ABC-MART梅田ビル7F","place":"UMEDAI会議室","lat":34.7047,"lon":135.499,"state":"active","id":null},{"event_id":"641566","title":"IchigoJamプログラミング講座＜子ども向け・大人向け＞5月18日","url":"http://peatix.com/event/641566","shortener_url":null,"started_at":"2019-05-18T14:00:00.000+09:00","ended_at":"2019-05-21T08:59:59.000+09:00","limit_number":null,"address":"〒916-0025, 旭町1丁目6-6, 鯖江市","place":"Hana道場 - Hana Open Innovation Dojo -","lat":35.9446,"lon":136.186,"state":"active","id":null},{"event_id":"641570","title":"IchigoJamプログラミング講座＜子ども向け・大人向け＞5月25日","url":"http://peatix.com/event/641570","shortener_url":null,"started_at":"2019-05-25T14:00:00.000+09:00","ended_at":"2019-05-28T08:59:59.000+09:00","limit_number":null,"address":"〒916-0025, 旭町1丁目6-6, 鯖江市","place":"Hana道場 - Hana Open Innovation Dojo -","lat":35.9446,"lon":136.186,"state":"active","id":null},{"event_id":"640488","title":"スピーキング＆リスニング徹底強化！「横山カズのとっさに使える英語を身につけるための英語セミナー！」 同時通訳者＆大学、高校、企業内英語公用化の現場で英語指導をする講師によるセミナーだから効果が出ます！たっぷり5時間以上の集中講義","url":"http://kazu-yokoyama.peatix.com","shortener_url":null,"started_at":"2019-05-21T10:30:00.000+09:00","ended_at":"2019-05-24T08:59:59.000+09:00","limit_number":null,"address":"港区高輪3丁目4−13 第二高輪偕成ビル(レフォルマ高輪) 7F","place":"高輪台スタジオ","lat":35.6348,"lon":139.732,"state":"active","id":null},{"event_id":"641585","title":"Grow Your eCommerce Business Across Southeast Asia","url":"http://grow-your-ecommerce-business-sea.peatix.com","shortener_url":null,"started_at":"2019-05-02T15:30:00.000+09:00","ended_at":"2019-05-05T08:59:59.000+09:00","limit_number":null,"address":"14 MY, Jalan Sultan Ismail, Kuala Lumpur 14, Kuala Lumpur","place":"WeWork Equatorial Plaza","lat":0.0,"lon":0.0,"state":"active","id":null},{"event_id":"642117","title":"周りの目を気にせずに本当に望む毎日を手に入れる自信の作り方「ぬいぐるみ心理学1day講座」","url":"http://20191daykouza10.peatix.com","shortener_url":null,"started_at":"2019-05-12T11:00:00.000+09:00","ended_at":"2019-05-15T08:59:59.000+09:00","limit_number":null,"address":"東京都品川区大崎","place":"品川区の会議室（JR大崎駅が最寄りです。申込者に詳細をお伝えします）","lat":35.6204,"lon":139.726,"state":"active","id":null},{"event_id":"642120","title":"「ぬいぐるみ心理学1day講座」３時間で身につける！周りの目を気にせずに本当に望む毎日を手に入れる自信の作り方","url":"http://20191daykouza11.peatix.com","shortener_url":null,"started_at":"2019-05-15T11:00:00.000+09:00","ended_at":"2019-05-18T08:59:59.000+09:00","limit_number":null,"address":"東京都品川区大崎","place":"品川区の会議室（JR大崎駅が最寄りです。申込者に詳細をお伝えします）","lat":35.6204,"lon":139.726,"state":"active","id":null},{"event_id":"634733","title":"マスターマインドイノベーションセミナー〜ヘルスケア特集〜","url":"http://20190522mmbc.peatix.com","shortener_url":null,"started_at":"2019-05-22T18:00:00.000+09:00","ended_at":"2019-05-25T08:59:59.000+09:00","limit_number":null,"address":"千代田区1 大手町1丁目1番2号","place":"3×3 Lab Future","lat":35.6861,"lon":139.762,"state":"active","id":null},{"event_id":"631069","title":"年間トークイベント Atlya NEWAGE Cafe アトリアニューエイジカフェ","url":"http://peatix.com/event/631069","shortener_url":null,"started_at":"2019-05-11T13:00:00.000+09:00","ended_at":"2019-05-14T08:59:59.000+09:00","limit_number":null,"address":"東京都渋谷区代々木4-50-13","place":"Atlya参宮橋(ちとせ保育園ビル1F）","lat":0.0,"lon":0.0,"state":"active","id":null},{"event_id":"636005","title":"5/26(Sun) English Only Meetup in Shibuya","url":"http://peatix.com/event/636005","shortener_url":null,"started_at":"2019-05-26T14:00:00.000+09:00","ended_at":"2019-05-29T08:59:59.000+09:00","limit_number":null,"address":"渋谷区道玄坂1丁目3−11 一番ビル 3F","place":"Hobgoblin Shibuya British Pub","lat":35.6583,"lon":139.7,"state":"active","id":null},{"event_id":"635972","title":"5/25(Sat) Drink Meetup in Jiyugaoka","url":"http://peatix.com/event/635972","shortener_url":null,"started_at":"2019-05-25T19:00:00.000+09:00","ended_at":"2019-05-28T08:59:59.000+09:00","limit_number":null,"address":"東京都目黒区自由が丘1丁目8-18","place":"Clann","lat":35.6069,"lon":139.669,"state":"active","id":null},{"event_id":"641907","title":"5/31 (Fri) 20s Social Meetup Nishi-Shinjuku","url":"http://peatix.com/event/641907","shortener_url":null,"started_at":"2019-05-31T19:00:00.000+09:00","ended_at":"2019-06-03T08:59:59.000+09:00","limit_number":null,"address":"新宿区西新宿8丁目19−11","place":"KASHIWAGI CAFE","lat":35.6956,"lon":139.691,"state":"active","id":null},{"event_id":"640682","title":"5/30(Thu) Drink Meetup in Meguro","url":"http://peatix.com/event/640682","shortener_url":null,"started_at":"2019-05-30T19:00:00.000+09:00","ended_at":"2019-06-02T08:59:59.000+09:00","limit_number":null,"address":"目黒区下目黒1-3-28","place":"The Meguro Tavern","lat":35.6343,"lon":139.713,"state":"active","id":null},{"event_id":"637804","title":"【FRON】5/28(tue) Drink Meetup in Shibuya【Let's talk】","url":"http://peatix.com/event/637804","shortener_url":null,"started_at":"2019-05-28T19:00:00.000+09:00","ended_at":"2019-05-31T08:59:59.000+09:00","limit_number":null,"address":"東京都渋谷区円山町1-1","place":"TAPROOM","lat":35.6598,"lon":139.695,"state":"active","id":null},{"event_id":"636696","title":"5/29(Wed) German Night in Roppongi","url":"http://peatix.com/event/636696","shortener_url":null,"started_at":"2019-05-29T19:00:00.000+09:00","ended_at":"2019-06-01T08:59:59.000+09:00","limit_number":null,"address":"東京都港区六本木3−16−33","place":"Hobgoblin Roppongi","lat":35.6623,"lon":139.737,"state":"active","id":null},{"event_id":"636692","title":"5/29(水) ドイツ語ナイト@六本木 / German Night in Roppongi","url":"http://peatix.com/event/636692","shortener_url":null,"started_at":"2019-05-29T19:00:00.000+09:00","ended_at":"2019-06-01T08:59:59.000+09:00","limit_number":null,"address":"東京都港区六本木3−16−33","place":"Hob goblin at Roppongi","lat":35.6623,"lon":139.737,"state":"active","id":null},{"event_id":"643118","title":"コミュニティ経済と未来のお金を考えるクラス","url":"http://20190512tiikituuka.peatix.com","shortener_url":null,"started_at":"2019-05-12T10:00:00.000+09:00","ended_at":"2019-05-15T08:59:59.000+09:00","limit_number":null,"address":"〒101-0054 東京都千代田区神田錦町3‐21","place":"ちよだプラットフォームスクウェア グリーンズオフィス","lat":35.6915,"lon":139.762,"state":"active","id":null},{"event_id":"635665","title":"HAWAIIAN PUB CRAWL PARTY! (FRI) ハワイアン パーティー！（金）","url":"http://peatix.com/event/635665","shortener_url":null,"started_at":"2019-05-10T19:00:00.000+09:00","ended_at":"2019-05-13T08:59:59.000+09:00","limit_number":null,"address":"大阪市中央区東心斎橋2-5-27","place":"The Blarney Stone (B1F)","lat":34.6718,"lon":135.504,"state":"active","id":null},{"event_id":"635677","title":"TRAFFIC LIGHT PUB CRAWL PARTY! (FRI) トラフィック・ライト パーティー！（金）","url":"http://peatix.com/event/635677","shortener_url":null,"started_at":"2019-05-17T19:00:00.000+09:00","ended_at":"2019-05-20T08:59:59.000+09:00","limit_number":null,"address":"大阪市中央区東心斎橋2-5-27","place":"The Blarney Stone (B1F)","lat":34.6718,"lon":135.504,"state":"active","id":null},{"event_id":"635696","title":"NECKTIE\u0026BOWTIE PUB CRAWL! (FRI) ネクタイ＆リボン パーティー！（金）","url":"http://peatix.com/event/635696","shortener_url":null,"started_at":"2019-05-31T19:00:00.000+09:00","ended_at":"2019-06-03T08:59:59.000+09:00","limit_number":null,"address":"大阪市中央区東心斎橋2-5-27","place":"The Blarney Stone (B1F)","lat":34.6718,"lon":135.504,"state":"active","id":null},{"event_id":"635666","title":"HAWAIIAN PUB CRAWL PARTY! (SAT) ハワイアン パーティー！（土）","url":"http://peatix.com/event/635666","shortener_url":null,"started_at":"2019-05-11T19:00:00.000+09:00","ended_at":"2019-05-14T08:59:59.000+09:00","limit_number":null,"address":"大阪市中央区東心斎橋2-5-27","place":"The Blarney Stone (B1F)","lat":34.6718,"lon":135.504,"state":"active","id":null},{"event_id":"635678","title":"TRAFFIC LIGHT PUB CRAWL PARTY! (SAT) トラフィック・ライト パーティー！（土）","url":"http://peatix.com/event/635678","shortener_url":null,"started_at":"2019-05-18T19:00:00.000+09:00","ended_at":"2019-05-21T08:59:59.000+09:00","limit_number":null,"address":"大阪市中央区東心斎橋2-5-27","place":"The Blarney Stone (B1F)","lat":34.6718,"lon":135.504,"state":"active","id":null},{"event_id":"635688","title":"MEMORIAL DAY PUB CRAWL! (SAT) メモリアル・デイ パーティー！（土）","url":"http://peatix.com/event/635688","shortener_url":null,"started_at":"2019-05-25T19:00:00.000+09:00","ended_at":"2019-05-28T08:59:59.000+09:00","limit_number":null,"address":"大阪市中央区東心斎橋2-5-27","place":"The Blarney Stone (B1F)","lat":34.6718,"lon":135.504,"state":"active","id":null},{"event_id":"635687","title":"MEMORIAL DAY PUB CRAWL! (FRI) メモリアル・デイ パーティー！（金）","url":"http://peatix.com/event/635687","shortener_url":null,"started_at":"2019-05-24T19:00:00.000+09:00","ended_at":"2019-05-27T08:59:59.000+09:00","limit_number":null,"address":"大阪市中央区東心斎橋2-5-27","place":"The Blarney Stone (B1F)","lat":34.6718,"lon":135.504,"state":"active","id":null},{"event_id":"642092","title":"＜Bモードの手技だけで大丈夫ですか？カラードプラ/パルスドプラを学んでステップアップしたい方へのお誘いです＞","url":"http://peatix.com/event/642092","shortener_url":null,"started_at":"2019-05-29T08:00:00.000+09:00","ended_at":"2019-05-31T08:59:59.000+09:00","limit_number":null,"address":"台東区台東4丁目8−7 ヒューリック仲御徒町ビル8階","place":"メドフィット【MEDFit】","lat":35.7061,"lon":139.777,"state":"active","id":null},{"event_id":"642041","title":"＜プローブを握る機会に恵まれない未経験の方へ「初めの一歩」をお手伝いします＞","url":"http://peatix.com/event/642041","shortener_url":null,"started_at":"2019-05-14T09:00:00.000+09:00","ended_at":"2019-05-17T08:59:59.000+09:00","limit_number":null,"address":"台東区台東4丁目8−7 ヒューリック仲御徒町ビル8階","place":"メドフィット【MEDFit】","lat":35.7061,"lon":139.777,"state":"active","id":null},{"event_id":"642056","title":"＜プローブを握る機会に恵まれない未経験の方へ「初めの一歩」をお手伝いします＞","url":"http://peatix.com/event/642056","shortener_url":null,"started_at":"2019-05-27T09:00:00.000+09:00","ended_at":"2019-05-30T08:59:59.000+09:00","limit_number":null,"address":"台東区台東4丁目8−7 ヒューリック仲御徒町ビル8階","place":"メドフィット【MEDFit】","lat":35.7061,"lon":139.777,"state":"active","id":null},{"event_id":"642087","title":"＜超音波検査の領域を広げるチャンスです！ホットな情報♪＞","url":"http://peatix.com/event/642087","shortener_url":null,"started_at":"2019-05-21T09:00:00.000+09:00","ended_at":"2019-05-24T08:59:59.000+09:00","limit_number":null,"address":"台東区台東4丁目8−7 ヒューリック仲御徒町ビル8階","place":"メドフィット【MEDFit】","lat":35.7061,"lon":139.777,"state":"active","id":null},{"event_id":"641982","title":"【限定６名】２ヶ月みっちり国内留学！英語で英語を学ぶ、大人のための本格英語講座　（六本木開講は今回がラストチャンス！）","url":"http://peatix.com/event/641982","shortener_url":null,"started_at":"2019-05-12T10:00:00.000+09:00","ended_at":"2019-05-15T08:59:59.000+09:00","limit_number":null,"address":"東京都港区元麻布3-1-35 地下2階","place":"六本木 The P@rk","lat":35.658,"lon":139.728,"state":"active","id":null},{"event_id":"642081","title":"＜超音波検査の領域を広げるチャンスです！ホットな情報♪＞","url":"http://peatix.com/event/642081","shortener_url":null,"started_at":"2019-05-15T09:00:00.000+09:00","ended_at":"2019-05-18T08:59:59.000+09:00","limit_number":null,"address":"台東区台東4丁目8−7 ヒューリック仲御徒町ビル8階","place":"メドフィット【MEDFit】","lat":35.7061,"lon":139.777,"state":"active","id":null},{"event_id":"643815","title":"【コース1】＜最大4名の少人数！一歩差がつく【体験型腹部エコーセミナー】お好きな日程が選べます！＞","url":"http://peatix.com/event/643815","shortener_url":null,"started_at":"2019-05-20T09:00:00.000+09:00","ended_at":"2019-05-23T08:59:59.000+09:00","limit_number":null,"address":"台東区台東4丁目8−7 ヒューリック仲御徒町ビル8階","place":"メドフィット【MEDFit】","lat":35.7061,"lon":139.777,"state":"active","id":null},{"event_id":"643825","title":"【コース1】＜最大4名の少人数！一歩差がつく【体験型腹部エコーセミナー】お好きな日程が選べます！＞","url":"http://peatix.com/event/643825","shortener_url":null,"started_at":"2019-05-28T09:00:00.000+09:00","ended_at":"2019-05-31T08:59:59.000+09:00","limit_number":null,"address":"台東区台東4丁目8−7 ヒューリック仲御徒町ビル8階","place":"メドフィット【MEDFit】","lat":35.7061,"lon":139.777,"state":"active","id":null},{"event_id":"637556","title":"5月24日(金)19:00～★ 六本木 オーストラリアンバーでGaitomo国際交流パーティー","url":"http://peatix.com/event/637556","shortener_url":null,"started_at":"2019-05-24T19:00:00.000+09:00","ended_at":"2019-05-27T08:59:59.000+09:00","limit_number":null,"address":"港区六本木5丁目5−3−1 3F 第2レーヌビル","place":"Bar Quest","lat":35.6621,"lon":139.733,"state":"active","id":null},{"event_id":"126529","title":"【増員】第１回 Jetsonユーザー勉強会（超初心者も大歓迎！）","url":"https://jsjug.connpass.com/event/126529/","shortener_url":null,"started_at":"2019-05-24T19:00:00.000+09:00","ended_at":"2019-05-24T22:00:00.000+09:00","limit_number":120,"address":"東京都港区東新橋1-9-2 (汐留住友ビル)","place":"汐留住友ビル 14F ソフトバンク新館汐留キャンパス","lat":35.6623,"lon":139.76,"state":"active","id":null},{"event_id":"128631","title":"石川・金沢IoTビジネス共創ラボ 第3回勉強会","url":"https://iotbizlabo.connpass.com/event/128631/","shortener_url":"https://bit.ly/2XrwK7s","started_at":"2019-05-24T14:00:00.000+09:00","ended_at":"2019-05-24T18:40:00.000+09:00","limit_number":56,"address":"","place":"オンライン開催","lat":36.5713,"lon":136.655,"state":"active","id":null},{"event_id":"643919","title":"UMEHARA DRONE STAGE オープニングイベント＆SNW合宿","url":"http://snw-umehara-open.peatix.com","shortener_url":null,"started_at":"2019-05-05T09:00:00.000+09:00","ended_at":"2019-05-08T08:59:59.000+09:00","limit_number":null,"address":"茨城県神栖市須田1392","place":"UMEHARA DRONE STAGE","lat":35.8279,"lon":140.756,"state":"active","id":null},{"event_id":"642891","title":"『 SDGs de 地方創生ゲーム 』体験会 IN 富山　５月 vol.1","url":"http://peatix.com/event/642891","shortener_url":null,"started_at":"2019-05-06T13:00:00.000+09:00","ended_at":"2019-05-09T08:59:59.000+09:00","limit_number":null,"address":"富山市桜町1丁目1−61","place":"マリエとやま","lat":36.7004,"lon":137.214,"state":"active","id":null},{"event_id":"642276","title":"カードゲーム 2030 SDGs × 問いづくり IN 富山　５月 vol.1","url":"http://peatix.com/event/642276","shortener_url":null,"started_at":"2019-05-05T18:00:00.000+09:00","ended_at":"2019-05-08T08:59:59.000+09:00","limit_number":null,"address":"富山市桜町1丁目1−61","place":"マリエとやま","lat":36.7004,"lon":137.214,"state":"active","id":null},{"event_id":"625476","title":"Living Anywhere Week in 館山","url":"http://laweektateyama.peatix.com","shortener_url":"https://bit.ly/2IwCSrt","started_at":"2019-05-08T10:00:00.000+09:00","ended_at":"2019-05-11T08:59:59.000+09:00","limit_number":null,"address":"館山市北条2861","place":"ナミカゼタテヤマ Nami Kaze TATEYAMA","lat":34.9963,"lon":139.859,"state":"active","id":null},{"event_id":"128912","title":"智恵の和勉強会","url":"https://connpass.com/event/128912/","shortener_url":null,"started_at":"2019-05-11T13:00:00.000+09:00","ended_at":"2019-05-11T17:00:00.000+09:00","limit_number":null,"address":"東京都港区港南 2-16-3 品川グランドセントラルタワー","place":"マイクロソフト品川本社","lat":35.6267,"lon":139.74,"state":"active","id":null},{"event_id":"105325","title":"令和元年最初のMMDアングラリアルイベント 『MMDで食う飯は美味いか！？』","url":"https://atnd.org/events/105325","shortener_url":null,"started_at":"2019-05-11T16:00:00.000+09:00","ended_at":"2019-05-11T17:45:00.000+09:00","limit_number":75,"address":"〒151-0053 東京都渋谷区代々木4-50-8参宮橋ゲストハウスB1","place":"参宮橋トランスミッション","lat":35.6782,"lon":139.692,"state":"closed","id":null},{"event_id":"623923","title":"エンタメプロデューサーズ会議 〜ノイタミナ元編集長の山本幸治氏に直接プレゼンできるエンタメアイデアソン！！〜","url":"http://entertainment-producers.peatix.com","shortener_url":"https://bit.ly/2IBbQPY","started_at":"2019-05-11T12:00:00.000+09:00","ended_at":"2019-05-14T08:59:59.000+09:00","limit_number":null,"address":"東京都港区虎ノ門3-4-7 虎ノ門36森ビル","place":"株式会社Too  本社","lat":35.6662,"lon":139.747,"state":"active","id":null},{"event_id":"645892","title":"IMPACT : A Two Day Event Jam","url":"http://impactmay2019.peatix.com","shortener_url":null,"started_at":"2019-05-04T11:00:00.000+09:00","ended_at":"2019-05-07T08:59:59.000+09:00","limit_number":null,"address":"20, Jalan SS 4d/14, Seksyen 22, Petaling Jaya","place":"Twenty20Two","lat":3.11069,"lon":101.598,"state":"active","id":null},{"event_id":"645216","title":"「未来の人材育成のあり方」を体感する人事交流会 vol.2","url":"http://peatix.com/event/645216","shortener_url":null,"started_at":"2019-05-15T19:30:00.000+09:00","ended_at":"2019-05-18T08:59:59.000+09:00","limit_number":null,"address":"〒150-0042 東京都渋谷区宇田川町3−7","place":"la billage( ＮＯＦ渋谷公園通りビル5F ヒューリック)","lat":35.6625,"lon":139.699,"state":"active","id":null},{"event_id":"645412","title":"Family Dance and Music Jamboree w/ Rolypoly Family + Little Creatures","url":"http://familydancemusicjam2019.peatix.com","shortener_url":null,"started_at":"2019-05-18T11:00:00.000+09:00","ended_at":"2019-05-21T08:59:59.000+09:00","limit_number":null,"address":"90 Goodman Road","place":"Goodman Arts Centre","lat":1.30411,"lon":103.885,"state":"active","id":null},{"event_id":"641862","title":"5/31(金) 20代の英会話@西新宿 / 20's Social Meetup in Nishi-Shinjuku","url":"http://peatix.com/event/641862","shortener_url":null,"started_at":"2019-05-31T19:00:00.000+09:00","ended_at":"2019-06-03T08:59:59.000+09:00","limit_number":null,"address":"東京都新宿区西新宿8-19-11","place":"KASHIWAGI CAFE ","lat":35.6954,"lon":139.691,"state":"active","id":null},{"event_id":"642136","title":"＜5/14(火)・5/27(月)＞マインドフルネスヨガでメンタルヘルスをコンディショニング(運動量：少)【駅チカ/未経験歓迎/少人数】","url":"http://peatix.com/event/642136","shortener_url":null,"started_at":"2019-05-14T18:30:00.000+09:00","ended_at":"2019-05-17T08:59:59.000+09:00","limit_number":null,"address":"中央区日本橋本町4丁目4","place":"KRD Nihombashi (KRD日本橋)","lat":35.69,"lon":139.773,"state":"active","id":null},{"event_id":"642692","title":"＜5/22(水)・5/30(木)＞マインドフルネスヨガでココロとカラダをコンディショニング(運動量：中)【駅チカ/未経験歓迎/少人数】","url":"http://peatix.com/event/642692","shortener_url":null,"started_at":"2019-05-22T18:30:00.000+09:00","ended_at":"2019-05-25T08:59:59.000+09:00","limit_number":null,"address":"中央区日本橋本町4丁目4","place":"KRD Nihombashi (KRD日本橋)","lat":35.69,"lon":139.773,"state":"active","id":null},{"event_id":"90759","title":"【初心者大歓迎！】obnizハンズオンワークショップ　〜SWY 10 IoTプレイベントVol.2〜","url":"https://swyokohama.doorkeeper.jp/events/90759","shortener_url":null,"started_at":"2019-05-11T13:00:00.000+09:00","ended_at":"2019-05-11T18:00:00.000+09:00","limit_number":30,"address":"〒221-0835 横浜市神奈川区鶴屋町2-17","place":"学校法人岩崎学園情報科学専門学校 6F 608教室","lat":null,"lon":null,"state":"active","id":null},{"event_id":"648574","title":"NHKディレクソン in 岡山 ～参加者全員がTVディレクター！？「全国に発信！テレビの力で岡山を元気にしよう」","url":"http://nhkdirecthon21.peatix.com","shortener_url":"https://bit.ly/2XGx56p","started_at":"2019-05-18T10:00:00.000+09:00","ended_at":"2019-05-21T08:59:59.000+09:00","limit_number":null,"address":"岡山県岡山市北区駅元町14-1","place":"岡山コンベンションセンター　１Fイベントホール","lat":34.6666,"lon":133.915,"state":"active","id":null},{"event_id":"644971","title":"著者と語る朝渋『セカンドID―「本当の自分」に出会う、これからの時代の生き方』著者・小橋賢児さん","url":"http://peatix.com/event/644971","shortener_url":null,"started_at":"2019-05-30T07:30:00.000+09:00","ended_at":"2019-06-01T08:59:59.000+09:00","limit_number":null,"address":"渋谷道玄坂2-10-7 新大宗ビル1号館 2F","place":"Book Lab Tokyo（ブックラボトーキョー）","lat":35.6581,"lon":139.697,"state":"active","id":null},{"event_id":"645116","title":"【5月15日（水）】コーディング無しで 2.5H 爆速プロトタイピングをしよう！Noodl × IoT × 音声認識","url":"http://noodl-hands-on190515.peatix.com","shortener_url":null,"started_at":"2019-05-15T19:30:00.000+09:00","ended_at":"2019-05-18T08:59:59.000+09:00","limit_number":null,"address":"東京都豊島区南池袋1丁目19-12 山の手ビル東館6F","place":"いいオフィス池袋","lat":35.7278,"lon":139.713,"state":"active","id":null},{"event_id":"645064","title":"【5月10日（金）】コーディング無しで 2.5H 爆速プロトタイピングをしよう！Noodl × IoT × 音声認識","url":"http://noodl-hands-on190510.peatix.com","shortener_url":null,"started_at":"2019-05-10T19:30:00.000+09:00","ended_at":"2019-05-13T08:59:59.000+09:00","limit_number":null,"address":"東京都豊島区南池袋1丁目19-12 山の手ビル東館6F","place":"いいオフィス池袋","lat":35.7278,"lon":139.713,"state":"active","id":null},{"event_id":"648114","title":"当事者talk「発達障害グレーゾーンの当事者が今伝えたいこと」by高橋 哲雄","url":"http://peatix.com/event/648114","shortener_url":null,"started_at":"2019-05-18T18:30:00.000+09:00","ended_at":"2019-05-21T08:59:59.000+09:00","limit_number":null,"address":"大阪市中央区本町4丁目7−7 302号室 飛鳥ビル","place":"kiiiya","lat":34.6849,"lon":135.498,"state":"active","id":null},{"event_id":"647274","title":"#ソトノバヨガ02「ソトでヨガしよう♪」","url":"http://sotonobayoga02.peatix.com","shortener_url":null,"started_at":"2019-05-25T10:00:00.000+09:00","ended_at":"2019-05-28T08:59:59.000+09:00","limit_number":null,"address":"東京都世田谷区北沢2-31-2","place":"しもき＊た＊まり〜ば","lat":35.6626,"lon":139.668,"state":"active","id":null},{"event_id":"648411","title":"【edoARTworkshop】和の心を結ぶ 水引体験～みょうが結びのアクセサリー＜ご経験者クラス＞","url":"http://edoart218.peatix.com","shortener_url":null,"started_at":"2019-05-25T14:15:00.000+09:00","ended_at":"2019-05-28T08:59:59.000+09:00","limit_number":null,"address":"〒108-0014 東京都港区芝4丁目7ー6","place":"芝ビルディング 704号室","lat":35.6491,"lon":139.752,"state":"active","id":null},{"event_id":"648942","title":"May Free Coworking Day @ WORQ TTDI","url":"http://mayfreecoworkingdayworqttdi.peatix.com","shortener_url":null,"started_at":"2019-05-02T10:00:00.000+09:00","ended_at":"2019-05-05T08:59:59.000+09:00","limit_number":null,"address":"3A-01A, Glo Damansara Shopping Mall, 699, Jalan Damansara, Taman Tun Dr Ismail, Kuala Lumpur","place":"WORQ TTDI","lat":3.13224,"lon":101.63,"state":"active","id":null},{"event_id":"648758","title":"May Free Coworking Day @ WORQ Subang","url":"http://mayfreecoworkingdayworqsubang.peatix.com","shortener_url":null,"started_at":"2019-05-02T10:00:00.000+09:00","ended_at":"2019-05-05T08:59:59.000+09:00","limit_number":null,"address":"Unit 2-1, Level 2, The Podium, Tower 3, UOA Business Park No, 1, Jalan Pengaturcara U1/51a, Seksyen U1, Shah Alam","place":"WORQ Subang","lat":3.08599,"lon":101.587,"state":"active","id":null},{"event_id":"127352","title":"NTT Com  Student LT","url":"https://nttcomlt.connpass.com/event/127352/","shortener_url":null,"started_at":"2019-05-28T17:30:00.000+09:00","ended_at":"2019-05-28T19:30:00.000+09:00","limit_number":40,"address":"東京都千代田区大手町2-3-1　(大手町プレイスウエストタワー28F)","place":"大手町プレイスウエストタワー","lat":35.6869,"lon":139.767,"state":"active","id":null},{"event_id":"90921","title":"【5/8（水）・15（水）】初心者向け・２回で学ぶシリーズ①『PythonとJupyterNotebookの基礎』","url":"https://soleildatadojo.doorkeeper.jp/events/90921","shortener_url":null,"started_at":"2019-05-08T19:30:00.000+09:00","ended_at":"2019-05-15T21:30:00.000+09:00","limit_number":6,"address":"大阪府大阪市北区西天満二丁目5番3号(堂島深川ビル3階)","place":"SCRIBBLE OSAKA LAB（SOL）（大阪メトロ御堂筋線「淀屋橋」駅から徒歩４分）","lat":null,"lon":null,"state":"active","id":null},{"event_id":"90923","title":"【5/22（水）・5/29（水）】初心者向け・２回で学ぶシリーズ②『Pandasによるデータ前処理と可視化の基礎』","url":"https://soleildatadojo.doorkeeper.jp/events/90923","shortener_url":null,"started_at":"2019-05-22T19:30:00.000+09:00","ended_at":"2019-05-29T21:30:00.000+09:00","limit_number":6,"address":"大阪府大阪市北区西天満二丁目5番3号(堂島深川ビル3階)","place":"SCRIBBLE OSAKA LAB（SOL）（大阪メトロ御堂筋線「淀屋橋」駅から徒歩４分）","lat":null,"lon":null,"state":"active","id":null},{"event_id":"90924","title":"『Python, Machine Learning \u0026 Raspberry PI』もくもく会#21","url":"https://soleildatadojo.doorkeeper.jp/events/90924","shortener_url":null,"started_at":"2019-05-09T19:30:00.000+09:00","ended_at":"2019-05-09T21:30:00.000+09:00","limit_number":8,"address":"大阪府大阪市北区西天満二丁目5番3号(堂島深川ビル3階)","place":"SCRIBBLE OSAKA LAB（SOL）（大阪メトロ御堂筋線「淀屋橋」駅から徒歩４分）","lat":null,"lon":null,"state":"active","id":null},{"event_id":"90925","title":"『Python, Machine Learning \u0026 Raspberry PI』もくもく会#23","url":"https://soleildatadojo.doorkeeper.jp/events/90925","shortener_url":null,"started_at":"2019-05-23T19:30:00.000+09:00","ended_at":"2019-05-23T21:30:00.000+09:00","limit_number":8,"address":"大阪府大阪市北区西天満二丁目5番3号(堂島深川ビル3階)","place":"SCRIBBLE OSAKA LAB（SOL）（大阪メトロ御堂筋線「淀屋橋」駅から徒歩４分）","lat":null,"lon":null,"state":"active","id":null},{"event_id":"90926","title":"【5/28（火）】Pythonで学ぶ機械学習入門①～マーケットバスケット分析","url":"https://soleildatadojo.doorkeeper.jp/events/90926","shortener_url":null,"started_at":"2019-05-28T19:00:00.000+09:00","ended_at":"2019-05-28T21:30:00.000+09:00","limit_number":8,"address":"大阪府大阪市北区西天満二丁目5番3号(堂島深川ビル3階)","place":"SCRIBBLE OSAKA LAB（SOL）（大阪メトロ御堂筋線「淀屋橋」駅から徒歩４分）","lat":null,"lon":null,"state":"active","id":null},{"event_id":"90927","title":"【5/10（金）】Pythonで学ぶ機械学習入門②～協調フィルタリング","url":"https://soleildatadojo.doorkeeper.jp/events/90927","shortener_url":null,"started_at":"2019-05-10T19:00:00.000+09:00","ended_at":"2019-05-10T21:30:00.000+09:00","limit_number":8,"address":"大阪府大阪市北区西天満二丁目5番3号(堂島深川ビル3階)","place":"SCRIBBLE OSAKA LAB（SOL）（大阪メトロ御堂筋線「淀屋橋」駅から徒歩４分）","lat":null,"lon":null,"state":"active","id":null},{"event_id":"650314","title":"Designit Tokyo Open Studio \u0026 Portfolio Review","url":"http://designitopenstudio.peatix.com","shortener_url":null,"started_at":"2019-05-12T10:00:00.000+09:00","ended_at":"2019-05-15T08:59:59.000+09:00","limit_number":null,"address":"日本橋小網町11-8, ザ・パークレックス小網町ビル F7 \u0026 F8, 11, Chuo City","place":"Designit","lat":35.6826,"lon":139.781,"state":"active","id":null},{"event_id":"643248","title":"【アフリカの最新スタートアップリアル IN ルワンダ】報告会イベント","url":"http://0511event.peatix.com","shortener_url":null,"started_at":"2019-05-11T13:00:00.000+09:00","ended_at":"2019-05-14T08:59:59.000+09:00","limit_number":null,"address":"1 番 5 号, 1 鶴野町, 北区 大阪市","place":"スタートアップカフェ大阪","lat":34.7064,"lon":135.501,"state":"active","id":null},{"event_id":"650984","title":"マーノクレアール　　irodo実演イベントのお知らせ　in北千住マルイ店","url":"http://peatix.com/event/650984","shortener_url":null,"started_at":"2019-05-06T11:00:00.000+09:00","ended_at":"2019-05-09T08:59:59.000+09:00","limit_number":null,"address":"足立区千住3丁目92","place":"北千住マルイ","lat":35.7508,"lon":139.805,"state":"active","id":null},{"event_id":"650620","title":"東急ハンズ銀座店 アイロンがいらない布用シールを使ったワークショップのお知らせ","url":"http://peatix.com/event/650620","shortener_url":null,"started_at":"2019-05-01T12:00:00.000+09:00","ended_at":"2019-05-04T08:59:59.000+09:00","limit_number":null,"address":"中央区銀座2丁目2−14 5~9F マロニエゲート銀座1","place":"東急ハンズ 銀座店","lat":35.6743,"lon":139.765,"state":"active","id":null},{"event_id":"650980","title":"マーノクレアール　　irodo実演イベントのお知らせ　in京王アートマン 聖蹟桜ヶ丘店","url":"http://peatix.com/event/650980","shortener_url":null,"started_at":"2019-05-05T11:00:00.000+09:00","ended_at":"2019-05-08T08:59:59.000+09:00","limit_number":null,"address":"多摩市関戸1丁目11−1 京王聖蹟桜ヶ丘SC A館 3・4・5F","place":"京王アートマン 聖蹟桜ケ丘店","lat":35.6506,"lon":139.447,"state":"active","id":null},{"event_id":"650983","title":"マーノクレアール　　irodo実演イベントのお知らせ　inGRAND TREE 武蔵小杉店","url":"http://peatix.com/event/650983","shortener_url":null,"started_at":"2019-05-05T11:00:00.000+09:00","ended_at":"2019-05-08T08:59:59.000+09:00","limit_number":null,"address":"川崎市中原区新丸子東3丁目1135−1","place":"グランツリー武蔵小杉","lat":35.5737,"lon":139.66,"state":"active","id":null},{"event_id":"650988","title":"マーノクレアール　　irodo実演イベントのお知らせ　in相模大野ステーションスクエア店","url":"http://peatix.com/event/650988","shortener_url":null,"started_at":"2019-05-12T11:00:00.000+09:00","ended_at":"2019-05-15T08:59:59.000+09:00","limit_number":null,"address":"相模原市南区相模大野3丁目8−1","place":"相模大野ステーションスクエア","lat":35.5319,"lon":139.438,"state":"active","id":null},{"event_id":"649877","title":"子どもが世界で羽ばたくことを願うあなたへお届けする「きれいごとぬき！本物の生き抜く力とは？！」　子育てが激変する1dayワークショップ","url":"http://peatix.com/event/649877","shortener_url":null,"started_at":"2019-05-11T13:00:00.000+09:00","ended_at":"2019-05-14T08:59:59.000+09:00","limit_number":null,"address":"東京都港区赤坂4-2-3","place":"オフィスパーク 赤坂コークス","lat":35.6759,"lon":139.736,"state":"active","id":null},{"event_id":"649896","title":"子どもが世界で羽ばたくことを願うあなたへお届けする「きれいごとぬき！本物の生き抜く力とは？！」　子育てが激変する1dayワークショップ","url":"http://kotobanotobira-0518.peatix.com","shortener_url":null,"started_at":"2019-05-18T14:00:00.000+09:00","ended_at":"2019-05-21T08:59:59.000+09:00","limit_number":null,"address":"東京都港区赤坂4-2-3","place":"オフィスパーク 赤坂コークス","lat":35.6759,"lon":139.736,"state":"active","id":null},{"event_id":"643505","title":"【満員御礼】ジェンダー・フェミニズムについて話せるリアルな友達を作るor増やす交流会 #01","url":"http://femifriendnet01.peatix.com","shortener_url":null,"started_at":"2019-05-11T13:30:00.000+09:00","ended_at":"2019-05-14T08:59:59.000+09:00","limit_number":null,"address":"東京都中央区日本橋茅場町一丁目","place":"茅場町駅近くのパーティースペース（参加者のみお伝えします）","lat":0.0,"lon":0.0,"state":"active","id":null},{"event_id":"649436","title":"Turned up Thursdays!","url":"http://peatix.com/event/649436","shortener_url":null,"started_at":"2019-05-02T20:00:00.000+09:00","ended_at":"2019-05-05T08:59:59.000+09:00","limit_number":null,"address":"80 Raffles Place, Singapore","place":"The Fat Pigeon Statue","lat":1.28568,"lon":103.851,"state":"active","id":null},{"event_id":"650197","title":"Microsoft Power BI 実践ハンズオン 入門編（2019年5月）","url":"http://powerbi201905.peatix.com","shortener_url":null,"started_at":"2019-05-24T14:00:00.000+09:00","ended_at":"2019-05-27T08:59:59.000+09:00","limit_number":null,"address":"東京都中央区銀座3丁目9 銀座3-9-4 銀座草野ビルディング 4F","place":"マイスペース 銀座マロニエ通り店","lat":35.6718,"lon":139.768,"state":"active","id":null},{"event_id":"650205","title":"Microsoft Power BI 実践ハンズオン応用編【DAX関数と分析データモデリング】(2019年5月）","url":"http://powerbi201905advance.peatix.com","shortener_url":null,"started_at":"2019-05-30T14:00:00.000+09:00","ended_at":"2019-06-02T08:59:59.000+09:00","limit_number":null,"address":"東京都中央区銀座3丁目9 銀座3-9-4 銀座草野ビルディング 4F","place":"マイスペース 銀座マロニエ通り店","lat":35.6718,"lon":139.768,"state":"active","id":null},{"event_id":"129354","title":"UX JAM in KITAKYUSHU 02","url":"https://uxmilk.connpass.com/event/129354/","shortener_url":null,"started_at":"2019-05-13T19:30:00.000+09:00","ended_at":"2019-05-13T22:00:00.000+09:00","limit_number":40,"address":"〒802-0001　北九州市小倉北区浅野3丁目8番1号 AIM（アジア太平洋インポートマート）ビル6階","place":"COMPASS小倉","lat":33.8895,"lon":130.886,"state":"active","id":null},{"event_id":"90204","title":"[ Workstyle アフターイベント ] Lightning Talk \u0026 World Cafe","url":"https://swtokyo.doorkeeper.jp/events/90204","shortener_url":null,"started_at":"2019-05-19T10:00:00.000+09:00","ended_at":"2019-05-19T12:00:00.000+09:00","limit_number":40,"address":"〒150-0002 東京都渋谷区渋谷3-27-1","place":"100BANCH","lat":null,"lon":null,"state":"active","id":null},{"event_id":"90981","title":"『Python, Machine Learning \u0026 Raspberry PI』もくもく会#22","url":"https://soleildatadojo.doorkeeper.jp/events/90981","shortener_url":null,"started_at":"2019-05-16T19:30:00.000+09:00","ended_at":"2019-05-16T21:30:00.000+09:00","limit_number":8,"address":"大阪府大阪市北区西天満二丁目5番3号(堂島深川ビル3階)","place":"SCRIBBLE OSAKA LAB（SOL）（大阪メトロ御堂筋線「淀屋橋」駅から徒歩４分）","lat":null,"lon":null,"state":"active","id":null},{"event_id":"90982","title":"『Python, Machine Learning \u0026 Raspberry PI』もくもく会#24","url":"https://soleildatadojo.doorkeeper.jp/events/90982","shortener_url":null,"started_at":"2019-05-27T19:30:00.000+09:00","ended_at":"2019-05-27T21:30:00.000+09:00","limit_number":8,"address":"大阪府大阪市北区西天満二丁目5番3号(堂島深川ビル3階)","place":"SCRIBBLE OSAKA LAB（SOL）（大阪メトロ御堂筋線「淀屋橋」駅から徒歩４分）","lat":null,"lon":null,"state":"active","id":null},{"event_id":"651191","title":"弁護士のための会社法人の利用による税・健康保険料の節減セミナー@福岡・天神","url":"http://peatix.com/event/651191","shortener_url":null,"started_at":"2019-05-29T19:00:00.000+09:00","ended_at":"2019-06-01T08:59:59.000+09:00","limit_number":null,"address":"福岡市中央区天神2丁目12−1","place":"天神ビル","lat":33.5917,"lon":130.398,"state":"active","id":null},{"event_id":"638332","title":"TEK東海イービジネス研究会2019年5月定例会：アイル（CROSSMALL）のバックヤード改善vol.2 「これからどうなる？EC物流問題を徹底解決！」","url":"http://tek0523.peatix.com","shortener_url":null,"started_at":"2019-05-23T16:00:00.000+09:00","ended_at":"2019-05-26T08:59:59.000+09:00","limit_number":null,"address":"愛知県名古屋市西区名駅2-27-8","place":"プライムセントラルタワー名古屋駅前　第14会議室（13階）","lat":35.176,"lon":136.886,"state":"active","id":null},{"event_id":"650269","title":"IPA「AI白書2019」全員参加型徹底解剖勉強会（アクティブ・ブック・ダイアログ）","url":"http://peatix.com/event/650269","shortener_url":null,"started_at":"2019-05-16T19:30:00.000+09:00","ended_at":"2019-05-19T08:59:59.000+09:00","limit_number":null,"address":"港区南青山2丁目22−2 南青山篠崎ビル2F","place":"株式会社コパイロツト","lat":35.6707,"lon":139.72,"state":"active","id":null},{"event_id":"651517","title":"Beautify your PowerPoint with Infographics Course (SkillsFuture Eligible)","url":"http://professional-powerpoint-design-course.peatix.com","shortener_url":null,"started_at":"2019-05-06T11:00:00.000+09:00","ended_at":"2019-05-09T08:59:59.000+09:00","limit_number":null,"address":"6 Raffles Quay","place":"6 Raffles Quay, #15-00","lat":1.28179,"lon":103.851,"state":"active","id":null},{"event_id":"129485","title":"第15回 PCNひろしま こども向けプログラミング教室","url":"https://pcn-hiroshima.connpass.com/event/129485/","shortener_url":null,"started_at":"2019-05-26T10:00:00.000+09:00","ended_at":"2019-05-26T12:00:00.000+09:00","limit_number":14,"address":"広島県広島市南区京橋町1−7(広島京橋ビルディング)","place":"fabbit広島駅前","lat":34.3946,"lon":132.473,"state":"active","id":null},{"event_id":"129463","title":"【京都開催】初心者歓迎！プログラミングを体験しよう！","url":"https://supporterz-seminar.connpass.com/event/129463/","shortener_url":null,"started_at":"2019-05-25T19:00:00.000+09:00","ended_at":"2019-05-25T21:00:00.000+09:00","limit_number":30,"address":"京都府京都市下京区立売東町１　京都フコク生命四条柳馬場ビル2F","place":"サポーターズ京都","lat":35.004,"lon":135.764,"state":"active","id":null},{"event_id":"128956","title":"【増枠】Mix Leap LT #17 - LT会「GWの思い出」","url":"https://yahoo-osaka.connpass.com/event/128956/","shortener_url":null,"started_at":"2019-05-14T19:00:00.000+09:00","ended_at":"2019-05-14T21:30:00.000+09:00","limit_number":50,"address":"〒530-0018 大阪府大阪市北区小松原町２−４","place":"ヤフー大阪 富国生命オフィス 26F オープンコラボスペース\"Kokage\"","lat":34.7023,"lon":135.5,"state":"active","id":null},{"event_id":"652976","title":"君が即戦力に変わる夜~内定がゴールになっていないか~","url":"http://peatix.com/event/652976","shortener_url":null,"started_at":"2019-05-28T19:00:00.000+09:00","ended_at":"2019-05-31T08:59:59.000+09:00","limit_number":null,"address":"103-0001東京都中央区日本橋小伝馬町5-15 大倉ビル5階","place":"株式会社POL","lat":35.6911,"lon":139.778,"state":"active","id":null},{"event_id":"651595","title":"The Egg - live in concert","url":"http://theeggsingapore.peatix.com","shortener_url":null,"started_at":"2019-05-03T22:00:00.000+09:00","ended_at":"2019-05-06T08:59:59.000+09:00","limit_number":null,"address":"44 Kallang Pl, Singapore 339172","place":"The LAB","lat":0.0,"lon":0.0,"state":"active","id":null},{"event_id":"653967","title":"参加無料！【SmartHR、ニューズピックス、コニカミノルタ、セガ・インタラクティブ登壇！】エンジニアが採用領域で活躍する企業が語る。 “採用の裏側”大公開！","url":"http://agilehrday09.peatix.com","shortener_url":null,"started_at":"2019-05-15T18:30:00.000+09:00","ended_at":"2019-05-18T08:59:59.000+09:00","limit_number":null,"address":"港区六本木4丁目1−4","place":"Speee","lat":35.6655,"lon":139.736,"state":"active","id":null},{"event_id":"653116","title":"Public Holiday Comedy Show ft. JINX YEO (SIN) | Wed 01 May","url":"http://jinxyeomaydayshow.peatix.com","shortener_url":null,"started_at":"2019-05-01T21:00:00.000+09:00","ended_at":"2019-05-04T08:59:59.000+09:00","limit_number":null,"address":"69 Circular Road, Boat Quay, Singapore 049423","place":"HERO'S, 69 Circular Road, Singapore 049423","lat":1.28641,"lon":103.849,"state":"active","id":null},{"event_id":"651472","title":"MALIKA  お茶会　〜現象学レッスン説明会〜","url":"http://malika-genshogaku.peatix.com","shortener_url":null,"started_at":"2019-05-03T18:00:00.000+09:00","ended_at":"2019-05-06T08:59:59.000+09:00","limit_number":null,"address":"東京都南青山","place":"南青山　プレイベードサロン","lat":0.0,"lon":0.0,"state":"active","id":null},{"event_id":"652144","title":"白猫プロジェクト好きのオフ会 in 徳島","url":"http://peatix.com/event/652144","shortener_url":null,"started_at":"2019-05-04T16:00:00.000+09:00","ended_at":"2019-05-07T08:59:59.000+09:00","limit_number":null,"address":"徳島県徳島市末広2丁目1-121","place":"白猫オフ会会場(徳島イオン近く)","lat":34.0648,"lon":134.574,"state":"active","id":null},{"event_id":"653808","title":"album 『Wonderful Music!』 発売記念　かもめ児童合唱団 「クアトロへ、行くっ！」","url":"http://kamome-miura.peatix.com","shortener_url":null,"started_at":"2019-05-26T16:30:00.000+09:00","ended_at":"2019-05-29T08:59:59.000+09:00","limit_number":null,"address":"渋谷区宇田川町32−13 4・5F","place":"渋谷 CLUB QUATTRO","lat":35.6611,"lon":139.698,"state":"active","id":null},{"event_id":"648446","title":"【edoARTworkshop】和の心を結ぶ 水引体験～連続あわじ結びのピアス・イヤリング作り＜初めて＆復習クラス＞","url":"http://edoart221.peatix.com","shortener_url":null,"started_at":"2019-05-25T12:15:00.000+09:00","ended_at":"2019-05-28T08:59:59.000+09:00","limit_number":null,"address":"〒108-0014 東京都港区芝4丁目7ー6","place":"芝ビルディング 704号室","lat":35.6491,"lon":139.752,"state":"active","id":null},{"event_id":"129514","title":"TokyoUppersBoost Rookie’s Hackathon","url":"https://mht-code.connpass.com/event/129514/","shortener_url":"https://bit.ly/2XON7en","started_at":"2019-05-01T10:00:00.000+09:00","ended_at":"2019-05-02T20:00:00.000+09:00","limit_number":18,"address":"東京都台東区台東1-11-4","place":"T-space","lat":35.7012,"lon":139.776,"state":"active","id":null},{"event_id":"129301","title":"AITCシニア技術者勉強会「一からはじめるIoT ４周目」第4回 Raspberry Pi応用編","url":"https://aitc-senior.connpass.com/event/129301/","shortener_url":null,"started_at":"2019-05-11T14:00:00.000+09:00","ended_at":"2019-05-11T18:00:00.000+09:00","limit_number":27,"address":"東京都渋谷区代々木1-22-1　代々木1丁目ビル","place":"ジャパンシステム株式会社　本社 セミナールーム","lat":35.6811,"lon":139.702,"state":"active","id":null},{"event_id":"129124","title":"【デジットハッカソン2019 Special Day】LINE Thingsハンズオン","url":"https://code4osaka.connpass.com/event/129124/","shortener_url":"https://bit.ly/2GNrtl7","started_at":"2019-05-22T18:30:00.000+09:00","ended_at":"2019-05-22T21:30:00.000+09:00","limit_number":35,"address":"〒530-8350 大阪府大阪市北区角田町８−番1号（梅田阪急ビル オフィスタワー35階 ）","place":"サイボウズ大阪オフィス","lat":34.7028,"lon":135.499,"state":"active","id":null},{"event_id":"91044","title":"IETF 報告会(104th プラハ)","url":"https://isocjp.doorkeeper.jp/events/91044","shortener_url":null,"started_at":"2019-05-17T13:30:00.000+09:00","ended_at":"2019-05-17T18:00:00.000+09:00","limit_number":null,"address":"〒101-0045 東京都千代田区神田鍛冶町3-2-2","place":"エッサム神田ホール1号館 (401会議室)","lat":null,"lon":null,"state":"active","id":null},{"event_id":"105637","title":"うえすとさいど coffee Vol.1－ONE DAY JAM PARK","url":"https://atnd.org/events/105637","shortener_url":null,"started_at":"2019-05-25T10:00:00.000+09:00","ended_at":"2019-05-26T17:00:00.000+09:00","limit_number":null,"address":"東京都八王子市南大沢2-26","place":"南大沢中郷公園","lat":35.6126,"lon":139.381,"state":"closed","id":null},{"event_id":"653209","title":"Local Connect Camp in Aburatsu #1","url":"http://lococamp1.peatix.com","shortener_url":null,"started_at":"2019-05-25T13:00:00.000+09:00","ended_at":"2019-05-28T08:59:59.000+09:00","limit_number":null,"address":"日南市岩崎3丁目10−6","place":"油津商店街","lat":31.5875,"lon":131.399,"state":"active","id":null},{"event_id":"653632","title":"設立丸4年で東証マザーズに一発上場できた \"「人材」の育て方\" と \"「組織」の考え方\"","url":"http://peatix.com/event/653632","shortener_url":null,"started_at":"2019-05-21T16:20:00.000+09:00","ended_at":"2019-05-24T08:59:59.000+09:00","limit_number":null,"address":"東京都港区南青山3-4-6","place":"株式会社JAM　オフィス","lat":35.6673,"lon":139.717,"state":"active","id":null},{"event_id":"129779","title":"sisisinハウス合宿 5/2（木）","url":"https://sisisin.connpass.com/event/129779/","shortener_url":null,"started_at":"2019-05-02T10:00:00.000+09:00","ended_at":"2019-05-02T18:00:00.000+09:00","limit_number":6,"address":"twitterなどで聞いてください","place":"sisisinハウス","lat":null,"lon":null,"state":"active","id":null},{"event_id":"653982","title":"「１８時間で新規事業案を作れ。」ブロックチェーン ビジネス ハッカソン #3【バイナリースター】","url":"http://peatix.com/event/653982","shortener_url":"https://bit.ly/2GO68b7","started_at":"2019-05-25T09:30:00.000+09:00","ended_at":"2019-05-28T08:59:59.000+09:00","limit_number":null,"address":"〒104-0061東京都中央区銀座1丁目8-19 11階","place":"BINARYSTAR 株式会社","lat":35.6743,"lon":139.769,"state":"active","id":null},{"event_id":"648632","title":"WORKOUT YOGA 19.05.16（木）19:30~20:30","url":"http://workoutyoga190516.peatix.com","shortener_url":null,"started_at":"2019-05-16T19:30:00.000+09:00","ended_at":"2019-05-19T08:59:59.000+09:00","limit_number":null,"address":"渋谷区猿楽町3−7 代官山 木下 ビル 2F","place":"FLUX CONDITIONINGS","lat":35.6524,"lon":139.704,"state":"active","id":null},{"event_id":"654146","title":"[不動産事業者必見] 民泊新法を活用した最適なエリアや建物と IT活用","url":"http://peatix.com/event/654146","shortener_url":null,"started_at":"2019-05-10T19:00:00.000+09:00","ended_at":"2019-05-13T08:59:59.000+09:00","limit_number":null,"address":"渋谷区渋谷3丁目9−10 渋谷アサヒビル5階","place":"Inc-line","lat":35.6572,"lon":139.704,"state":"active","id":null},{"event_id":"127816","title":"5月Aidemy Ideathon! -AIで〇〇やってみる？- （開発職編）","url":"https://aidemy.connpass.com/event/127816/","shortener_url":"https://bit.ly/2GSRrDS","started_at":"2019-05-23T18:45:00.000+09:00","ended_at":"2019-05-23T21:00:00.000+09:00","limit_number":null,"address":"〒100-0005 東京都千代田区丸の内２丁目５−１(丸の内2丁目ビル4階）","place":"point0 marunouchi","lat":35.68,"lon":139.763,"state":"active","id":null},{"event_id":"129861","title":"Kamakura Mok Mok Hack 41","url":"https://kamkura-mokmok.connpass.com/event/129861/","shortener_url":null,"started_at":"2019-05-04T11:00:00.000+09:00","ended_at":"2019-05-04T13:00:00.000+09:00","limit_number":7,"address":"神奈川県 鎌倉市由比ガ浜1丁目12-8","place":"HOUSE YUIGAHAMA","lat":35.3202,"lon":139.55,"state":"active","id":null},{"event_id":"129898","title":"5月5日【初心者向け】LoomのSDKを活用しDappsを作成する","url":"https://connpass.com/event/129898/","shortener_url":null,"started_at":"2019-05-05T14:00:00.000+09:00","ended_at":"2019-05-05T17:15:00.000+09:00","limit_number":22,"address":"東京都港区南青山５−１−２２ 青山ライズスクエア","place":"ピアーズ カフェ 南青山店 （PIER'S CAFE）","lat":35.6642,"lon":139.712,"state":"active","id":null},{"event_id":"655998","title":"BARISTA CAMP","url":"http://baristacamp.peatix.com","shortener_url":null,"started_at":"2019-05-01T17:00:00.000+09:00","ended_at":"2019-05-04T08:59:59.000+09:00","limit_number":null,"address":"世田谷区代田2丁目29−12","place":"ライトアップコーヒー 下北沢","lat":35.6581,"lon":139.663,"state":"active","id":null},{"event_id":"129953","title":"子どものためのプログラミングクラブ コーダー道場北杜 #2","url":"https://coderdojo-hokuto.connpass.com/event/129953/","shortener_url":null,"started_at":"2019-05-26T09:30:00.000+09:00","ended_at":"2019-05-26T11:40:00.000+09:00","limit_number":8,"address":"山梨県北杜市高根町村山北割３２８８","place":"北杜市高根町農村環境改善センター","lat":35.8375,"lon":138.412,"state":"active","id":null},{"event_id":"655081","title":"笑って学ぶ！問いを創る？SDGs：ワークショップシリーズ『問いストーリー』④","url":"http://peatix.com/event/655081","shortener_url":null,"started_at":"2019-05-24T18:15:00.000+09:00","ended_at":"2019-05-27T08:59:59.000+09:00","limit_number":null,"address":"千代田区 霞が関一丁目4番1号 日土地ビル2F","place":"SENQ（センク）霞が関","lat":35.6709,"lon":139.75,"state":"active","id":null},{"event_id":"656859","title":"Flower Power! (flower making workshop for Mother's Day!)","url":"http://flowerpowermay19.peatix.com","shortener_url":null,"started_at":"2019-05-02T15:00:00.000+09:00","ended_at":"2019-05-05T08:59:59.000+09:00","limit_number":null,"address":"18 Sin Ming Lane, #08-40","place":"In Merry Motion Studio","lat":1.35827,"lon":103.834,"state":"active","id":null},{"event_id":"657673","title":"【説明会5/18】働きながら起業家/社内起業家の一歩を踏み出す Innovation Leaders Program 第5期","url":"http://ilp20190518.peatix.com","shortener_url":null,"started_at":"2019-05-18T13:00:00.000+09:00","ended_at":"2019-05-21T08:59:59.000+09:00","limit_number":null,"address":"東京都中央区日本橋本町1-4-3 日本橋ムロホンビル1","place":"Beyond Next Venturesオフィス 5F","lat":35.6862,"lon":139.776,"state":"active","id":null},{"event_id":"644638","title":"【IT関係者限定】組織でマーケティングを身につける！ゲーミフィケーション研修ツール『Marketing Town』体験会","url":"http://peatix.com/event/644638","shortener_url":null,"started_at":"2019-05-27T17:00:00.000+09:00","ended_at":"2019-05-30T08:59:59.000+09:00","limit_number":null,"address":"渋谷区道玄坂1丁目16−3 渋谷センタープレイス2F","place":"ログリー株式会社","lat":35.6568,"lon":139.698,"state":"active","id":null},{"event_id":"658142","title":"【説明会5/29】働きながら起業家/社内起業家の一歩を踏み出す Innovation Leaders Program 第5期","url":"http://ilp20190529.peatix.com","shortener_url":null,"started_at":"2019-05-29T19:00:00.000+09:00","ended_at":"2019-06-01T08:59:59.000+09:00","limit_number":null,"address":"東京都中央区日本橋本町2-3-11","place":"日本橋ライフサイエンスビル B1階 会議室","lat":35.6877,"lon":139.776,"state":"active","id":null},{"event_id":"654870","title":"Chateau de Sable Flash Sale - Up to 75% Off: Between $4 \u0026 $30","url":"http://chateaudesable.peatix.com","shortener_url":null,"started_at":"2019-05-01T13:00:00.000+09:00","ended_at":"2019-05-04T08:59:59.000+09:00","limit_number":null,"address":"137 Cecil Street","place":"OnTheList Singapore","lat":1.27985,"lon":103.849,"state":"active","id":null},{"event_id":"129272","title":"【増席】AI勉強会～Actionable AI～ vol.1","url":"https://aai.connpass.com/event/129272/","shortener_url":null,"started_at":"2019-05-30T19:00:00.000+09:00","ended_at":"2019-05-30T22:00:00.000+09:00","limit_number":152,"address":"〒108-0075 東京都港区港南1-8-23 Shinagawa HEART 5F","place":"MACNICA 品川オフィス","lat":35.6296,"lon":139.745,"state":"active","id":null},{"event_id":"659378","title":"Google I/O LIVE Viewing Party","url":"http://io19partykl.peatix.com","shortener_url":null,"started_at":"2019-05-08T00:00:00.000+09:00","ended_at":"2019-05-10T08:59:59.000+09:00","limit_number":null,"address":"Bandar Sunway, Petaling Jaya","place":"Makerspace @ Sunway University","lat":3.06699,"lon":101.604,"state":"active","id":null},{"event_id":"655867","title":"【5/16（木）18:30〜＠東京】地方創生推進協議会 (R3) １周年記念会 （地方の銘酒＆特産品もご用意しております！）","url":"http://r3-201905anniversary.peatix.com","shortener_url":null,"started_at":"2019-05-16T18:30:00.000+09:00","ended_at":"2019-05-19T08:59:59.000+09:00","limit_number":null,"address":"千代田区平河町2丁目5−3","place":"Nagatacho GRiD","lat":35.6798,"lon":139.74,"state":"active","id":null},{"event_id":"656137","title":"Notch Study Night vol.003","url":"http://nsn003.peatix.com","shortener_url":null,"started_at":"2019-05-07T18:00:00.000+09:00","ended_at":"2019-05-10T08:59:59.000+09:00","limit_number":null,"address":"渋谷区道玄坂1丁目22−7 道玄坂ピア 1F","place":"FabCafe Tokyo","lat":35.6561,"lon":139.695,"state":"active","id":null},{"event_id":"649798","title":"WomenWill in collaboration with GBG Johor Bahru: Multi-tasking as a Female Leader","url":"http://womenwillofmay.peatix.com","shortener_url":null,"started_at":"2019-05-17T20:00:00.000+09:00","ended_at":"2019-05-20T08:59:59.000+09:00","limit_number":null,"address":"Unit 02-02, Lvl 2, Cimb Leadership Academy,, No 3, Jalan Medini Utara 1, Medini Iskandar, Iskandar Puteri","place":"IskandarSpace","lat":1.42636,"lon":103.634,"state":"active","id":null},{"event_id":"130069","title":"sisisinハウス合宿 5/5（日）","url":"https://sisisin.connpass.com/event/130069/","shortener_url":null,"started_at":"2019-05-05T10:00:00.000+09:00","ended_at":"2019-05-05T18:00:00.000+09:00","limit_number":6,"address":"twitterなどで聞いてください","place":"sisisinハウス","lat":null,"lon":null,"state":"active","id":null},{"event_id":"130202","title":"熊ゆに Unityもくもく会　2019/5/19（日）","url":"https://kumauni.connpass.com/event/130202/","shortener_url":null,"started_at":"2019-05-19T13:00:00.000+09:00","ended_at":"2019-05-19T17:00:00.000+09:00","limit_number":10,"address":"熊本県熊本市 中央区下通１丁目１２−２７","place":"未来会議室","lat":32.7998,"lon":130.708,"state":"active","id":null},{"event_id":"130200","title":"子どものためのプログラミングクラブ コーダー道場韮崎 #2","url":"https://coderdojo-nirasaki.connpass.com/event/130200/","shortener_url":null,"started_at":"2019-05-26T13:30:00.000+09:00","ended_at":"2019-05-26T15:40:00.000+09:00","limit_number":13,"address":"山梨県韮崎市若宮一丁目2番50号","place":"韮崎市民交流センター","lat":35.7117,"lon":138.45,"state":"active","id":null},{"event_id":"124230","title":"アクセシビリティの祭典2019","url":"https://connpass.com/event/124230/","shortener_url":null,"started_at":"2019-05-16T13:00:00.000+09:00","ended_at":"2019-05-16T19:30:00.000+09:00","limit_number":300,"address":"〒650-0047 兵庫県神戸市中央区港島南町7丁目1-48","place":"神戸大学 先端融合研究環統合研究拠点コンベンションホール","lat":34.6544,"lon":135.221,"state":"active","id":null},{"event_id":"130268","title":"Kamakura Mok Mok Hack 42","url":"https://kamkura-mokmok.connpass.com/event/130268/","shortener_url":null,"started_at":"2019-05-11T11:00:00.000+09:00","ended_at":"2019-05-11T13:00:00.000+09:00","limit_number":7,"address":"神奈川県 鎌倉市由比ガ浜1丁目12-8","place":"HOUSE YUIGAHAMA","lat":35.3202,"lon":139.55,"state":"active","id":null},{"event_id":"129219","title":"未来を作るテクノロジーとは? Facebook F8参加報告会 「F8 Meetup」","url":"https://facebookdevelopercircle.connpass.com/event/129219/","shortener_url":"https://bit.ly/2LqtUOP","started_at":"2019-05-12T17:00:00.000+09:00","ended_at":"2019-05-12T21:00:00.000+09:00","limit_number":150,"address":"東京都中央区銀座1-8−19","place":"BINARYSTAR","lat":35.6743,"lon":139.769,"state":"active","id":null},{"event_id":"638957","title":"未来を作るテクノロジーとは? Facebook  F8参加報告会 「F8 Meetup」","url":"http://peatix.com/event/638957","shortener_url":"https://bit.ly/2VP9vHa","started_at":"2019-05-12T17:00:00.000+09:00","ended_at":"2019-05-15T08:59:59.000+09:00","limit_number":null,"address":"1丁目8−19 キラリトギンザ11階","place":"BINARYSTAR 株式会社","lat":35.6744,"lon":139.769,"state":"active","id":null},{"event_id":"661186","title":"ロフト札幌店　アイロンがいらない布用シールを使ったワークショップのお知らせ","url":"http://peatix.com/event/661186","shortener_url":null,"started_at":"2019-05-05T12:00:00.000+09:00","ended_at":"2019-05-08T08:59:59.000+09:00","limit_number":null,"address":"札幌市中央区北5条西2丁目 エスタ6階","place":"札幌ロフト","lat":43.0675,"lon":141.353,"state":"active","id":null},{"event_id":"130283","title":"第17回5月ゆるもく会","url":"https://sanuki-gamen.connpass.com/event/130283/","shortener_url":null,"started_at":"2019-05-26T22:00:00.000+09:00","ended_at":"2019-05-27T03:00:00.000+09:00","limit_number":null,"address":"香川県高松市亀井町10番地3","place":"燈屋","lat":34.3393,"lon":134.049,"state":"active","id":null},{"event_id":"659924","title":"Masterclass Series : Brendan Buckley","url":"http://masterclass1.peatix.com","shortener_url":null,"started_at":"2019-05-09T21:00:00.000+09:00","ended_at":"2019-05-12T08:59:59.000+09:00","limit_number":null,"address":"2 Orchard Link, Singapore 237978","place":"SCAPE Music Village #03-09","lat":1.30105,"lon":103.836,"state":"active","id":null},{"event_id":"660124","title":"デジタル×建築×地方創生 ３つの異なる手法で新しい建築プロセスを提示する VUILD という集団とともに新たな住宅市場を考える","url":"http://peatix.com/event/660124","shortener_url":null,"started_at":"2019-05-14T19:00:00.000+09:00","ended_at":"2019-05-17T08:59:59.000+09:00","limit_number":null,"address":"渋谷区渋谷3丁目9−10 渋谷アサヒビル5階","place":"Inc-line","lat":35.6572,"lon":139.704,"state":"active","id":null},{"event_id":"661153","title":"これからの建築家の生き方を考えるシリーズ vol.1 建築と不動産のあいだ　領域を超えて建築のスキルを活かす生き方に学ぶ","url":"http://peatix.com/event/661153","shortener_url":null,"started_at":"2019-05-17T19:00:00.000+09:00","ended_at":"2019-05-20T08:59:59.000+09:00","limit_number":null,"address":"渋谷区渋谷3丁目9−10 渋谷アサヒビル5階","place":"Inc-line","lat":35.6572,"lon":139.704,"state":"active","id":null},{"event_id":"662632","title":"Agile Malaysia x YOW! Nights: Simplicity - The Road Not Taken? with Dave Thomas","url":"http://yownightskl.peatix.com","shortener_url":null,"started_at":"2019-05-27T19:45:00.000+09:00","ended_at":"2019-05-30T08:59:59.000+09:00","limit_number":null,"address":"Level 20, Menara AIA CapSquare, No, 10, Jalan Munshi Abdullah, Kuala Lumpur","place":"Seek Asia","lat":3.15437,"lon":101.699,"state":"active","id":null},{"event_id":"662570","title":"Kursus Kemahiran Penyeliaan | Kursus Pendek 2 hari | 20 mata CCD CIDB","url":"http://cad-training-centre-kursus-kemahiran-penyeliaan-01.peatix.com","shortener_url":null,"started_at":"2019-05-14T11:00:00.000+09:00","ended_at":"2019-05-17T08:59:59.000+09:00","limit_number":null,"address":"27, Jalan Puteri 4/6, Bandar Puteri, Puchong","place":"CAD Training Centre, Puchong","lat":3.01619,"lon":101.614,"state":"active","id":null},{"event_id":"130427","title":"【大阪】デバイス/ガジェットハック会\u0026体験会_2019/05/08","url":"https://osaka-driven-dev.connpass.com/event/130427/","shortener_url":null,"started_at":"2019-05-08T19:30:00.000+09:00","ended_at":"2019-05-08T22:30:00.000+09:00","limit_number":8,"address":"大阪市中央区本町4丁目7-7-303","place":"Kiiiya Hommachi","lat":34.6849,"lon":135.498,"state":"active","id":null},{"event_id":"130346","title":"sisisinハウス合宿 5/11（土）","url":"https://sisisin.connpass.com/event/130346/","shortener_url":null,"started_at":"2019-05-11T10:00:00.000+09:00","ended_at":"2019-05-11T18:00:00.000+09:00","limit_number":6,"address":"twitterなどで聞いてください","place":"sisisinハウス","lat":null,"lon":null,"state":"active","id":null},{"event_id":"660092","title":"【UNDPのイベントで大好評】SDGsが学べるボードゲームを用いたワークショップ　～SDGsの考え方から日々の課題のヒントを得よう～","url":"http://peatix.com/event/660092","shortener_url":null,"started_at":"2019-05-23T19:30:00.000+09:00","ended_at":"2019-05-26T08:59:59.000+09:00","limit_number":null,"address":"千代田区神田練塀町3 富士ソフト秋葉原ビル","place":"DMM.make AKIBA","lat":35.7005,"lon":139.774,"state":"active","id":null},{"event_id":"655452","title":"〜シンギュラリティ・ラボ Meetup ～テクノロジーで社会課題を解決しよう～（5月）","url":"http://peatix.com/event/655452","shortener_url":null,"started_at":"2019-05-16T19:30:00.000+09:00","ended_at":"2019-05-19T08:59:59.000+09:00","limit_number":null,"address":"渋谷区南平台町16−28 グラスシテイ渋谷10階","place":"HENNGEオープンラウンジ","lat":35.655,"lon":139.695,"state":"active","id":null},{"event_id":"645121","title":"【5月開催】コーディング無しで 2.5H 爆速プロトタイピングをしよう！Noodl × IoT × 音声認識","url":"http://noodl-hands-on1905.peatix.com","shortener_url":null,"started_at":"2019-05-10T19:30:00.000+09:00","ended_at":"2019-05-13T08:59:59.000+09:00","limit_number":null,"address":"東京都豊島区南池袋1丁目19-12 山の手ビル東館6F","place":"いいオフィス池袋","lat":35.7278,"lon":139.713,"state":"active","id":null},{"event_id":"130549","title":"【デジットハッカソン2019 SpecialDay】ホログラSDK発表＆ハンズオン","url":"https://code4osaka.connpass.com/event/130549/","shortener_url":"https://bit.ly/2Lv0grS","started_at":"2019-05-11T13:30:00.000+09:00","ended_at":"2019-05-11T18:30:00.000+09:00","limit_number":20,"address":"大阪市浪速区日本橋西2-5-1 ","place":"共立電子産業株式会社　セミナールーム","lat":34.657,"lon":135.504,"state":"active","id":null},{"event_id":"662543","title":"【5/30(木)開催】アニメ、AR・VR、デザイン、プラットフォームー『コンテンツとテクノロジーの未来』〜新たな産業・事業が生まれる、共創の時代〜 @naohirasawa0617 @tatsdesign @kyasbal_1994  @komanbe #techtokyo","url":"http://peatix.com/event/662543","shortener_url":null,"started_at":"2019-05-30T19:00:00.000+09:00","ended_at":"2019-06-02T08:59:59.000+09:00","limit_number":null,"address":"千代田区有楽町1丁目1−2","place":"東京ミッドタウン日比谷","lat":35.6736,"lon":139.759,"state":"active","id":null},{"event_id":"652975","title":"新卒執行役員が語る内定から入社までにやるべきこととは？","url":"http://peatix.com/event/652975","shortener_url":null,"started_at":"2019-05-28T19:00:00.000+09:00","ended_at":"2019-05-31T08:59:59.000+09:00","limit_number":null,"address":"103-0001東京都中央区日本橋小伝馬町5-15 大倉ビル5階","place":"株式会社POL","lat":35.6911,"lon":139.778,"state":"active","id":null},{"event_id":"616913","title":"新宿区100人カイギ vol.07","url":"http://shinjukuku100ninkaigi07.peatix.com","shortener_url":null,"started_at":"2019-05-16T19:00:00.000+09:00","ended_at":"2019-05-19T08:59:59.000+09:00","limit_number":null,"address":"東京都新宿区西新宿2-4-1","place":"新宿NSビル8階(インタースペース様オフィス)","lat":0.0,"lon":0.0,"state":"active","id":null},{"event_id":"656784","title":"Open Innovation in Asia ~ Creating bridging between corporate and the innovation ecosystem","url":"http://peatix.com/event/656784","shortener_url":null,"started_at":"2019-05-08T19:30:00.000+09:00","ended_at":"2019-05-11T08:59:59.000+09:00","limit_number":null,"address":"1 Chome-7-21 Hirakawacho, Chiyoda City","place":"PLACE2B - Workspace \u0026 Community for Tech Start-ups","lat":35.6828,"lon":139.741,"state":"active","id":null},{"event_id":"130664","title":"京都アジャイル勉強会 #90 オープン・ジャム in マネーフォワードさん","url":"https://kyoaja.connpass.com/event/130664/","shortener_url":null,"started_at":"2019-05-31T19:30:00.000+09:00","ended_at":"2019-05-31T21:30:00.000+09:00","limit_number":20,"address":"京都府京都市中京区中島町78番地(明治屋京都ビル 4階)","place":"マネーフォワード","lat":35.009,"lon":135.77,"state":"active","id":null},{"event_id":"91408","title":"いわみくと MeetUp！vol.35","url":"https://iwami-ict.doorkeeper.jp/events/91408","shortener_url":null,"started_at":"2019-05-24T18:30:00.000+09:00","ended_at":"2019-05-24T20:00:00.000+09:00","limit_number":null,"address":"島根県浜田市黒川町3748番地1","place":" 浜田市立中央図書館多目的ホール ","lat":null,"lon":null,"state":"active","id":null},{"event_id":"662170","title":"H³ 第23回：医療者のためのヘルスケアIoT超入門","url":"http://hhh23.peatix.com","shortener_url":"https://bit.ly/2LAGxai","started_at":"2019-05-16T19:00:00.000+09:00","ended_at":"2019-05-19T08:59:59.000+09:00","limit_number":null,"address":"〒101-0052 東京都千代田区神田小川町2-1-7 日本地所第7ビル 401号室","place":"あすか会議室 |  神田小川町","lat":0.0,"lon":0.0,"state":"active","id":null},{"event_id":"131112","title":"【Incubate School 第2期】〜後編・VC資金調達のためのピッチブック入門編〜","url":"https://incubatefund.connpass.com/event/131112/","shortener_url":null,"started_at":"2019-05-29T19:30:00.000+09:00","ended_at":"2019-05-29T21:30:00.000+09:00","limit_number":30,"address":"〒107-6003 東京都港区赤坂1-12-32 アーク森ビル3F","place":"インキュベイトファンドイベントスペース","lat":35.6671,"lon":139.74,"state":"active","id":null},{"event_id":"131109","title":"【Incubate School 第2期】〜前編・VC資金調達のための基礎編〜","url":"https://incubatefund.connpass.com/event/131109/","shortener_url":null,"started_at":"2019-05-22T19:30:00.000+09:00","ended_at":"2019-05-22T21:30:00.000+09:00","limit_number":40,"address":" 〒150-0043 東京都渋谷区道玄坂１０ １０ 1-10-8 渋谷道玄坂東急ビル1階","place":"Plug and Play Shibuya","lat":35.657,"lon":139.699,"state":"active","id":null},{"event_id":"91564","title":"5/15(水) [参加特典付] 英語でウェブ解析を学ぶ体験セミナー 第一弾 ","url":"https://web-mining.doorkeeper.jp/events/91564","shortener_url":null,"started_at":"2019-05-15T19:30:00.000+09:00","ended_at":"2019-05-15T21:30:00.000+09:00","limit_number":20,"address":"〒160-0022 東京都新宿区新宿5丁目11-2 SO BLD 2F","place":"〒160-0022 東京都新宿区新宿5丁目11-2 SO BLD 2F","lat":null,"lon":null,"state":"active","id":null},{"event_id":"671124","title":"結ぶ、繋がる、水引づくり","url":"http://peatix.com/event/671124","shortener_url":null,"started_at":"2019-05-15T19:00:00.000+09:00","ended_at":"2019-05-18T08:59:59.000+09:00","limit_number":null,"address":"東京都豊島区長崎1-9-2","place":"金剛院 蓮華堂B1","lat":35.7272,"lon":139.696,"state":"active","id":null},{"event_id":"131456","title":"Kamakura Mok Mok Hack 43","url":"https://kamkura-mokmok.connpass.com/event/131456/","shortener_url":null,"started_at":"2019-05-18T11:00:00.000+09:00","ended_at":"2019-05-18T13:00:00.000+09:00","limit_number":7,"address":"神奈川県 鎌倉市由比ガ浜1丁目12-8","place":"HOUSE YUIGAHAMA","lat":35.3202,"lon":139.55,"state":"active","id":null},{"event_id":"666738","title":"世界最先端カンファレンス Google「 I/O」\u0026 Facebook「F8」 合同参加報告会  「RouteX Meetup !!」","url":"http://rxmeetupvol1.peatix.com","shortener_url":"https://bit.ly/2LLT7Uj","started_at":"2019-05-18T13:00:00.000+09:00","ended_at":"2019-05-21T08:59:59.000+09:00","limit_number":null,"address":"東京都中央区銀座1-8−19 キラリトギンザ11F","place":"バイナリスター","lat":35.6743,"lon":139.769,"state":"active","id":null},{"event_id":"672458","title":"デンマークで1週間。自分の未来だけを考える旅【Kompasツアー説明会】Ｗｅｂ参加可","url":"http://peatix.com/event/672458","shortener_url":null,"started_at":"2019-05-25T11:45:00.000+09:00","ended_at":"2019-05-28T08:59:59.000+09:00","limit_number":null,"address":"渋谷区千駄ケ谷5丁目33−8 サウスゲート新宿ビル","place":"H.I.S. 新宿本社営業所","lat":0.0,"lon":0.0,"state":"active","id":null},{"event_id":"654157","title":"確定申告反省会","url":"http://190519-tax.peatix.com","shortener_url":null,"started_at":"2019-05-19T13:00:00.000+09:00","ended_at":"2019-05-22T08:59:59.000+09:00","limit_number":null,"address":"渋谷区円山町1−5 キノハウス) 1F ユーロスペース","place":"LOFT9 Shibuya","lat":35.6593,"lon":139.695,"state":"active","id":null},{"event_id":"657729","title":"FUN! FAN! FAAVO特別編 Feat. 100人カイギ","url":"http://peatix.com/event/657729","shortener_url":null,"started_at":"2019-05-19T15:00:00.000+09:00","ended_at":"2019-05-22T08:59:59.000+09:00","limit_number":null,"address":"宮崎市橘通西3丁目10−27 リバティスクエアビル6階","place":"CAMPFIRE 宮崎オフィス","lat":31.9164,"lon":131.423,"state":"active","id":null},{"event_id":"652616","title":"多拠点ローカルプレイヤーが語る地域との関係性と役割～今回のテーマは「ローカルオフィス。働くを再構築する。」","url":"http://peatix.com/event/652616","shortener_url":null,"started_at":"2019-05-15T19:00:00.000+09:00","ended_at":"2019-05-18T08:59:59.000+09:00","limit_number":null,"address":"東京都千代田区丸の内2-5-1 丸の内二丁目ビル6F 611区","place":"TIP*S","lat":35.68,"lon":139.763,"state":"active","id":null},{"event_id":"128735","title":"SMCN #02 RealSense T265であそぼう 【Unity初心者歓迎！】","url":"https://chiikiokoshi-vr.connpass.com/event/128735/","shortener_url":null,"started_at":"2019-05-25T13:00:00.000+09:00","ended_at":"2019-05-25T17:00:00.000+09:00","limit_number":16,"address":"島根県松江市殿町201","place":"株式会社アイル 松江ラボ","lat":35.4734,"lon":133.054,"state":"active","id":null},{"event_id":"676881","title":"【5/22】IoTモノづくり研修 　第9回モノづくりブートキャンプの説明会","url":"http://peatix.com/event/676881","shortener_url":null,"started_at":"2019-05-22T09:00:00.000+09:00","ended_at":"2019-05-25T08:59:59.000+09:00","limit_number":null,"address":"奈良県天理市櫟本町2613番地の1","place":"オンラインミーティングにて接続します。","lat":0.0,"lon":0.0,"state":"active","id":null},{"event_id":"676896","title":"【5/24】IoTモノづくり研修 　第9回モノづくりブートキャンプの説明会","url":"http://peatix.com/event/676896","shortener_url":null,"started_at":"2019-05-24T09:00:00.000+09:00","ended_at":"2019-05-27T08:59:59.000+09:00","limit_number":null,"address":"奈良県天理市櫟本町2613番地の1","place":"オンラインミーティングにて接続します。","lat":0.0,"lon":0.0,"state":"active","id":null},{"event_id":"676891","title":"【5/23】IoTモノづくり研修 　第9回モノづくりブートキャンプの説明会","url":"http://peatix.com/event/676891","shortener_url":null,"started_at":"2019-05-23T09:00:00.000+09:00","ended_at":"2019-05-26T08:59:59.000+09:00","limit_number":null,"address":"奈良県天理市櫟本町2613番地の1","place":"オンラインミーティングにて接続します。","lat":0.0,"lon":0.0,"state":"active","id":null},{"event_id":"666525","title":"【5/17】IoTモノづくり研修 　第9回モノづくりブートキャンプの説明会","url":"http://peatix.com/event/666525","shortener_url":null,"started_at":"2019-05-17T09:00:00.000+09:00","ended_at":"2019-05-20T08:59:59.000+09:00","limit_number":null,"address":"奈良県天理市櫟本町2613番地の1","place":"オンラインミーティングにて接続します。","lat":0.0,"lon":0.0,"state":"active","id":null},{"event_id":"672926","title":"Enjoy！夢中ポーカー！～チーム＆コミュニティビルディングに最適！本邦初公開！みんなの6つの\"夢中\"がとけあう新感覚交流カードゲームを楽しむゆうべ！～","url":"http://6chuporker01.peatix.com","shortener_url":null,"started_at":"2019-05-30T19:00:00.000+09:00","ended_at":"2019-06-02T08:59:59.000+09:00","limit_number":null,"address":"渋谷区恵比寿4丁目6−1 8階 恵比寿MFビル","place":"Peatix Japan株式会社","lat":35.6458,"lon":139.712,"state":"active","id":null},{"event_id":"653240","title":"今注目のSaaSスタートアップ2社が語る！売れるSaaSセールス組織はどう作るか！？","url":"http://pol-oct-saassales.peatix.com","shortener_url":null,"started_at":"2019-05-23T19:00:00.000+09:00","ended_at":"2019-05-26T08:59:59.000+09:00","limit_number":null,"address":"中央区日本橋本町3丁目3−3 Clipニホンバシビル1階","place":"Clipニホンバシ","lat":35.6886,"lon":139.774,"state":"active","id":null},{"event_id":"671164","title":"suki JAM 002","url":"http://suki-jam-20190524.peatix.com","shortener_url":null,"started_at":"2019-05-24T20:00:00.000+09:00","ended_at":"2019-05-27T08:59:59.000+09:00","limit_number":null,"address":"港区南青山6丁目2−9 NYKビル地下1階・地下2階","place":"青山 ever","lat":35.6609,"lon":139.716,"state":"active","id":null},{"event_id":"669455","title":"小橋賢児『セカンドID』出版記念イベント for U29","url":"http://secondid29.peatix.com","shortener_url":null,"started_at":"2019-05-30T19:00:00.000+09:00","ended_at":"2019-06-02T08:59:59.000+09:00","limit_number":null,"address":"港区西麻布2丁目13","place":"都内某所","lat":0.0,"lon":0.0,"state":"active","id":null},{"event_id":"668704","title":"【HR×PR JAM !】 Session1〜採用とエンゲージメント","url":"http://jam1.peatix.com","shortener_url":null,"started_at":"2019-05-23T19:30:00.000+09:00","ended_at":"2019-05-26T08:59:59.000+09:00","limit_number":null,"address":"東京都渋谷区道玄坂1-21-1","place":"BAR「AJITO」in VOYAGE GROUPオフィス（渋谷ソラスタ15F）","lat":35.6566,"lon":139.697,"state":"active","id":null},{"event_id":"679454","title":"相澤冬樹・境治 メディア酔談　ゲスト：木村隆志＆堀潤 ライブ配信スタジオ参加者募集","url":"http://mediasuidan523.peatix.com","shortener_url":null,"started_at":"2019-05-23T22:00:00.000+09:00","ended_at":"2019-05-26T08:59:59.000+09:00","limit_number":null,"address":"〒166-0002 東京都杉並区高円寺北2丁目1−24","place":"ヒマナイヌスタジオ高円寺","lat":35.7057,"lon":139.654,"state":"active","id":null},{"event_id":"671939","title":"ADVAN club Academy#3　～タイヤ座談会：NEOVAについて語ろう～","url":"http://peatix.com/event/671939","shortener_url":null,"started_at":"2019-05-28T18:30:00.000+09:00","ended_at":"2019-05-31T08:59:59.000+09:00","limit_number":null,"address":"港区新橋3丁目5−13 大興ビル3F","place":"オステリア パージナ","lat":35.6665,"lon":139.755,"state":"active","id":null},{"event_id":"131941","title":"スクラム道関西 オープン・ジャム","url":"https://scrumdo-kansai.connpass.com/event/131941/","shortener_url":null,"started_at":"2019-05-27T19:30:00.000+09:00","ended_at":"2019-05-27T21:30:00.000+09:00","limit_number":25,"address":"大阪府大阪市北区大深町3−1 (グランフロント大阪 タワーＢ 18階)","place":"株式会社Aiming 大阪支社","lat":34.7054,"lon":135.494,"state":"active","id":null},{"event_id":"682985","title":"まだ大手で疲弊してるの？ POL事業責任者が語る大手をやめてスタートアップへ転職する理由とは","url":"http://peatix.com/event/682985","shortener_url":null,"started_at":"2019-05-25T18:30:00.000+09:00","ended_at":"2019-05-28T08:59:59.000+09:00","limit_number":null,"address":"103-0011 東京都中央区日本橋大伝馬町1-7","place":"日本橋ノースプレイス3F  （株式会社POL本社）","lat":0.0,"lon":0.0,"state":"active","id":null},{"event_id":"132491","title":"GitLab Hackathon 2019 Q2 in Sendai","url":"https://gitlab-jp.connpass.com/event/132491/","shortener_url":"https://bit.ly/2M3yUcG","started_at":"2019-05-29T18:30:00.000+09:00","ended_at":"2019-05-30T21:00:00.000+09:00","limit_number":6,"address":"宮城県仙台市青葉区国分町1-4-9 (enspace)","place":"enspace","lat":38.261,"lon":140.869,"state":"active","id":null},{"event_id":"132495","title":"Kamakura Mok Mok Hack 44","url":"https://kamkura-mokmok.connpass.com/event/132495/","shortener_url":null,"started_at":"2019-05-25T11:00:00.000+09:00","ended_at":"2019-05-25T13:00:00.000+09:00","limit_number":7,"address":"神奈川県 鎌倉市由比ガ浜1丁目12-8","place":"HOUSE YUIGAHAMA","lat":35.3202,"lon":139.55,"state":"active","id":null},{"event_id":"132401","title":"sisisinハウス合宿 5/26（日）","url":"https://sisisin.connpass.com/event/132401/","shortener_url":null,"started_at":"2019-05-26T10:00:00.000+09:00","ended_at":"2019-05-26T18:00:00.000+09:00","limit_number":6,"address":"twitterなどで聞いてください","place":"sisisinハウス","lat":null,"lon":null,"state":"active","id":null},{"event_id":"683282","title":"【Incubate School 第2期】〜前編・VC資金調達のための基礎編〜 ＜Sansan,Gamewith,パネイル等の創業支援VCによる講座シリーズ＞","url":"http://ic12th-is0522.peatix.com","shortener_url":null,"started_at":"2019-05-22T19:30:00.000+09:00","ended_at":"2019-05-25T08:59:59.000+09:00","limit_number":null,"address":"渋谷区道玄坂10 10 1-10-8 渋谷道玄坂東急ビル1階","place":"Plug and Play Shibuya powered by 東急不動産","lat":35.657,"lon":139.699,"state":"active","id":null},{"event_id":"683348","title":"【Incubate School 第2期】〜後編・VC資金調達のための基礎編〜 ＜Sansan,Gamewith,パネイル等の創業支援VCによる講座シリーズ＞","url":"http://ic12th-is0529.peatix.com","shortener_url":null,"started_at":"2019-05-29T19:30:00.000+09:00","ended_at":"2019-06-01T08:59:59.000+09:00","limit_number":null,"address":"渋谷区道玄坂10 10 1-10-8 渋谷道玄坂東急ビル1階","place":"Plug and Play Shibuya powered by 東急不動産","lat":35.657,"lon":139.699,"state":"active","id":null},{"event_id":"92264","title":"5/29(水) [会場参加特典付] 英語でウェブ解析を学ぶ体験セミナー (第1+2章)","url":"https://web-mining.doorkeeper.jp/events/92264","shortener_url":null,"started_at":"2019-05-29T19:30:00.000+09:00","ended_at":"2019-05-29T21:30:00.000+09:00","limit_number":40,"address":"〒160-0023 東京都新宿区西新宿8-14-19 西新宿STビル6階","place":"〒160-0023 東京都新宿区西新宿8-14-19 西新宿STビル6階","lat":null,"lon":null,"state":"active","id":null},{"event_id":"132775","title":"【大阪】ハッカソン・新規事業・スタートアップ：夜通し作業しNight 2019/05/25","url":"https://hackers-salon.connpass.com/event/132775/","shortener_url":"https://bit.ly/2HAjB6O","started_at":"2019-05-25T16:00:00.000+09:00","ended_at":"2019-05-26T05:00:00.000+09:00","limit_number":15,"address":"大阪市中央区本町４丁目７−７ 飛鳥ビル３０２","place":"Kiiiya Hommachi（2020年6月営業終了）","lat":34.6849,"lon":135.498,"state":"active","id":null},{"event_id":"132781","title":"【大阪】ハッカソン・新規事業・スタートアップ：夜通し作業しNight 2019/05/31","url":"https://hackers-salon.connpass.com/event/132781/","shortener_url":"https://bit.ly/2YMUZ0p","started_at":"2019-05-31T23:00:00.000+09:00","ended_at":"2019-06-01T05:00:00.000+09:00","limit_number":10,"address":"大阪市中央区本町４丁目７−７ 飛鳥ビル３０２","place":"Kiiiya Hommachi（2020年6月営業終了）","lat":34.6849,"lon":135.498,"state":"active","id":null},{"event_id":"132713","title":"GitLab Hackathon 2Q '2019 in Tokyo (Meetup #18)","url":"https://gitlab-jp.connpass.com/event/132713/","shortener_url":"https://bit.ly/2YMWhJ6","started_at":"2019-05-29T18:30:00.000+09:00","ended_at":"2019-05-29T22:00:00.000+09:00","limit_number":30,"address":"新宿区舟町10-17 四谷コーポ","place":"Cowork PrAha (ビレッジ四谷ビル 4F)","lat":35.6904,"lon":139.721,"state":"active","id":null},{"event_id":"678784","title":"Open Meeting 「会社と業界の垣根を超えて、街や都市の暮らしにイノベーションを生み出す方法 (仮題)」","url":"http://peatix.com/event/678784","shortener_url":null,"started_at":"2019-05-30T19:00:00.000+09:00","ended_at":"2019-06-02T08:59:59.000+09:00","limit_number":null,"address":"渋谷区渋谷3丁目9−10 渋谷アサヒビル5階","place":"Inc-line","lat":35.6572,"lon":139.704,"state":"active","id":null},{"event_id":"689084","title":"【人事担当者必見】英語人材は採用から育成へ。90日でTOEIC400点UPも生んだ時短英語とは","url":"http://peatix.com/event/689084","shortener_url":null,"started_at":"2019-05-31T10:20:00.000+09:00","ended_at":"2019-06-03T08:59:59.000+09:00","limit_number":null,"address":"千代田区丸の内3丁目5−1","place":"東京国際フォーラム","lat":35.6767,"lon":139.764,"state":"active","id":null},{"event_id":"629283","title":"人間関係に使えるプロセスワーク online講座（水曜夜・全6回）","url":"http://processwork-in-relationship-online2019.peatix.com","shortener_url":null,"started_at":"2019-05-08T20:00:00.000+09:00","ended_at":"2019-05-11T08:59:59.000+09:00","limit_number":null,"address":"zoom","place":"zoom","lat":0.0,"lon":0.0,"state":"active","id":null},{"event_id":"1333807607656681472","title":"College Students Tackle PTSD at First DC Hackathon | Open Health News","url":"https://www.openhealthnews.com/hotnews/college-students-tackle-ptsd-first-dc-hackathon","shortener_url":null,"started_at":"2019-05-23T13:00:00.000+09:00","ended_at":"2020-11-05T13:00:00.000+09:00","limit_number":null,"address":null,"place":"online","lat":null,"lon":null,"state":"active","id":null},{"event_id":"1338092145488637954","title":"Coronavirus: GSK and Sanofi COVID vaccine delayed till end of 2021","url":"https://uk.finance.yahoo.com/news/coronavirus-covid-19-vaccine-gsk-sanofi-delay-103253136.html","shortener_url":null,"started_at":"2019-05-01T09:00:00.000+09:00","ended_at":"2020-12-13T09:00:00.000+09:00","limit_number":null,"address":null,"place":"online","lat":null,"lon":null,"state":"active","id":null},{"event_id":"128956","title":"【増枠】Mix Leap LT #17 - LT会「GWの思い出」","url":"https://lycorp-osaka-jp.connpass.com/event/128956/","shortener_url":null,"started_at":"2019-05-14T19:00:00.000+09:00","ended_at":"2019-05-14T21:30:00.000+09:00","limit_number":50,"address":"〒530-0018 大阪府大阪市北区小松原町２−４","place":"ヤフー大阪 富国生命オフィス 26F オープンコラボスペース\"Kokage\"","lat":34.7023,"lon":135.5,"state":"active","id":null}]