[{"event_id":"410045","title":"クラスのちからを生かす summer camp 2019 | 「こどもが主役」の学びをデザインしよう","url":"http://paj20190816-0818.peatix.com","shortener_url":null,"started_at":"2019-08-16T00:00:00.000+09:00","ended_at":"2019-08-18T23:59:59.000+09:00","limit_number":null,"address":"長柄町長柄山522","place":"アルビンスポーツパーク","lat":35.4486,"lon":140.192,"state":"active","id":null},{"event_id":"602575","title":"第７回 さぶみっと！ヨクスル in 高松【2019年8月10日(土)開催】","url":"http://peatix.com/event/602575","shortener_url":null,"started_at":"2019-08-10T05:00:00.000+09:00","ended_at":"2019-08-12T23:59:59.000+09:00","limit_number":null,"address":"高松市丸亀町1−1","place":"丸亀町レッツホール・カルチャールーム","lat":34.3459,"lon":134.051,"state":"active","id":null},{"event_id":"620735","title":"第7回會津藩校日進館臨床研究デザイン塾","url":"http://aizu2019.peatix.com","shortener_url":null,"started_at":"2019-08-23T03:00:00.000+09:00","ended_at":"2019-08-25T23:59:59.000+09:00","limit_number":null,"address":"福島県耶麻郡猪苗代町若宮上ノ湯2985","place":"横向温泉 森の旅亭 マウント磐梯（福島県耶麻郡猪苗代町）","lat":37.6574,"lon":140.258,"state":"active","id":null},{"event_id":"628854","title":"【参加者受付中】南海沿線アトツギソン","url":"http://atotugithon2019.peatix.com","shortener_url":null,"started_at":"2019-08-30T10:00:00.000+09:00","ended_at":"2019-09-01T23:59:59.000+09:00","limit_number":null,"address":"大阪府大阪市浪速区敷津東2丁目1−41","place":"南海電気鉄道株式会社　本社","lat":34.6574,"lon":135.502,"state":"active","id":null},{"event_id":"640556","title":"まちの大学「アイデア学部　クリエイターマネジメントコース」","url":"http://machinodaigakuidea02.peatix.com","shortener_url":null,"started_at":"2019-08-03T05:00:00.000+09:00","ended_at":"2019-08-05T23:59:59.000+09:00","limit_number":null,"address":"神奈川県鎌倉市御成町11-13","place":"面白法人カヤック パートナーオフィス","lat":35.3184,"lon":139.549,"state":"active","id":null},{"event_id":"640633","title":"M1 Patch! A Theatre Festival of Artful Play - Artist Farm M1 戏戏节 - 《艺术农庄》","url":"http://patch19af.peatix.com","shortener_url":null,"started_at":"2019-08-30T12:00:00.000+09:00","ended_at":"2019-09-01T23:59:59.000+09:00","limit_number":null,"address":"54 Waterloo Street","place":"The Theatre Practice","lat":1.29867,"lon":103.851,"state":"active","id":null},{"event_id":"105764","title":"第７０回オープンＣＡＥ勉強会（第９回夏合宿）","url":"https://atnd.org/events/105764","shortener_url":"https://bit.ly/2VJpYwA","started_at":"2019-08-24T01:00:00.000+09:00","ended_at":"2019-08-25T06:30:00.000+09:00","limit_number":36,"address":"岐阜県大垣市加賀野4丁目1番地の7","place":"ソフトピアジャパン　ドリームコア２階　岐阜イノベーションセンター研修室","lat":35.3675,"lon":136.64,"state":"closed","id":null},{"event_id":"665958","title":"からだワークショップ夏合宿2019　開催決定！","url":"http://summerworkshop.peatix.com","shortener_url":null,"started_at":"2019-08-30T01:00:00.000+09:00","ended_at":"2019-09-01T23:59:59.000+09:00","limit_number":null,"address":"長野県伊那市高遠町西高遠810−1","place":"長野県伊那市高遠町内　元分校","lat":35.8387,"lon":138.059,"state":"active","id":null},{"event_id":"663762","title":"8/3 Learn X Creation (ラーン・バイ・クリエイション） Day1：Eco system（エコシステム）Day","url":"http://learnxcreation-day1.peatix.com","shortener_url":"https://bit.ly/2W5E8Z5","started_at":"2019-08-03T00:30:00.000+09:00","ended_at":"2019-08-05T23:59:59.000+09:00","limit_number":null,"address":"港区南麻布5丁目1−14","place":"広尾学園中学校・高等学校","lat":35.6545,"lon":139.722,"state":"active","id":null},{"event_id":"663800","title":"8/4 Learn X Creation (ラーン・バイ・クリエイション） Day2：Family \u0026 Educator Day","url":"http://learnxcreation-day2.peatix.com","shortener_url":null,"started_at":"2019-08-04T00:30:00.000+09:00","ended_at":"2019-08-06T23:59:59.000+09:00","limit_number":null,"address":"港区南麻布5丁目1−14","place":"広尾学園中学校・高等学校","lat":35.6545,"lon":139.722,"state":"active","id":null},{"event_id":"130297","title":"高専カンファレンス in 鈴鹿","url":"https://connpass.com/event/130297/","shortener_url":"https://bit.ly/2ZlrxPi","started_at":"2019-08-25T01:00:00.000+09:00","ended_at":"2019-08-25T08:00:00.000+09:00","limit_number":35,"address":"三重県鈴鹿市白子町","place":"鈴鹿高専内イノベーション交流プラザ2F","lat":34.8375,"lon":136.58,"state":"active","id":null},{"event_id":"91152","title":"Startup Weekend Tokyo Maker＠大田","url":"https://swtokyo.doorkeeper.jp/events/91152","shortener_url":null,"started_at":"2019-08-09T09:00:00.000+09:00","ended_at":"2019-08-11T12:00:00.000+09:00","limit_number":130,"address":"東京都港区港南2丁目16−3 品川グランドセントラルタワー","place":"［金］日本マイクロソフト（品川）［土＆日］PiO（京急蒲田）","lat":null,"lon":null,"state":"active","id":null},{"event_id":"91930","title":"8/10(土)~11(日)festivo ホームページ作成（WordPress） Camp@東京【学生20,000円、一般25,000円】～戦うスキルを身につける15時間！WordPress集中合宿！～","url":"https://festivo.doorkeeper.jp/events/91930","shortener_url":"https://bit.ly/2WiX6eM","started_at":"2019-08-10T01:30:00.000+09:00","ended_at":"2019-08-11T09:30:00.000+09:00","limit_number":10,"address":"東京都練馬区豊玉北3-15-17","place":"起業家シェアハウス x-garden セミナールーム","lat":null,"lon":null,"state":"active","id":null},{"event_id":"682419","title":"8/10(土)~11(日)festivo ホームページ作成（WordPress） Camp@東京【学生20,000円、一般25,000円】～戦うスキルを身につける15時間！WordPress集中合宿！～","url":"http://peatix.com/event/682419","shortener_url":"https://bit.ly/2LUOQOj","started_at":"2019-08-10T01:30:00.000+09:00","ended_at":"2019-08-12T23:59:59.000+09:00","limit_number":null,"address":"東京都練馬区豊玉北3-15-17","place":"起業家シェアハウス x-garden セミナールーム","lat":35.7329,"lon":139.661,"state":"active","id":null},{"event_id":"132409","title":"8月11日【初心者向け】LoomのSDKを活用しDappsを作成する","url":"https://webbench.connpass.com/event/132409/","shortener_url":null,"started_at":"2019-08-11T05:00:00.000+09:00","ended_at":"2019-08-11T08:15:00.000+09:00","limit_number":22,"address":"東京都港区南青山５−１−２２ 青山ライズスクエア","place":"ピアーズ カフェ 南青山店 （PIER'S CAFE）","lat":35.6642,"lon":139.712,"state":"active","id":null},{"event_id":"679753","title":"【古民家で開発合宿！】フラー夏期インターンシップ 2019 〜南魚沼 夏の陣〜","url":"http://fuller-summer-internship-2019.peatix.com","shortener_url":"https://bit.ly/2HHCHrP","started_at":"2019-08-19T03:00:00.000+09:00","ended_at":"2019-08-21T23:59:59.000+09:00","limit_number":null,"address":"新潟県南魚沼市坂戸117−子","place":"新潟県 南魚沼市 兼続庵","lat":37.0588,"lon":138.886,"state":"active","id":null},{"event_id":"688881","title":"夏の北海道でブログを始めよう！「ブログ合宿in札幌」を開催","url":"http://blog-sapporo2019.peatix.com","shortener_url":null,"started_at":"2019-08-10T01:00:00.000+09:00","ended_at":"2019-08-12T23:59:59.000+09:00","limit_number":null,"address":"札幌市豊平区豊平2条4丁目1−43","place":"WAYA","lat":43.0534,"lon":141.371,"state":"active","id":null},{"event_id":"134863","title":"Dev-Camp in さいたま 2019/08/25","url":"https://devcamp.connpass.com/event/134863/","shortener_url":null,"started_at":"2019-08-25T04:00:00.000+09:00","ended_at":"2019-08-25T08:00:00.000+09:00","limit_number":null,"address":"さいたま市中央区上落合","place":"ラウンジ","lat":35.8943,"lon":139.626,"state":"active","id":null},{"event_id":"134862","title":"Dev-Camp in さいたま 2019/08/04","url":"https://devcamp.connpass.com/event/134862/","shortener_url":null,"started_at":"2019-08-04T04:00:00.000+09:00","ended_at":"2019-08-04T08:00:00.000+09:00","limit_number":null,"address":"さいたま市中央区上落合","place":"ラウンジ","lat":35.8943,"lon":139.626,"state":"active","id":null},{"event_id":"718578","title":"夏のはじめての親子キャンプ×IT(思考力UP) プログラミング・曲づくり・漫才学も","url":"http://famipro-camp-shinrin.peatix.com","shortener_url":null,"started_at":"2019-08-17T07:00:00.000+09:00","ended_at":"2019-08-19T23:59:59.000+09:00","limit_number":null,"address":"東京都あきる野市乙津810","place":"コテージ森林村","lat":35.7232,"lon":139.176,"state":"active","id":null},{"event_id":"93597","title":"【初開催】Startup Weekend Tokyo GreenTech @ デジタルガレージ 〜環境・エネルギー・サステナビリティの課題にテックでチャレンジする54時間〜","url":"https://swtokyo.doorkeeper.jp/events/93597","shortener_url":"https://bit.ly/31HfqOJ","started_at":"2019-08-23T09:30:00.000+09:00","ended_at":"2019-08-25T12:00:00.000+09:00","limit_number":50,"address":"東京都渋谷区恵比寿南3-5-7 デジタルゲートビル 9F  ※金曜日の20時以降と、土曜・日曜はビルの1Fドアが閉まっています。もしビルに到着して1Fが閉まっている場合は以下の電話番号にかけてください。開けに行きます。050-5215-5649 または 090-6192-7097","place":"株式会社デジタルガレージ 本社 9階 ","lat":null,"lon":null,"state":"active","id":null},{"event_id":"713641","title":"学術×芸術Summer Camp Fukui 2019","url":"http://peatix.com/event/713641","shortener_url":null,"started_at":"2019-08-09T02:00:00.000+09:00","ended_at":"2019-08-11T23:59:59.000+09:00","limit_number":null,"address":"福井県坂井市三国町中央一丁目5番1号","place":"みくに未来ホール","lat":0.0,"lon":0.0,"state":"active","id":null},{"event_id":"724416","title":"ワークショップから学ぶ！デザインスプリント Vol.7","url":"http://peatix.com/event/724416","shortener_url":null,"started_at":"2019-08-21T10:00:00.000+09:00","ended_at":"2019-08-23T23:59:59.000+09:00","limit_number":null,"address":"東京都中央区築地6-16-1 築地616ビル","place":"株式会社ニューロマジック　7階セミナースペース","lat":35.664,"lon":139.774,"state":"active","id":null},{"event_id":"726743","title":"【8/31~9/1】稼げるWEBデザインを学ぶ！０から始める「サイト制作合宿」","url":"http://site-hinode2019.peatix.com","shortener_url":"https://bit.ly/2XcZzcf","started_at":"2019-08-31T03:30:00.000+09:00","ended_at":"2019-09-02T23:59:59.000+09:00","limit_number":null,"address":"千葉県いすみ市深堀1712−1","place":"コワーキングコミュニティhinode","lat":35.2596,"lon":140.398,"state":"active","id":null},{"event_id":"94029","title":"8/24(土)~25(日)festivo はじめてのプログラミング（初級Ruby版） Camp@東京【学生20,000円、一般25,000円】～戦うスキルを身につける15時間！プログラミング概要からRuby/Rails集中合宿！～","url":"https://festivo.doorkeeper.jp/events/94029","shortener_url":"https://bit.ly/2JeZdbd","started_at":"2019-08-24T01:00:00.000+09:00","ended_at":"2019-08-25T10:00:00.000+09:00","limit_number":10,"address":"東京都練馬区豊玉北3-15-17","place":"起業家シェアハウス x-garden セミナールーム","lat":null,"lon":null,"state":"active","id":null},{"event_id":"732846","title":"8/24(土)~25(日)festivo はじめてのプログラミング（初級Ruby版） Camp@東京【学生20,000円、一般25,000円】～戦うスキルを身につける15時間！プログラミング概要からRuby/Rails集中合宿！～","url":"http://peatix.com/event/732846","shortener_url":"https://bit.ly/2Jbique","started_at":"2019-08-24T01:00:00.000+09:00","ended_at":"2019-08-26T23:59:59.000+09:00","limit_number":null,"address":"東京都練馬区豊玉北3-15-17","place":"起業家シェアハウス x-garden セミナールーム","lat":35.7329,"lon":139.661,"state":"active","id":null},{"event_id":"721684","title":"STARRY NIGHT JAM vol.44 　アポロ11号月面着陸50周年記念特別企画 ispaceスペシャルトーク「月に跳ぶ人類の挑戦」","url":"http://snj44.peatix.com","shortener_url":null,"started_at":"2019-08-17T07:00:00.000+09:00","ended_at":"2019-08-19T23:59:59.000+09:00","limit_number":null,"address":"福岡市中央区六本松4丁目2","place":"福岡市科学館 ドームシアター","lat":33.5773,"lon":130.378,"state":"active","id":null},{"event_id":"729021","title":"8/6(Tue) Italian Night in Shibuya","url":"http://peatix.com/event/729021","shortener_url":null,"started_at":"2019-08-06T10:00:00.000+09:00","ended_at":"2019-08-08T23:59:59.000+09:00","limit_number":null,"address":"東京都渋谷区道玄坂1-3-11","place":"■Hobgoblin Shibuya","lat":35.6583,"lon":139.7,"state":"active","id":null},{"event_id":"137815","title":"【21卒対象】アイディア出しから実装までを体験できる3daysインターン","url":"https://ceres-inc.connpass.com/event/137815/","shortener_url":"https://bit.ly/2JfXUc2","started_at":"2019-08-28T10:00:00.000+09:00","ended_at":"2019-08-30T21:00:00.000+09:00","limit_number":15,"address":"〒158-0097 東京都世田谷区用賀４丁目１０ 用賀四丁目10番1号（世田谷ビジネススクエア タワー24階）","place":"株式会社セレス本社","lat":35.6267,"lon":139.633,"state":"active","id":null},{"event_id":"137814","title":"【21卒対象】アイディア出しから実装までを体験できる3daysインターン","url":"https://ceres-inc.connpass.com/event/137814/","shortener_url":"https://bit.ly/2JaLqlK","started_at":"2019-08-21T10:00:00.000+09:00","ended_at":"2019-08-23T21:00:00.000+09:00","limit_number":15,"address":"〒158-0097 東京都世田谷区用賀４丁目１０ 用賀四丁目10番1号（世田谷ビジネススクエア タワー24階）","place":"株式会社セレス本社","lat":35.6267,"lon":139.633,"state":"active","id":null},{"event_id":"137810","title":"【21卒対象】アイディア出しから実装までを体験できる3daysインターン","url":"https://ceres-inc.connpass.com/event/137810/","shortener_url":"https://bit.ly/2JaLfH6","started_at":"2019-08-07T10:00:00.000+09:00","ended_at":"2019-08-09T21:00:00.000+09:00","limit_number":15,"address":"〒158-0097 東京都世田谷区用賀４丁目１０ 用賀四丁目10番1号（世田谷ビジネススクエア タワー24階）","place":"株式会社セレス本社","lat":35.6267,"lon":139.633,"state":"active","id":null},{"event_id":"133969","title":"茨城開催！Web×IoT メイカーズチャレンジ2019-20 　　【ハンズオン講習 \u0026 ハッカソン】","url":"https://webiotmakers.connpass.com/event/133969/","shortener_url":"https://bit.ly/2JgxmHz","started_at":"2019-08-10T01:00:00.000+09:00","ended_at":"2019-08-11T08:00:00.000+09:00","limit_number":30,"address":"オンライン","place":"オンライン","lat":36.4004,"lon":140.551,"state":"active","id":null},{"event_id":"93761","title":"【初開催！】Startup Weekend Tokyo Marine","url":"https://swtokyo.doorkeeper.jp/events/93761","shortener_url":"https://bit.ly/2Jf46B0","started_at":"2019-08-30T09:30:00.000+09:00","ended_at":"2019-09-01T12:00:00.000+09:00","limit_number":30,"address":"東京都渋谷区広尾1-1-39 恵比寿プライムスクエアタワー 4F","place":"株式会社モンスター・ラボ　 セミナールーム","lat":null,"lon":null,"state":"active","id":null},{"event_id":"107172","title":"【21卒対象】アイディア出しから実装までを体験できる3daysインターン","url":"https://atnd.org/events/107172","shortener_url":"https://bit.ly/2JfVBFZ","started_at":"2019-08-28T01:00:00.000+09:00","ended_at":"2019-08-30T12:00:00.000+09:00","limit_number":15,"address":"東京都世田谷区用賀4丁目10 用賀四丁目10番1号","place":"株式会社セレス本社　世田谷ビジネススクエア タワー 24階","lat":35.6267,"lon":139.633,"state":"closed","id":null},{"event_id":"107171","title":"【21卒対象】アイディア出しから実装までを体験できる3daysインターン","url":"https://atnd.org/events/107171","shortener_url":"https://bit.ly/2JlRFDl","started_at":"2019-08-21T01:00:00.000+09:00","ended_at":"2019-08-23T12:00:00.000+09:00","limit_number":15,"address":"東京都世田谷区用賀4丁目10 用賀四丁目10番1号","place":"株式会社セレス本社　世田谷ビジネススクエア タワー 24階","lat":35.6267,"lon":139.633,"state":"closed","id":null},{"event_id":"107170","title":"【21卒対象】アイディア出しから実装までを体験できる3daysインターン","url":"https://atnd.org/events/107170","shortener_url":"https://bit.ly/2JaKMVm","started_at":"2019-08-07T01:00:00.000+09:00","ended_at":"2019-08-09T12:00:00.000+09:00","limit_number":15,"address":"東京都世田谷区用賀4丁目10 用賀四丁目10番1号","place":"株式会社セレス本社　世田谷ビジネススクエア タワー 24階","lat":35.6267,"lon":139.633,"state":"closed","id":null},{"event_id":"728706","title":"公共交通マーケティング研究会 豊田合宿【ICカードログデータ分析実習】","url":"http://peatix.com/event/728706","shortener_url":null,"started_at":"2019-08-23T01:30:00.000+09:00","ended_at":"2019-08-25T23:59:59.000+09:00","limit_number":null,"address":"豊田市小坂本町1丁目25","place":"豊田市 青少年センター","lat":35.0868,"lon":137.152,"state":"active","id":null},{"event_id":"729291","title":"公共交通マーケティング研究会 豊田合宿【案内表示実地調査】","url":"http://peatix.com/event/729291","shortener_url":null,"started_at":"2019-08-23T01:30:00.000+09:00","ended_at":"2019-08-25T23:59:59.000+09:00","limit_number":null,"address":"豊田市小坂本町1丁目25","place":"豊田市 青少年センター","lat":35.0868,"lon":137.152,"state":"active","id":null},{"event_id":"729297","title":"公共交通マーケティング研究会 第4回例会　豊田場所","url":"http://peatix.com/event/729297","shortener_url":null,"started_at":"2019-08-23T01:30:00.000+09:00","ended_at":"2019-08-25T23:59:59.000+09:00","limit_number":null,"address":"愛知県豊田市小坂本町1丁目25","place":"豊田市産業文化センター小ホール","lat":35.0868,"lon":137.152,"state":"active","id":null},{"event_id":"731807","title":"【魔女☆Maison講座】西洋神秘学伝統による浄化と防御","url":"http://peatix.com/event/731807","shortener_url":null,"started_at":"2019-08-11T04:00:00.000+09:00","ended_at":"2019-08-13T23:59:59.000+09:00","limit_number":null,"address":"千葉県浦安市北栄1-15-10","place":"魔女☆Maison 本店","lat":35.6655,"lon":139.894,"state":"active","id":null},{"event_id":"731828","title":"【魔女☆Maison講座】ヘイズ中村『タロット初級講座（ライダーウエイト版）』（第三回）","url":"http://peatix.com/event/731828","shortener_url":null,"started_at":"2019-08-24T04:00:00.000+09:00","ended_at":"2019-08-26T23:59:59.000+09:00","limit_number":null,"address":"千葉県浦安市北栄1-15-10","place":"魔女☆Maison 本店","lat":35.6655,"lon":139.894,"state":"active","id":null},{"event_id":"731827","title":"【魔女☆Maison講座】ヘイズ中村『タロット初級講座（ライダーウエイト版）』（第二回）","url":"http://peatix.com/event/731827","shortener_url":null,"started_at":"2019-08-03T04:00:00.000+09:00","ended_at":"2019-08-05T23:59:59.000+09:00","limit_number":null,"address":"千葉県浦安市北栄1-15-10","place":"魔女☆Maison 本店","lat":35.6655,"lon":139.894,"state":"active","id":null},{"event_id":"710228","title":"【FortunaMoon・神秘の大学院】水晶球霊視講座","url":"http://peatix.com/event/710228","shortener_url":null,"started_at":"2019-08-09T09:00:00.000+09:00","ended_at":"2019-08-11T23:59:59.000+09:00","limit_number":null,"address":"東京都千代田区外神田1-18-19 新秋葉原ビル","place":"マイスペース　秋葉原電気街口店","lat":35.6988,"lon":139.772,"state":"active","id":null},{"event_id":"136266","title":"日本一熱い合宿！2019の夏、日本の起業、ここから着火","url":"https://biosbootcamp.connpass.com/event/136266/","shortener_url":"https://bit.ly/2XnfqoA","started_at":"2019-08-24T10:30:00.000+09:00","ended_at":"2019-08-25T18:00:00.000+09:00","limit_number":20,"address":"千葉県香取郡東庄町笹川い６２４","place":"土善旅館","lat":35.845,"lon":140.662,"state":"active","id":null},{"event_id":"642050","title":"子どもアドベンチャー2019 ~ No.11 結婚式ってなんだろう？~","url":"http://anniversaire-kodomo-adventure2019.peatix.com","shortener_url":null,"started_at":"2019-08-15T01:00:00.000+09:00","ended_at":"2019-08-17T23:59:59.000+09:00","limit_number":null,"address":"神奈川県横浜市中区新港2-1-4","place":"アニヴェルセル みなとみらい横浜","lat":35.4545,"lon":139.636,"state":"active","id":null},{"event_id":"702196","title":"＼遊びから得られる学びは無限大！／\"音楽の力\"で、子どもの可能性を伸ばしてみませんか？","url":"http://peatix.com/event/702196","shortener_url":null,"started_at":"2019-08-18T02:30:00.000+09:00","ended_at":"2019-08-20T23:59:59.000+09:00","limit_number":null,"address":"神奈川県川崎市新丸子町749-6 GSハイム102","place":"武蔵小杉会場【レッスンスタジオ「話芸写」】","lat":35.5804,"lon":139.66,"state":"active","id":null},{"event_id":"687004","title":"【ガイド実務研修（2回目）】千葉市 ガイド希望者向け ～あなただけの千葉市を紹介しませんか？～","url":"http://sharechiba0804am.peatix.com","shortener_url":null,"started_at":"2019-08-04T01:00:00.000+09:00","ended_at":"2019-08-06T23:59:59.000+09:00","limit_number":null,"address":"千葉県千葉市中央区栄町35-14","place":"ハロー会議室千葉(シンテイ千葉ビル3F)","lat":35.6118,"lon":140.12,"state":"active","id":null},{"event_id":"702197","title":"＼遊びから得られる学びは無限大！／\"音楽の力\"で、コミュニケーションや表現力を伸ばしてみませんか？","url":"http://peatix.com/event/702197","shortener_url":null,"started_at":"2019-08-25T02:30:00.000+09:00","ended_at":"2019-08-27T23:59:59.000+09:00","limit_number":null,"address":"神奈川県川崎市新丸子町749-6 GSハイム102","place":"武蔵小杉会場【レッスンスタジオ「話芸写」】","lat":35.5804,"lon":139.66,"state":"active","id":null},{"event_id":"686995","title":"【ホームシェア実務研修（2回目）】千葉市 ホームシェアホスト希望者向け ～新しい出会いと交流を楽しみませんか？～","url":"http://sharechiba0804pm.peatix.com","shortener_url":null,"started_at":"2019-08-04T04:30:00.000+09:00","ended_at":"2019-08-06T23:59:59.000+09:00","limit_number":null,"address":"千葉県千葉市中央区栄町35-14","place":"ハロー会議室千葉(シンテイ千葉ビル3F)","lat":35.6118,"lon":140.12,"state":"active","id":null},{"event_id":"727307","title":"★無料★［8/10(土)］「聴き上手」の【コミュ力美人】を目指しませんか？＜ＢＣＯＰ（ビジネスコミュニケーション最適化）基礎セミナー＞","url":"http://peatix.com/event/727307","shortener_url":null,"started_at":"2019-08-10T05:00:00.000+09:00","ended_at":"2019-08-12T23:59:59.000+09:00","limit_number":null,"address":"東京都千代田区神田錦町3-21","place":"ちよだプラットフォームスクウェア本館 B1F ミーティングルーム","lat":35.6915,"lon":139.762,"state":"active","id":null},{"event_id":"728672","title":"マラソン20km以降で腰が痛くなる反り腰女性ランナーのための改善講座(室内。走りません)　皇居RUNCUBE","url":"http://peatix.com/event/728672","shortener_url":null,"started_at":"2019-08-17T03:30:00.000+09:00","ended_at":"2019-08-19T23:59:59.000+09:00","limit_number":null,"address":"東京都千代田区神田錦町3-21","place":"【集合/受付】ランニングステーションRUNCUBE","lat":35.6915,"lon":139.762,"state":"active","id":null},{"event_id":"728641","title":"マラソンランナーのための下り坂・下り階段で膝痛を感じる方の改善セミナー(室内スタジオ。走りません) 皇居RUNCUBE","url":"http://peatix.com/event/728641","shortener_url":null,"started_at":"2019-08-04T03:30:00.000+09:00","ended_at":"2019-08-06T23:59:59.000+09:00","limit_number":null,"address":"東京都千代田区神田錦町3-21","place":"【集合/受付】ランニングステーションRUNCUBE","lat":35.6915,"lon":139.762,"state":"active","id":null},{"event_id":"707601","title":"石巻HACKATHON 2019","url":"http://ishinomakihack2019.peatix.com","shortener_url":"https://bit.ly/2JhKhck","started_at":"2019-08-16T05:00:00.000+09:00","ended_at":"2019-08-18T23:59:59.000+09:00","limit_number":null,"address":"宮城県石巻市中央2丁目7−3","place":"アイトピアホール","lat":38.4303,"lon":141.308,"state":"active","id":null},{"event_id":"737193","title":"石巻HACKATHON 2019 - ITBootcamp部門","url":"http://ishinomakihack2019-itb.peatix.com","shortener_url":"https://bit.ly/2XlXGKi","started_at":"2019-08-16T05:00:00.000+09:00","ended_at":"2019-08-18T23:59:59.000+09:00","limit_number":null,"address":"宮城県石巻市中央2丁目7−3","place":"アイトピアホール","lat":38.4303,"lon":141.308,"state":"active","id":null},{"event_id":"687229","title":"【満員御礼】【#複活 キックオフ説明会】地域複業をはじめませんか？ ～#複活 働き方に彩りを。～","url":"http://fukukatsu-setsumeikai0806.peatix.com","shortener_url":null,"started_at":"2019-08-06T10:00:00.000+09:00","ended_at":"2019-08-08T23:59:59.000+09:00","limit_number":null,"address":"千代田区大手町2丁目6−2","place":"TRAVEL HUB MIX","lat":35.685,"lon":139.77,"state":"active","id":null},{"event_id":"138244","title":"【北九州】UX JAM in KITAKYUSHU 03【増枠】","url":"https://uxmilk.connpass.com/event/138244/","shortener_url":null,"started_at":"2019-08-05T10:30:00.000+09:00","ended_at":"2019-08-05T13:00:00.000+09:00","limit_number":40,"address":"〒802-0001　北九州市小倉北区浅野3丁目8番1号 AIM（アジア太平洋インポートマート）ビル6階","place":"COMPASS小倉","lat":33.8895,"lon":130.886,"state":"active","id":null},{"event_id":"94147","title":"Startup Weekend Kyoto International","url":"https://swkyoto.doorkeeper.jp/events/94147","shortener_url":null,"started_at":"2019-08-30T09:30:00.000+09:00","ended_at":"2019-09-01T12:00:00.000+09:00","limit_number":50,"address":"East Building No. 3 Matsugasaki Hashikamichō Sakyō-ku, Kyōto-shi, Kyōto-fu 606-0951","place":"Kyoto Institute of Technology Notre Dame Building (East Building 3)","lat":null,"lon":null,"state":"active","id":null},{"event_id":"734081","title":"STARRY NIGHT JAM vol.43 高井 研スペシャルトーク　～「いのちの始まり」に迫る極限環境生命研究～","url":"http://snj43.peatix.com","shortener_url":null,"started_at":"2019-08-03T07:30:00.000+09:00","ended_at":"2019-08-05T23:59:59.000+09:00","limit_number":null,"address":"福岡市中央区六本松4丁目2−1","place":"福岡市科学館","lat":33.5774,"lon":130.378,"state":"active","id":null},{"event_id":"137429","title":"[ Math \u0026 Coding ]  夏合宿 ＃2 ( 神戸 )","url":"https://math-coding.connpass.com/event/137429/","shortener_url":null,"started_at":"2019-08-02T01:00:00.000+09:00","ended_at":"2019-08-04T08:00:00.000+09:00","limit_number":8,"address":"兵庫県神戸市中央区三宮町3-1-16(三星ビル４F南室)","place":"DEP.(三星ビル4階南室)","lat":34.6894,"lon":135.191,"state":"active","id":null},{"event_id":"94470","title":"【受付終了】デザイン思考体験アイディアソン「ぼく・わたしの考えるワクワクする算数・数学教育」in 算数夏祭り2019","url":"https://c1d9453ee6916d7a5f8316e3cd.doorkeeper.jp/events/94470","shortener_url":"https://bit.ly/2XvhT05","started_at":"2019-08-14T09:30:00.000+09:00","ended_at":"2019-08-14T12:00:00.000+09:00","limit_number":0,"address":"京都市下京区西洞院通塩小路下る東塩小路町939","place":"キャンパスプラザ京都 第4講義室","lat":null,"lon":null,"state":"active","id":null},{"event_id":"138759","title":"第9回 HAKATA.swift 合宿編 ~夏だ、海だ、Swiftだ、Pythonだ！~","url":"https://hakata-swift.connpass.com/event/138759/","shortener_url":"https://bit.ly/2JxcHPz","started_at":"2019-08-24T01:00:00.000+09:00","ended_at":"2019-08-24T10:00:00.000+09:00","limit_number":20,"address":"福岡県福岡市西区今宿駅前１丁目１５−１８ マリブ今宿シーサイドテラス","place":"シェアオフィス SALT  2F","lat":33.5817,"lon":130.275,"state":"active","id":null},{"event_id":"139070","title":"2-day ALife Game Jam in Nagoya University","url":"https://nu-info.connpass.com/event/139070/","shortener_url":"https://bit.ly/2XzOphT","started_at":"2019-08-19T04:30:00.000+09:00","ended_at":"2019-08-20T10:00:00.000+09:00","limit_number":40,"address":"〒464-0000 愛知県名古屋市千種区不老町","place":"名古屋大学　情報学研究科棟","lat":35.1559,"lon":136.964,"state":"active","id":null},{"event_id":"133736","title":"【増席】AI勉強会～Actionable AI～ vol.2","url":"https://aai.connpass.com/event/133736/","shortener_url":null,"started_at":"2019-08-21T10:00:00.000+09:00","ended_at":"2019-08-21T13:00:00.000+09:00","limit_number":153,"address":"〒108-0075 東京都港区港南1-8-23 Shinagawa HEART 5F","place":"MACNICA 品川オフィス","lat":35.6296,"lon":139.745,"state":"active","id":null},{"event_id":"852665","title":"「実践」と「学び」を通じて、革新的新薬・医療の創出に参加しませんか？仕事と並行できる Blockbuster TOKYO事業創出サポーター【説明会】","url":"http://bbt20190807.peatix.com","shortener_url":null,"started_at":"2019-08-07T10:00:00.000+09:00","ended_at":"2019-08-09T23:59:59.000+09:00","limit_number":null,"address":"東京都中央区日本橋本町1-4-3","place":"日本橋ムロホンビル1（会場5F）","lat":35.6863,"lon":139.776,"state":"active","id":null},{"event_id":"742694","title":"小学校を選びませんか!!（国立小学校合格勉強会） 　　8/7（水）12:15～13:45","url":"http://peatix.com/event/742694","shortener_url":null,"started_at":"2019-08-07T03:15:00.000+09:00","ended_at":"2019-08-09T23:59:59.000+09:00","limit_number":null,"address":"世田谷区太子堂1丁目7−57","place":"昭和女子大学","lat":35.6454,"lon":139.675,"state":"active","id":null},{"event_id":"139028","title":"第21回勉強会　Azure Machine Learning","url":"https://machine-learning.connpass.com/event/139028/","shortener_url":null,"started_at":"2019-08-31T04:00:00.000+09:00","ended_at":"2019-08-31T07:30:00.000+09:00","limit_number":85,"address":"名古屋市中村区名駅1-1-4 JRセントラルタワーズ50階","place":"ヤフー名古屋","lat":35.166,"lon":136.91,"state":"active","id":null},{"event_id":"139194","title":"MCH+Hackathon #1  NFTを用いたゲーム制作！","url":"https://mchplus.connpass.com/event/139194/","shortener_url":"https://bit.ly/2k3OAiZ","started_at":"2019-08-10T00:00:00.000+09:00","ended_at":"2019-08-10T11:30:00.000+09:00","limit_number":45,"address":"東京都渋谷区桜丘町１２−１０","place":"ニュートリノ","lat":35.6544,"lon":139.701,"state":"active","id":null},{"event_id":"737863","title":"予約リストをあなたの大好きなお客様でいっぱいにしませんか","url":"http://monte-beauty190813.peatix.com","shortener_url":null,"started_at":"2019-08-13T05:45:00.000+09:00","ended_at":"2019-08-15T23:59:59.000+09:00","limit_number":null,"address":"文京区湯島3丁目46−2 長谷部ビル2階","place":"ビアバルボラッチョ","lat":35.7083,"lon":139.771,"state":"active","id":null},{"event_id":"737882","title":"予約リストをあなたの大好きなお客様でいっぱいにしませんか","url":"http://monte-beauty190827.peatix.com","shortener_url":null,"started_at":"2019-08-27T05:45:00.000+09:00","ended_at":"2019-08-29T23:59:59.000+09:00","limit_number":null,"address":"文京区湯島3丁目46−2 長谷部ビル2階","place":"ビアバルボラッチョ","lat":35.7083,"lon":139.771,"state":"active","id":null},{"event_id":"931498","title":"京都天狼院の夏休み！禁断の「怖い話大会」ゾクッとする話で盛り上がれ！…何が起きるかは分かりません…《初参加大歓迎♬》","url":"http://peatix.com/event/931498","shortener_url":null,"started_at":"2019-08-02T10:30:00.000+09:00","ended_at":"2019-08-04T23:59:59.000+09:00","limit_number":null,"address":"京都市東山区博多町112−5","place":"京都天狼院","lat":35.0017,"lon":135.773,"state":"active","id":null},{"event_id":"139793","title":"わたし達の未来をつくるアイデアソン【身体障害を持つ方編】","url":"https://connpass.com/event/139793/","shortener_url":"https://bit.ly/2JM4mrA","started_at":"2019-08-17T01:00:00.000+09:00","ended_at":"2019-08-17T08:00:00.000+09:00","limit_number":30,"address":"〒651-0072 兵庫県神戸市中央区脇浜町1-2-8","place":"兵庫国際交流会館 研修室1","lat":34.7032,"lon":135.215,"state":"active","id":null},{"event_id":"139804","title":"わたし達の未来をつくるハッカソン【身体障害を持つ方編】","url":"https://connpass.com/event/139804/","shortener_url":"https://bit.ly/2JKGwfR","started_at":"2019-08-25T01:00:00.000+09:00","ended_at":"2019-08-25T08:00:00.000+09:00","limit_number":30,"address":"〒651-0072 兵庫県神戸市中央区脇浜町1-2-8","place":"兵庫国際交流会館 研修室1","lat":34.7032,"lon":135.215,"state":"active","id":null},{"event_id":"139769","title":"【東京】UX JAM' 01 - UX Girls Special - 【増枠】","url":"https://uxmilk.connpass.com/event/139769/","shortener_url":null,"started_at":"2019-08-06T10:30:00.000+09:00","ended_at":"2019-08-06T13:00:00.000+09:00","limit_number":180,"address":"東京都中央区晴海1-8-10晴海アイランド トリトンスクエアオフィスタワーX 37階","place":"株式会社メンバーズ　ラウンジスペース","lat":35.6597,"lon":139.785,"state":"active","id":null},{"event_id":"139763","title":"子どものためのプログラミングクラブ コーダー道場韮崎 #4","url":"https://coderdojo-nirasaki.connpass.com/event/139763/","shortener_url":null,"started_at":"2019-08-10T04:30:00.000+09:00","ended_at":"2019-08-10T06:40:00.000+09:00","limit_number":13,"address":"山梨県韮崎市若宮一丁目2番50号","place":"韮崎市民交流センター","lat":35.7117,"lon":138.45,"state":"active","id":null},{"event_id":"139762","title":"子どものためのプログラミングクラブ コーダー道場北杜 #4","url":"https://coderdojo-hokuto.connpass.com/event/139762/","shortener_url":null,"started_at":"2019-08-10T00:30:00.000+09:00","ended_at":"2019-08-10T02:40:00.000+09:00","limit_number":8,"address":"山梨県北杜市高根町村山北割３２８８","place":"北杜市高根町農村環境改善センター","lat":35.8375,"lon":138.412,"state":"active","id":null},{"event_id":"94802","title":"a-blog cms 勉強会 in 大阪 2019/08","url":"https://ablogcms-osaka.doorkeeper.jp/events/94802","shortener_url":null,"started_at":"2019-08-07T05:00:00.000+09:00","ended_at":"2019-08-07T09:00:00.000+09:00","limit_number":14,"address":"大阪市淀川区十三東1-17-13 水交ビル 1F","place":"JUSO COWORKING","lat":null,"lon":null,"state":"active","id":null},{"event_id":"736005","title":"NEIGHBORS COMPLAIN “Loose Note Jam”","url":"http://nui20190821.peatix.com","shortener_url":null,"started_at":"2019-08-21T10:30:00.000+09:00","ended_at":"2019-08-23T23:59:59.000+09:00","limit_number":null,"address":"台東区蔵前2丁目14−13","place":"Nui. HOSTEL \u0026 BAR LOUNGE","lat":35.7039,"lon":139.793,"state":"active","id":null},{"event_id":"94857","title":"【8/7（水）・14（水）】初心者向け・２回で学ぶシリーズ①『PythonとJupyterNotebookの基礎』","url":"https://soleildatadojo.doorkeeper.jp/events/94857","shortener_url":null,"started_at":"2019-08-07T10:30:00.000+09:00","ended_at":"2019-08-14T12:30:00.000+09:00","limit_number":10,"address":"大阪府大阪市北区西天満二丁目5番3号(堂島深川ビル3階)","place":"SCRIBBLE OSAKA LAB（SOL）（大阪メトロ御堂筋線「淀屋橋」駅から徒歩４分）","lat":null,"lon":null,"state":"active","id":null},{"event_id":"94859","title":"【8/21（水）・8/28（水）】初心者向け・２回で学ぶシリーズ②『Pandasによるデータ前処理と可視化の基礎』","url":"https://soleildatadojo.doorkeeper.jp/events/94859","shortener_url":null,"started_at":"2019-08-21T10:30:00.000+09:00","ended_at":"2019-08-28T12:30:00.000+09:00","limit_number":8,"address":"大阪府大阪市北区西天満二丁目5番3号(堂島深川ビル3階)","place":"SCRIBBLE OSAKA LAB（SOL）（大阪メトロ御堂筋線「淀屋橋」駅から徒歩４分）","lat":null,"lon":null,"state":"active","id":null},{"event_id":"736621","title":"１の１NONOICHI じょんからフェス 2019","url":"http://peatix.com/event/736621","shortener_url":null,"started_at":"2019-08-03T03:00:00.000+09:00","ended_at":"2019-08-05T23:59:59.000+09:00","limit_number":null,"address":"石川県野々市市本町2丁目1-20","place":"にぎわいの里ののいち カミーノ","lat":36.5326,"lon":136.618,"state":"active","id":null},{"event_id":"140088","title":"【8/10-11】LINE Things Mini Award ハッカソン東京","url":"https://linedev.connpass.com/event/140088/","shortener_url":"https://bit.ly/2XUsa6r","started_at":"2019-08-10T01:00:00.000+09:00","ended_at":"2019-08-11T09:00:00.000+09:00","limit_number":40,"address":"東京都新宿区新宿四丁目1番6号 ( JR新宿ミライナタワー23階 )","place":"LINE株式会社","lat":35.6888,"lon":139.702,"state":"active","id":null},{"event_id":"139812","title":"AROW Hackathon 〜マップゲーム開発ハッカソン〜","url":"https://arow-3dmap.connpass.com/event/139812/","shortener_url":"https://bit.ly/2JPOVi7","started_at":"2019-08-31T02:00:00.000+09:00","ended_at":"2019-09-01T11:30:00.000+09:00","limit_number":20,"address":"東京都目黒区下目黒１−８−１アルコタワー１７階","place":"株式会社ドリコム本社のセミナールーム","lat":35.6315,"lon":139.714,"state":"active","id":null},{"event_id":"94896","title":"【レベルと目的に応じて2冊の本で学ぶ】DeepLearning勉強会#4","url":"https://soleildatadojo.doorkeeper.jp/events/94896","shortener_url":null,"started_at":"2019-08-08T10:30:00.000+09:00","ended_at":"2019-08-08T12:30:00.000+09:00","limit_number":6,"address":"大阪府大阪市北区西天満二丁目5番3号(堂島深川ビル3階)","place":"SCRIBBLE OSAKA LAB（SOL）（大阪メトロ御堂筋線「淀屋橋」駅から徒歩４分）","lat":null,"lon":null,"state":"active","id":null},{"event_id":"874414","title":"新潟で農業・林業を始めませんか？～新規就農・就業チャレンジフェア～","url":"http://syuunoufair.peatix.com","shortener_url":null,"started_at":"2019-08-03T04:00:00.000+09:00","ended_at":"2019-08-05T23:59:59.000+09:00","limit_number":null,"address":"新潟市中央区弁天2-1-6","place":"新潟東映ホテル","lat":37.9147,"lon":139.059,"state":"active","id":null},{"event_id":"1012954","title":"【こちらの募集は停止しております。】次世代の組織の形を鮮やかに描き出す、『ティール組織』を読む。８月の「本で遊ぶじかん」","url":"http://sugoi201908.peatix.com","shortener_url":null,"started_at":"2019-08-21T10:00:00.000+09:00","ended_at":"2019-08-23T23:59:59.000+09:00","limit_number":null,"address":"〒107-0061東京都港区北青山3-6-23 青山ダイハンビル10階","place":"SUGOI","lat":35.6644,"lon":139.711,"state":"active","id":null},{"event_id":"94763","title":"【沼津市戸田開催】海を見ながら語り合おう！　〜SW Tokyo Marine プレイベント〜","url":"https://swtokyo.doorkeeper.jp/events/94763","shortener_url":null,"started_at":"2019-08-12T02:30:00.000+09:00","ended_at":"2019-08-13T01:00:00.000+09:00","limit_number":10,"address":"","place":"沼津市戸田","lat":null,"lon":null,"state":"active","id":null},{"event_id":"95032","title":"【君もベイジアンになろう！】Bayes勉強会#4","url":"https://soleildatadojo.doorkeeper.jp/events/95032","shortener_url":null,"started_at":"2019-08-06T10:30:00.000+09:00","ended_at":"2019-08-06T12:30:00.000+09:00","limit_number":8,"address":"大阪府大阪市北区西天満二丁目5番3号(堂島深川ビル3階)","place":"SCRIBBLE OSAKA LAB（SOL）（大阪メトロ御堂筋線「淀屋橋」駅から徒歩４分）","lat":null,"lon":null,"state":"active","id":null},{"event_id":"139809","title":"IoT Maker's  in 北九州×女子だらけの電子工作 @GarrawayF","url":"https://jyoshidarake.connpass.com/event/139809/","shortener_url":null,"started_at":"2019-08-06T19:00:00.000+09:00","ended_at":"2019-08-06T22:00:00.000+09:00","limit_number":20,"address":"〒810-0001 福岡県福岡市中央区天神1-7-11 イムズ地下1F","place":"GarrawayF","lat":33.5902,"lon":130.4,"state":"active","id":null},{"event_id":"701178","title":"2019年度夏合宿","url":"http://poker2019.peatix.com","shortener_url":null,"started_at":"2019-08-24T03:00:00.000+09:00","ended_at":"2019-08-26T23:59:59.000+09:00","limit_number":null,"address":"東伊豆町稲取3349−1","place":"伊豆稲取スポーツヴィラ","lat":34.7925,"lon":139.042,"state":"active","id":null},{"event_id":"822845","title":"リンクス日曜 趣味のじかん　北浜アナログゲームエキスポ#004","url":"http://peatix.com/event/822845","shortener_url":null,"started_at":"2019-08-25T04:00:00.000+09:00","ended_at":"2019-08-27T23:59:59.000+09:00","limit_number":null,"address":"大阪市中央区中央区今橋2丁目3−16","place":"THE LINKS KITAHAMA","lat":34.6904,"lon":135.505,"state":"active","id":null},{"event_id":"832749","title":"【渋谷区観光協会×Stayway】あなたの素敵な写真やおすすめスポットを100万人以上の旅行者に届けませんか？","url":"http://peatix.com/event/832749","shortener_url":null,"started_at":"2019-08-05T10:00:00.000+09:00","ended_at":"2019-08-07T23:59:59.000+09:00","limit_number":null,"address":"渋谷区道玄坂1丁目12−1","place":"クリエーションスクエアしぶや","lat":35.6578,"lon":139.697,"state":"active","id":null},{"event_id":"140331","title":"【東工大Attic Lab × メンヘラテクノロジー】脱！病み期テクノロジーを考えるアイディアソン","url":"https://connpass.com/event/140331/","shortener_url":"https://bit.ly/2XXxfL6","started_at":"2019-08-10T08:00:00.000+09:00","ended_at":"2019-08-10T11:30:00.000+09:00","limit_number":28,"address":"東京都目黒区大岡山2-12-1","place":"東京工業大学 大岡山キャンパス AtticLab（第一食堂2階）","lat":35.6062,"lon":139.684,"state":"active","id":null},{"event_id":"1008161","title":"行って感じて創る合宿！～岩手県八幡平市で2泊3日のはたらく旅人体験　説明会～【交通費補助・報酬有】","url":"http://peatix.com/event/1008161","shortener_url":"https://bit.ly/2JVOHWC","started_at":"2019-08-07T10:00:00.000+09:00","ended_at":"2019-08-09T23:59:59.000+09:00","limit_number":null,"address":"東京都渋谷区渋谷2丁目22-3","place":"ランサーズ新しい働き方LAB（渋谷東口ビル 11F）","lat":35.6587,"lon":139.704,"state":"active","id":null},{"event_id":"976963","title":"■再：満員御礼！■【#複活 キックオフ説明会in横浜関内】横浜で複業をはじめませんか？ ～#複活 働き方に彩りを。～","url":"http://fukuktsu-setsumeikaikannai0802.peatix.com","shortener_url":null,"started_at":"2019-08-02T10:00:00.000+09:00","ended_at":"2019-08-04T23:59:59.000+09:00","limit_number":null,"address":"横浜市中区尾上町3−35 3F","place":"G Innovation Hub YOKOHAMA シェアオフィス・コワーキングスペース","lat":35.4457,"lon":139.636,"state":"active","id":null},{"event_id":"134689","title":"Agile Japan 2019 サテライト 香川","url":"https://agile459.connpass.com/event/134689/","shortener_url":null,"started_at":"2019-08-31T01:45:00.000+09:00","ended_at":"2019-08-31T08:30:00.000+09:00","limit_number":30,"address":"香川県高松市サンポート2番1号(高松シンボルタワー タワー棟4･5階)","place":"e-とぴあ・かがわ ＢＢスクエア","lat":34.3527,"lon":134.047,"state":"active","id":null},{"event_id":"1057780","title":"抹茶に味の違いがあったんだ！真夏の闘茶あそび","url":"http://tochagogo.peatix.com","shortener_url":null,"started_at":"2019-08-04T04:30:00.000+09:00","ended_at":"2019-08-06T23:59:59.000+09:00","limit_number":null,"address":"金沢市出羽町1−1","place":"石川県立美術館広坂別館","lat":36.5609,"lon":136.661,"state":"active","id":null},{"event_id":"896867","title":"組織の業績が向上する! 仕事やプライベートで 成功を手に入れる! すごい能力開発方法を 試してみませんか?","url":"http://peatix.com/event/896867","shortener_url":null,"started_at":"2019-08-31T00:30:00.000+09:00","ended_at":"2019-09-02T23:59:59.000+09:00","limit_number":null,"address":"西宮市甲東園1丁目1−6","place":"IDECOLABO","lat":34.7663,"lon":135.36,"state":"active","id":null},{"event_id":"140814","title":"智恵の和勉強会","url":"https://connpass.com/event/140814/","shortener_url":null,"started_at":"2019-08-03T04:00:00.000+09:00","ended_at":"2019-08-03T08:00:00.000+09:00","limit_number":null,"address":"東京都港区港南 2-16-3 品川グランドセントラルタワー","place":"マイクロソフト品川本社","lat":35.6267,"lon":139.74,"state":"active","id":null},{"event_id":"1070551","title":"はっとり♡かんなの似顔絵やさんinアンサングヒーローフラグショップ","url":"http://hattori-kanna-0827-0830.peatix.com","shortener_url":null,"started_at":"2019-08-27T05:00:00.000+09:00","ended_at":"2019-08-29T23:59:59.000+09:00","limit_number":null,"address":"渋谷区神宮前1丁目11−6","place":"ラフォーレ原宿ショッピングセンター","lat":35.6691,"lon":139.705,"state":"active","id":null},{"event_id":"924904","title":"【無料】かわいいアイコンやピクトを並べるだけの #シンポンチ絵 ワークショップ( #スケッチノート朝活 シリーズ)","url":"http://peatix.com/event/924904","shortener_url":null,"started_at":"2019-08-04T00:00:00.000+09:00","ended_at":"2019-08-06T23:59:59.000+09:00","limit_number":null,"address":"渋谷区道玄坂2丁目10−7 2F 新大宗ビル1号館","place":"BOOK LAB TOKYO - 書店とコーヒースタンド 渋谷店","lat":35.6583,"lon":139.697,"state":"active","id":null},{"event_id":"1050355","title":"02【東京8月開催】UIデザインの常識を改める「認知学から学ぶUIの基本」","url":"http://peatix.com/event/1050355","shortener_url":null,"started_at":"2019-08-04T04:00:00.000+09:00","ended_at":"2019-08-06T23:59:59.000+09:00","limit_number":null,"address":"千代田区神田鍛冶町3丁目2−2","place":"エッサム神田ホール1号館","lat":35.6935,"lon":139.771,"state":"active","id":null},{"event_id":"1050418","title":"【東京体験版8月】初心者歓迎！他では絶対教えてくれない！楽しく学ぶユーザー視点のUIデザイン","url":"http://peatix.com/event/1050418","shortener_url":null,"started_at":"2019-08-02T10:00:00.000+09:00","ended_at":"2019-08-04T23:59:59.000+09:00","limit_number":null,"address":"千代田区内神田3丁目24−5","place":"エッサム神田ホール２号館","lat":35.6925,"lon":139.769,"state":"active","id":null},{"event_id":"140663","title":"スクラム道関西 オープン・ジャム","url":"https://scrumdo-kansai.connpass.com/event/140663/","shortener_url":null,"started_at":"2019-08-06T10:30:00.000+09:00","ended_at":"2019-08-06T12:30:00.000+09:00","limit_number":25,"address":"大阪府大阪市北区末広町3-7","place":"TAM COWORKING OSAKA","lat":34.7019,"lon":135.51,"state":"active","id":null},{"event_id":"1089913","title":"“コミュニティビルダー”集中ゼミ Vol.2 開講！ - 「コミュニティづくり」や「まちづくり」を体感できる 2Days 短期合宿 -","url":"http://peatix.com/event/1089913","shortener_url":"https://bit.ly/2LHTf6o","started_at":"2019-08-31T02:00:00.000+09:00","ended_at":"2019-09-02T23:59:59.000+09:00","limit_number":null,"address":"横浜市中区日ノ出町2丁目166先","place":"タイニーズ 横浜日ノ出町 / Tinys Yokohama Hinodecho","lat":35.4433,"lon":139.627,"state":"active","id":null},{"event_id":"141085","title":"ONE JAPAN Creators Meetup #3","url":"https://onejapanhackathon.connpass.com/event/141085/","shortener_url":"https://bit.ly/313cbjz","started_at":"2019-08-15T10:00:00.000+09:00","ended_at":"2019-08-15T12:00:00.000+09:00","limit_number":15,"address":"東京都港区南青山１丁目１ (Shin Aoyama Building East 23rd floor)","place":"McCann Worldgroup Holdings Japan Inc.","lat":35.6725,"lon":139.725,"state":"active","id":null},{"event_id":"95324","title":"Jasmy IDEATHON vol.02〜IoT × ブロックチェーンで未来ビジネスを創出するアイデアソン〜","url":"https://jasmy-league.doorkeeper.jp/events/95324","shortener_url":"https://bit.ly/2LHd5hW","started_at":"2019-08-29T04:00:00.000+09:00","ended_at":"2019-08-29T08:30:00.000+09:00","limit_number":null,"address":"東京都千代田区内幸町1丁目3-1","place":"TKP新橋カンファレンスセンター ホール13C","lat":null,"lon":null,"state":"active","id":null},{"event_id":"1135103","title":"【8/25 山梨】【47都道府県旅大学】ぶっカフェ in山梨　〜今見えてるあなたの世界変えてみませんか？〜","url":"http://peatix.com/event/1135103","shortener_url":null,"started_at":"2019-08-25T06:00:00.000+09:00","ended_at":"2019-08-27T23:59:59.000+09:00","limit_number":null,"address":"Japan","place":"シェアスペースiira","lat":35.6618,"lon":138.574,"state":"active","id":null},{"event_id":"137080","title":"道東×IoT・クラウドハッカソン 令和元年秋の陣","url":"https://kushirohack.connpass.com/event/137080/","shortener_url":"https://bit.ly/2LMBSkP","started_at":"2019-08-31T00:00:00.000+09:00","ended_at":"2019-09-01T08:00:00.000+09:00","limit_number":45,"address":"北海道釧路市鳥取南７丁目２−２３","place":"釧路工業技術センター","lat":43.0124,"lon":144.339,"state":"active","id":null},{"event_id":"141271","title":"アイディアで北海道の未来を刻もう【アイディアソン】","url":"https://connpass.com/event/141271/","shortener_url":"https://bit.ly/313ZuVO","started_at":"2019-08-04T01:00:00.000+09:00","ended_at":"2019-08-04T10:00:00.000+09:00","limit_number":15,"address":"札幌市白石区東札幌5条1丁目1-1","place":"インタークロス・クリエ イティブ・センター","lat":43.0562,"lon":141.386,"state":"active","id":null},{"event_id":"141248","title":"子ども向けプログラミングクラブ コーダー道場甲府#25","url":"https://coderdojokofu.connpass.com/event/141248/","shortener_url":null,"started_at":"2019-08-31T04:20:00.000+09:00","ended_at":"2019-08-31T06:40:00.000+09:00","limit_number":13,"address":"山梨県甲府市北口２丁目８番１号","place":"山梨県立図書館","lat":35.6685,"lon":138.57,"state":"active","id":null},{"event_id":"140196","title":"第26回　CoderDojo横浜","url":"https://coderdojo-yokohama.connpass.com/event/140196/","shortener_url":null,"started_at":"2019-08-12T01:00:00.000+09:00","ended_at":"2019-08-12T03:00:00.000+09:00","limit_number":null,"address":"神奈川県横浜市神奈川区鶴屋町2-24-2","place":"かながわ県民センター","lat":35.4684,"lon":139.621,"state":"active","id":null},{"event_id":"95632","title":"GAN（敵対的生成ネットワーク）勉強会#1","url":"https://soleildatadojo.doorkeeper.jp/events/95632","shortener_url":null,"started_at":"2019-08-04T04:30:00.000+09:00","ended_at":"2019-08-04T06:00:00.000+09:00","limit_number":5,"address":"大阪市北区西天満2丁目5-3堂島深川ビル3F","place":"","lat":null,"lon":null,"state":"active","id":null},{"event_id":"95639","title":"【大阪開催】みんなでKaggleもくもく会#3","url":"https://soleildatadojo.doorkeeper.jp/events/95639","shortener_url":null,"started_at":"2019-08-25T04:00:00.000+09:00","ended_at":"2019-08-25T07:30:00.000+09:00","limit_number":10,"address":"大阪府大阪市北区西天満二丁目5番3号(堂島深川ビル3階)","place":"SCRIBBLE OSAKA LAB（SOL）（大阪メトロ御堂筋線「淀屋橋」駅から徒歩４分）","lat":null,"lon":null,"state":"active","id":null},{"event_id":"1009748","title":"【満員御礼】8月24日（土）13：00~16:00　かものはしで一緒にボランティアをしませんか？@恵比寿","url":"http://peatix.com/event/1009748","shortener_url":null,"started_at":"2019-08-24T04:00:00.000+09:00","ended_at":"2019-08-26T23:59:59.000+09:00","limit_number":null,"address":"東京都渋谷区広尾5-23-5 長谷部第一ビル402号室","place":"かものはしプロジェクト事務所（恵比寿）","lat":35.6485,"lon":139.718,"state":"active","id":null},{"event_id":"755392","title":"焼肉好き集合！年に1度の【ミートフェス】〜黒毛和牛プレミアムシークレットコース〜","url":"http://nikunotsudoiyakinikunohi.peatix.com","shortener_url":null,"started_at":"2019-08-29T10:30:00.000+09:00","ended_at":"2019-08-31T23:59:59.000+09:00","limit_number":null,"address":"港区港区新橋2丁目5−6 B1F 大村ビル","place":"黒毛和牛敷島 新橋店｜高級焼肉（個室）","lat":35.6675,"lon":139.756,"state":"active","id":null},{"event_id":"141283","title":"みんなでAIアプリを作ってAzure AI Hackathon入賞を目指す会 @ 大阪","url":"https://dllab.connpass.com/event/141283/","shortener_url":"https://bit.ly/315nMys","started_at":"2019-08-19T09:30:00.000+09:00","ended_at":"2019-08-19T12:00:00.000+09:00","limit_number":45,"address":"大阪府大阪市中央区城見２丁目２−６富士通関西システムラボラトリ1F PLY OSAKA","place":"PLY OSAKA","lat":34.6969,"lon":135.488,"state":"active","id":null},{"event_id":"140911","title":"みんなでAIアプリを作ってAzure AI Hackathon入賞を目指す会 @ 東京","url":"https://dllab.connpass.com/event/140911/","shortener_url":"https://bit.ly/3130N7h","started_at":"2019-08-23T09:30:00.000+09:00","ended_at":"2019-08-23T12:00:00.000+09:00","limit_number":45,"address":"東京都港区港南 2-16-3 (品川グランドセントラルタワー 31階)","place":"日本マイクロソフト株式会社","lat":35.6266,"lon":139.74,"state":"active","id":null},{"event_id":"141388","title":"【増枠】UX JAM Online #00","url":"https://uxmilk.connpass.com/event/141388/","shortener_url":null,"started_at":"2019-08-09T13:30:00.000+09:00","ended_at":"2019-08-09T15:00:00.000+09:00","limit_number":600,"address":"","place":"オンライン","lat":null,"lon":null,"state":"active","id":null},{"event_id":"141443","title":"sisisinハウス合宿 8/4（日）","url":"https://sisisin.connpass.com/event/141443/","shortener_url":null,"started_at":"2019-08-04T01:00:00.000+09:00","ended_at":"2019-08-04T09:00:00.000+09:00","limit_number":6,"address":"twitterなどで聞いてください","place":"sisisinハウス","lat":null,"lon":null,"state":"active","id":null},{"event_id":"141357","title":"Kamakura Mok Mok Hack 52","url":"https://kamkura-mokmok.connpass.com/event/141357/","shortener_url":null,"started_at":"2019-08-10T02:00:00.000+09:00","ended_at":"2019-08-10T04:00:00.000+09:00","limit_number":7,"address":"神奈川県 鎌倉市由比ガ浜1丁目12-8","place":"HOUSE YUIGAHAMA","lat":35.3202,"lon":139.55,"state":"active","id":null},{"event_id":"95718","title":"『Python, Machine Learning \u0026 Raspberry PI』もくもく会#29","url":"https://soleildatadojo.doorkeeper.jp/events/95718","shortener_url":null,"started_at":"2019-08-20T10:30:00.000+09:00","ended_at":"2019-08-20T12:30:00.000+09:00","limit_number":8,"address":"大阪府大阪市北区西天満二丁目5番3号(堂島深川ビル3階)","place":"SCRIBBLE OSAKA LAB（SOL）（大阪メトロ御堂筋線「淀屋橋」駅から徒歩４分）","lat":null,"lon":null,"state":"active","id":null},{"event_id":"95719","title":"『Python, Machine Learning \u0026 Raspberry PI』もくもく会#30","url":"https://soleildatadojo.doorkeeper.jp/events/95719","shortener_url":null,"started_at":"2019-08-29T10:30:00.000+09:00","ended_at":"2019-08-29T12:30:00.000+09:00","limit_number":8,"address":"大阪府大阪市北区西天満二丁目5番3号(堂島深川ビル3階)","place":"SCRIBBLE OSAKA LAB（SOL）（大阪メトロ御堂筋線「淀屋橋」駅から徒歩４分）","lat":null,"lon":null,"state":"active","id":null},{"event_id":"1085746","title":"家業イノベーション・アイデアソン ～家業×つくばのテックでつくる未来～","url":"http://peatix.com/event/1085746","shortener_url":"https://bit.ly/2LMBbbb","started_at":"2019-08-04T04:30:00.000+09:00","ended_at":"2019-08-06T23:59:59.000+09:00","limit_number":null,"address":"つくば市吾妻1丁目10−1 105","place":"up Tsukuba","lat":36.082,"lon":140.114,"state":"active","id":null},{"event_id":"732103","title":"【HR Talk交流会#2】～未来の採用活動を語りませんか？～","url":"http://vcvmeetup2.peatix.com","shortener_url":null,"started_at":"2019-08-07T09:30:00.000+09:00","ended_at":"2019-08-09T23:59:59.000+09:00","limit_number":null,"address":"港区虎ノ門4丁目3−1","place":"城山トラストタワー","lat":35.6648,"lon":139.743,"state":"active","id":null},{"event_id":"140917","title":"Agile Jam in ながの","url":"https://agile-shinano.connpass.com/event/140917/","shortener_url":null,"started_at":"2019-08-24T04:30:00.000+09:00","ended_at":"2019-08-24T08:30:00.000+09:00","limit_number":20,"address":"長野県長野市南県町1003 県都ビル６F","place":"GEEKLAB.NAGANO","lat":36.6492,"lon":138.182,"state":"active","id":null},{"event_id":"141296","title":"みんなでAIアプリを作ってAzure AI Hackathon入賞を目指す会 @ 福岡","url":"https://dllab.connpass.com/event/141296/","shortener_url":"https://bit.ly/2LRWAQb","started_at":"2019-08-20T09:30:00.000+09:00","ended_at":"2019-08-20T12:00:00.000+09:00","limit_number":45,"address":"福岡県福岡市博多区上川端町 12-20 ふくぎん博多ビル10 F","place":"日本マイクロソフト株式会社","lat":33.5948,"lon":130.407,"state":"active","id":null},{"event_id":"1006802","title":"シゴト酒場vol.4　〜 転職ってやっぱり大変なんですか？ 〜","url":"http://peatix.com/event/1006802","shortener_url":null,"started_at":"2019-08-25T09:00:00.000+09:00","ended_at":"2019-08-27T23:59:59.000+09:00","limit_number":null,"address":"大阪市北区浮田1丁目1−8","place":"LINDA HOSTEL 106","lat":34.7085,"lon":135.509,"state":"active","id":null},{"event_id":"1170664","title":"8/20(火) 一緒に地元の身近なおみせを盛り上げませんか？「おみせ支援マスター」説明会開催！","url":"http://peatix.com/event/1170664","shortener_url":null,"started_at":"2019-08-20T02:00:00.000+09:00","ended_at":"2019-08-22T23:59:59.000+09:00","limit_number":null,"address":"〒104-0061 東京都品川区上大崎2丁目14-5 3F","place":"一般社団法人NIPPON応援団　目黒オフィス","lat":35.6341,"lon":139.717,"state":"active","id":null},{"event_id":"1170218","title":"８/６(火) 一緒に地元の身近なおみせを盛り上げませんか？「おみせ支援マスター」説明会開催！","url":"http://peatix.com/event/1170218","shortener_url":null,"started_at":"2019-08-06T10:00:00.000+09:00","ended_at":"2019-08-08T23:59:59.000+09:00","limit_number":null,"address":"〒104-0061 東京都中央区銀座一丁目14-5 銀座ウィング南3F","place":"一般社団法人NIPPON応援団　銀座オフィス","lat":35.6732,"lon":139.77,"state":"active","id":null},{"event_id":"1170721","title":"8/27(火) 一緒に地元の身近なおみせを盛り上げませんか？「おみせ支援マスター」説明会開催！","url":"http://peatix.com/event/1170721","shortener_url":null,"started_at":"2019-08-27T02:00:00.000+09:00","ended_at":"2019-08-29T23:59:59.000+09:00","limit_number":null,"address":"〒104-0061 東京都品川区上大崎2丁目14-5 3F","place":"一般社団法人NIPPON応援団　目黒オフィス","lat":35.6341,"lon":139.717,"state":"active","id":null},{"event_id":"141232","title":"第18回 PCNひろしま こどもプログラミング教室","url":"https://pcn-hiroshima.connpass.com/event/141232/","shortener_url":null,"started_at":"2019-08-25T01:30:00.000+09:00","ended_at":"2019-08-25T03:30:00.000+09:00","limit_number":14,"address":"オンライン","place":"オンライン","lat":34.3941,"lon":132.459,"state":"active","id":null},{"event_id":"1138341","title":"未来のお金の稼ぎ方〜AIに奪われない仕事ってなんだろう？〜","url":"http://peatix.com/event/1138341","shortener_url":null,"started_at":"2019-08-04T02:00:00.000+09:00","ended_at":"2019-08-06T23:59:59.000+09:00","limit_number":null,"address":"世田谷区太子堂1丁目7−57","place":"昭和女子大学","lat":35.6454,"lon":139.675,"state":"active","id":null},{"event_id":"1208831","title":"＊京都初開催！【8/22（木）22:00〜京都】夜更かししてると、もうなんでもできると思いませんか？自宅で積んでいる本を読んでよし、アナログゲームで盛り上がるもよし！《夜更かし天狼院》開催！【途中参加/途中退店OK】","url":"http://peatix.com/event/1208831","shortener_url":null,"started_at":"2019-08-22T13:00:00.000+09:00","ended_at":"2019-08-24T23:59:59.000+09:00","limit_number":null,"address":"京都市東山区博多町112−5","place":"京都天狼院","lat":35.0017,"lon":135.773,"state":"active","id":null},{"event_id":"1176743","title":"バドミントン 特別レッスン（少人数）　8/18 日曜 18時","url":"http://badminton-special-lesson201908.peatix.com","shortener_url":null,"started_at":"2019-08-04T09:05:00.000+09:00","ended_at":"2019-08-06T23:59:59.000+09:00","limit_number":null,"address":"東京都江東区東陽3丁目3−6","place":"木場駅から徒歩5分。（詳細は、前日13時にメールで）","lat":35.6691,"lon":139.809,"state":"active","id":null},{"event_id":"141001","title":"開始イベント - UOZU GAME BOOT CAMP 2019","url":"https://uozu.connpass.com/event/141001/","shortener_url":"https://bit.ly/2Zt8Aej","started_at":"2019-08-24T04:00:00.000+09:00","ended_at":"2019-08-24T08:30:00.000+09:00","limit_number":50,"address":"富山県魚津市釈迦堂814","place":"魚津埋没林博物館","lat":36.8225,"lon":137.395,"state":"active","id":null},{"event_id":"137745","title":"U16愛知プログラミングコンテスト","url":"https://u16aichiprocon.connpass.com/event/137745/","shortener_url":null,"started_at":"2019-08-24T02:30:00.000+09:00","ended_at":"2019-08-24T07:30:00.000+09:00","limit_number":30,"address":"〒471-8525 愛知県豊田市栄生町２−１","place":"豊田工業高等専門学校","lat":35.1027,"lon":137.149,"state":"active","id":null},{"event_id":"1114183","title":"愛知県大学対抗ハッカソン Hack Aichi 名工大代表選考会","url":"http://hackaichi-nitech.peatix.com","shortener_url":"https://bit.ly/2yxuOQe","started_at":"2019-08-20T01:00:00.000+09:00","ended_at":"2019-08-22T23:59:59.000+09:00","limit_number":null,"address":"名古屋市昭和区御器所町","place":"名古屋工業大学20号館1階2111教室","lat":0.0,"lon":0.0,"state":"active","id":null},{"event_id":"1163648","title":"「14時間で新規事業案を作れ。」ブロックチェーンビジネスハッカソン【バイナリースター】#6","url":"http://blockchainbusinesshackathon8.peatix.com","shortener_url":"https://bit.ly/2ZwFKtq","started_at":"2019-08-30T10:00:00.000+09:00","ended_at":"2019-09-01T23:59:59.000+09:00","limit_number":null,"address":"1丁目8−19 キラリトギンザ11階","place":"BINARYSTAR 株式会社","lat":35.6744,"lon":139.769,"state":"active","id":null},{"event_id":"142046","title":"初心者歓迎！Unity勉強会@gyoen","url":"https://connpass.com/event/142046/","shortener_url":null,"started_at":"2019-08-31T04:00:00.000+09:00","ended_at":"2019-08-31T08:00:00.000+09:00","limit_number":8,"address":"東京都新宿区四谷4-28-7吉岡ビル","place":"コワーキングスペースC作業場","lat":35.6885,"lon":139.715,"state":"active","id":null},{"event_id":"142077","title":"sisisinハウス合宿 8/24（土）","url":"https://sisisin.connpass.com/event/142077/","shortener_url":null,"started_at":"2019-08-24T01:00:00.000+09:00","ended_at":"2019-08-24T09:00:00.000+09:00","limit_number":6,"address":"twitterなどで聞いてください","place":"sisisinハウス","lat":null,"lon":null,"state":"active","id":null},{"event_id":"142076","title":"sisisinハウス合宿 8/18（日）","url":"https://sisisin.connpass.com/event/142076/","shortener_url":null,"started_at":"2019-08-18T01:00:00.000+09:00","ended_at":"2019-08-18T09:00:00.000+09:00","limit_number":6,"address":"twitterなどで聞いてください","place":"sisisinハウス","lat":null,"lon":null,"state":"active","id":null},{"event_id":"107858","title":"FAKTA UNIK MENGENAI TOGEL SINGAPORE","url":"https://atnd.org/events/107858","shortener_url":null,"started_at":"2019-08-04T08:15:00.000+09:00","ended_at":"2020-09-27T05:00:00.000+09:00","limit_number":500000,"address":"kp.lalang gg.BRI","place":"INDONESIA","lat":3.5969,"lon":98.6083,"state":"closed","id":null},{"event_id":"140258","title":"ゲーム制作ｘバージョン管理についての話をする日　8月22日（木）夜開催","url":"https://nagogebu.connpass.com/event/140258/","shortener_url":"https://bit.ly/2H1HGDd","started_at":"2019-08-22T10:30:00.000+09:00","ended_at":"2019-08-22T12:30:00.000+09:00","limit_number":9,"address":"愛知県名古屋市中区丸の内３丁目５－３４（セントラルコーポ５０３号室）","place":"名古屋ゲーム制作部(セントラルコーポ 503号室)","lat":35.1773,"lon":136.906,"state":"active","id":null},{"event_id":"107826","title":"名古屋でも「第12回UE4ぷちコン」ゲームジャム 8/24-8/25","url":"https://atnd.org/events/107826","shortener_url":"https://bit.ly/2YIyb1I","started_at":"2019-08-24T01:00:00.000+09:00","ended_at":"2019-08-25T09:00:00.000+09:00","limit_number":10,"address":"愛知県名古屋市中区丸の内3-5-34 セントラルコーポ503号室","place":"名古屋ゲーム制作部","lat":35.1773,"lon":136.906,"state":"closed","id":null},{"event_id":"1258735","title":"銭湯怪談 in 梅の湯","url":"http://umenoyu-kaidan.peatix.com","shortener_url":null,"started_at":"2019-08-19T10:00:00.000+09:00","ended_at":"2019-08-21T23:59:59.000+09:00","limit_number":null,"address":"荒川区西尾久4丁目13−2","place":"梅の湯","lat":35.7468,"lon":139.762,"state":"active","id":null},{"event_id":"142219","title":"【東京】UX JAM' 02 - Over 30s UX Talk -","url":"https://uxmilk.connpass.com/event/142219/","shortener_url":null,"started_at":"2019-08-27T10:30:00.000+09:00","ended_at":"2019-08-27T13:00:00.000+09:00","limit_number":120,"address":"東京都千代田区丸の内１丁目３−２","place":"株式会社三井住友銀行 本店東館","lat":35.6847,"lon":139.764,"state":"active","id":null},{"event_id":"141684","title":"Scala勉強会250回記念 スペシャル温泉ハッカソン","url":"https://rpscala.connpass.com/event/141684/","shortener_url":"https://bit.ly/2GQEKJf","started_at":"2019-08-30T22:00:00.000+09:00","ended_at":"2019-09-01T09:00:00.000+09:00","limit_number":60,"address":"静岡県伊東市東松原町４番７号","place":"山喜旅館","lat":34.9725,"lon":139.098,"state":"active","id":null},{"event_id":"1285680","title":"OICX主催　#micsnight Vol.11 【広告ハッカソン「adlib（アドリブ）」＆プレゼン大会】軽食つき","url":"http://peatix.com/event/1285680","shortener_url":"https://bit.ly/2YMePJ4","started_at":"2019-08-20T10:00:00.000+09:00","ended_at":"2019-08-22T23:59:59.000+09:00","limit_number":null,"address":"〒450-6627 名古屋市中村区名駅1-1-3 JRゲートタワー27階","place":"OICX（オイックス）名古屋大学オープンイノベーション拠点","lat":35.1722,"lon":136.882,"state":"active","id":null},{"event_id":"142595","title":"AI機能付きSlackAppを構築しよう! by Team AI 8/28(水)","url":"https://teamai.connpass.com/event/142595/","shortener_url":null,"started_at":"2019-08-28T10:30:00.000+09:00","ended_at":"2019-08-28T12:30:00.000+09:00","limit_number":15,"address":"","place":"Online","lat":35.6618,"lon":139.696,"state":"active","id":null},{"event_id":"142585","title":"NASA/宇宙デー­­タ分析ハッカソン by Team AI 8/18(日)","url":"https://teamai.connpass.com/event/142585/","shortener_url":"https://bit.ly/2YR6Vhe","started_at":"2019-08-18T07:00:00.000+09:00","ended_at":"2019-08-18T09:00:00.000+09:00","limit_number":15,"address":"","place":"Online","lat":35.6618,"lon":139.696,"state":"active","id":null},{"event_id":"142396","title":"【大阪】大阪でも第12回UE4ぷちコン ゲームジャム","url":"https://osaka-driven-dev.connpass.com/event/142396/","shortener_url":"https://bit.ly/2YOrT0t","started_at":"2019-08-31T00:30:00.000+09:00","ended_at":"2019-09-01T08:30:00.000+09:00","limit_number":10,"address":"大阪府大阪市東淀川区東中島1-5-7 新大阪コスモビル201","place":"株式会社 Indie-us Games","lat":34.7289,"lon":135.502,"state":"active","id":null},{"event_id":"142569","title":"Medicalデー­­­タ分析ハッカソン by Team AI 8/14(水)","url":"https://teamai.connpass.com/event/142569/","shortener_url":"https://bit.ly/2GO8J4H","started_at":"2019-08-14T10:30:00.000+09:00","ended_at":"2019-08-14T12:30:00.000+09:00","limit_number":15,"address":"","place":"Online","lat":35.6618,"lon":139.696,"state":"active","id":null},{"event_id":"95943","title":"【君もベイジアンになろう！】Bayes勉強会#5","url":"https://soleildatadojo.doorkeeper.jp/events/95943","shortener_url":null,"started_at":"2019-08-23T10:30:00.000+09:00","ended_at":"2019-08-23T12:30:00.000+09:00","limit_number":10,"address":"大阪府大阪市北区西天満二丁目5番3号(堂島深川ビル3階)","place":"SCRIBBLE OSAKA LAB（SOL）（大阪メトロ御堂筋線「淀屋橋」駅から徒歩４分）","lat":null,"lon":null,"state":"active","id":null},{"event_id":"107904","title":"夏の秘密結社フリーソーメン 日本Androidの会秋葉原支部ロボット部 第83回勉強会 ~掃除機Hack、キッズ教育、流しソーメン~","url":"https://atnd.org/events/107904","shortener_url":null,"started_at":"2019-08-17T04:00:00.000+09:00","ended_at":"2019-08-17T08:00:00.000+09:00","limit_number":12,"address":"足立区花畑四丁目16番8号","place":"花畑地域学習センター料理室","lat":35.8028,"lon":139.807,"state":"closed","id":null},{"event_id":"1270472","title":"常陸の国・里山古民家＆野外ワークショップ＆マインドフルネス合宿 in 茨城県常陸太田","url":"http://peatix.com/event/1270472","shortener_url":null,"started_at":"2019-08-24T01:00:00.000+09:00","ended_at":"2019-08-26T23:59:59.000+09:00","limit_number":null,"address":"茨城県常陸太田市大中町1547","place":"里美 150年古民家の宿「荒蒔邸」","lat":36.7328,"lon":140.491,"state":"active","id":null},{"event_id":"1262019","title":"早朝 読書会 vol.21 〜本の楽しさ、伝えてみませんか〜","url":"http://okinawadialog-bookmeeting21.peatix.com","shortener_url":null,"started_at":"2019-08-10T22:00:00.000+09:00","ended_at":"2019-08-12T23:59:59.000+09:00","limit_number":null,"address":"那覇市久茂地2丁目15−8 フージャース那覇久茂地ビル1F","place":"Okinawa Dialog（おきなわダイアログ）","lat":26.2189,"lon":127.682,"state":"active","id":null},{"event_id":"1299114","title":"【緊急開催】素敵なグラレコ等を勝手に写経 #グラレコモクモク","url":"http://grmkmk-20190811.peatix.com","shortener_url":null,"started_at":"2019-08-11T03:00:00.000+09:00","ended_at":"2019-08-13T23:59:59.000+09:00","limit_number":null,"address":"千代田区紀尾井町1−2 17F","place":"LODGE","lat":35.6797,"lon":139.737,"state":"active","id":null},{"event_id":"1299115","title":"【緊急開催】素敵なグラレコ等を勝手に写経 #グラレコモクモク","url":"http://grmkmk-20190814.peatix.com","shortener_url":null,"started_at":"2019-08-14T03:00:00.000+09:00","ended_at":"2019-08-16T23:59:59.000+09:00","limit_number":null,"address":"千代田区紀尾井町1−2 17F","place":"LODGE","lat":35.6797,"lon":139.737,"state":"active","id":null},{"event_id":"142586","title":"自然言語データ分析ハッカソン by Team AI 8/25(日)","url":"https://teamai.connpass.com/event/142586/","shortener_url":"https://bit.ly/2GV2NH4","started_at":"2019-08-25T07:00:00.000+09:00","ended_at":"2019-08-25T09:00:00.000+09:00","limit_number":15,"address":"","place":"Online","lat":35.6618,"lon":139.696,"state":"active","id":null},{"event_id":"1089441","title":"【世界へ発信するショーケースライブの演出をみんなで考えるアイディアソン】TECHS.2019 in TIMM プレイベント","url":"http://techs2019-preevent.peatix.com","shortener_url":"https://bit.ly/2YTw7E1","started_at":"2019-08-18T05:00:00.000+09:00","ended_at":"2019-08-20T23:59:59.000+09:00","limit_number":null,"address":"渋谷区神宮前6丁目19−21","place":"朝日新聞社メディアラボ渋谷分室","lat":35.6641,"lon":139.702,"state":"active","id":null},{"event_id":"1243784","title":"【複業で、ご縁むす部】8/28キックオフ説明会～広島・あきたかたで複業をはじめませんか？～","url":"http://peatix.com/event/1243784","shortener_url":null,"started_at":"2019-08-28T10:00:00.000+09:00","ended_at":"2019-08-30T23:59:59.000+09:00","limit_number":null,"address":"千代田区大手町2丁目6−2","place":"TRAVEL HUB MIX","lat":35.685,"lon":139.77,"state":"active","id":null},{"event_id":"1245189","title":"【８月１７日開催】 東京から一番近い村！清川村でお野菜を楽しむ夏休みを一緒に過ごしませんか？  ＡＤＤｒｅｓｓ清川拠点菜園プロジェクトキックオフ！","url":"http://peatix.com/event/1245189","shortener_url":null,"started_at":"2019-08-17T07:00:00.000+09:00","ended_at":"2019-08-19T23:59:59.000+09:00","limit_number":null,"address":"清川村","place":"清川村煤ヶ谷（郵便局近く）","lat":35.4824,"lon":139.276,"state":"active","id":null},{"event_id":"142797","title":"未来交通アイデアソン","url":"https://code4kitakyushu.connpass.com/event/142797/","shortener_url":"https://bit.ly/2GZTBkC","started_at":"2019-08-31T01:30:00.000+09:00","ended_at":"2019-08-31T09:00:00.000+09:00","limit_number":60,"address":"北九州市小倉北区浅野3丁目8番1号 AIM（アジア太平洋インポートマート）ビル6階","place":"COMPASS小倉","lat":33.8895,"lon":130.886,"state":"active","id":null},{"event_id":"1225609","title":"「Weworkers never leave anyone behind」～ みんなでアクション！SDGsアイディアソン！～","url":"http://sagawa-logi-sdgs-wwevent.peatix.com","shortener_url":"https://bit.ly/2YSCZBp","started_at":"2019-08-28T09:30:00.000+09:00","ended_at":"2019-08-30T23:59:59.000+09:00","limit_number":null,"address":"千代田区丸の内1丁目6−5 丸の内北口ビルディング9 階","place":"WeWork 丸の内北口","lat":35.684,"lon":139.767,"state":"active","id":null},{"event_id":"1301087","title":"Celebrating OYS 1st Anniversary – Storytelling Jam","url":"http://oysturn1.peatix.com","shortener_url":null,"started_at":"2019-08-17T03:00:00.000+09:00","ended_at":"2019-08-19T23:59:59.000+09:00","limit_number":null,"address":"54, Jalan Putra, Chow Kit, Kuala Lumpur","place":"Mano Thinking Magazine Library","lat":3.16651,"lon":101.696,"state":"active","id":null},{"event_id":"1289306","title":"Aug 12 - NBT Jam Session hosted by Michael Veerapen Trio","url":"http://peatix.com/event/1289306","shortener_url":null,"started_at":"2019-08-12T13:00:00.000+09:00","ended_at":"2019-08-14T23:59:59.000+09:00","limit_number":null,"address":"17, Jalan Mesui, off, Jalan Nagasari, Bukit Bintang, Kuala Lumpur","place":"No Black Tie","lat":3.14868,"lon":101.708,"state":"active","id":null},{"event_id":"1298425","title":"【２０日火曜日に変更となりました】次世代の組織の形を鮮やかに描き出す、『ティール組織』を読む。８月の「本で遊ぶじかん」","url":"http://sugoi20190820.peatix.com","shortener_url":null,"started_at":"2019-08-20T10:00:00.000+09:00","ended_at":"2019-08-22T23:59:59.000+09:00","limit_number":null,"address":"〒107-0061東京都港区北青山3-6-23","place":"株式会社SUGOI","lat":35.6644,"lon":139.711,"state":"active","id":null},{"event_id":"1263294","title":"変人類ってなんだ！？変人類学チャンネル『変チャン』はじまるよ！@Atlya参宮橋","url":"http://henjinch0828.peatix.com","shortener_url":null,"started_at":"2019-08-28T06:00:00.000+09:00","ended_at":"2019-08-30T23:59:59.000+09:00","limit_number":null,"address":"東京都渋谷区代々木4-50-13","place":"Atlya参宮橋","lat":35.6784,"lon":139.692,"state":"active","id":null},{"event_id":"142982","title":"Kamakura Mok Mok Hack 53","url":"https://kamkura-mokmok.connpass.com/event/142982/","shortener_url":null,"started_at":"2019-08-17T02:00:00.000+09:00","ended_at":"2019-08-17T04:00:00.000+09:00","limit_number":7,"address":"神奈川県 鎌倉市由比ガ浜1丁目12-8","place":"HOUSE YUIGAHAMA","lat":35.3202,"lon":139.55,"state":"active","id":null},{"event_id":"1223304","title":"夏休みの思い出に、“農あるじかん” を体験しませんか？","url":"http://peatix.com/event/1223304","shortener_url":null,"started_at":"2019-08-17T00:30:00.000+09:00","ended_at":"2019-08-19T23:59:59.000+09:00","limit_number":null,"address":"埼玉県北本市高尾周辺","place":"埼玉県北本市高尾周辺","lat":0.0,"lon":0.0,"state":"active","id":null},{"event_id":"142687","title":"スクラム道関西 オープン・ジャム","url":"https://scrumdo-kansai.connpass.com/event/142687/","shortener_url":null,"started_at":"2019-08-27T10:30:00.000+09:00","ended_at":"2019-08-27T12:30:00.000+09:00","limit_number":20,"address":"大阪府大阪市中央区城見2-2-6 (富士通関西システムラボラトリ 1階)","place":"FUJITSU PLY OSAKA","lat":34.693,"lon":135.532,"state":"active","id":null},{"event_id":"143069","title":"子どものためのプログラミングクラブ コーダー道場北杜 #5","url":"https://coderdojo-hokuto.connpass.com/event/143069/","shortener_url":null,"started_at":"2019-08-25T00:30:00.000+09:00","ended_at":"2019-08-25T02:40:00.000+09:00","limit_number":8,"address":"山梨県北杜市高根町村山北割３２８８","place":"北杜市高根町農村環境改善センター","lat":35.8375,"lon":138.412,"state":"active","id":null},{"event_id":"143068","title":"子どものためのプログラミングクラブ コーダー道場韮崎 #5","url":"https://coderdojo-nirasaki.connpass.com/event/143068/","shortener_url":null,"started_at":"2019-08-24T00:30:00.000+09:00","ended_at":"2019-08-24T02:40:00.000+09:00","limit_number":13,"address":"山梨県韮崎市若宮一丁目2番50号","place":"韮崎市民交流センター","lat":35.7117,"lon":138.45,"state":"active","id":null},{"event_id":"143057","title":"【初心者向け】サーバにメモリ刺してもらっていいですかね","url":"https://connpass.com/event/143057/","shortener_url":null,"started_at":"2019-08-17T01:00:00.000+09:00","ended_at":"2019-08-17T09:00:00.000+09:00","limit_number":3,"address":"東京都台東区上野7-6-5 上野KYビル (VORT上野Ⅱ 8階)","place":"(株)ネオコミュニケーション","lat":35.7136,"lon":139.779,"state":"active","id":null},{"event_id":"96146","title":"【レベルと目的に応じて2冊の本で学ぶ】DeepLearning勉強会#6","url":"https://soleildatadojo.doorkeeper.jp/events/96146","shortener_url":null,"started_at":"2019-08-22T10:30:00.000+09:00","ended_at":"2019-08-22T12:30:00.000+09:00","limit_number":8,"address":"大阪府大阪市北区西天満二丁目5番3号(堂島深川ビル3階)","place":"SCRIBBLE OSAKA LAB（SOL）（大阪メトロ御堂筋線「淀屋橋」駅から徒歩４分）","lat":null,"lon":null,"state":"active","id":null},{"event_id":"108025","title":"ONE JAPAN Creators Meetup #3","url":"https://atnd.org/events/108025","shortener_url":"https://bit.ly/2Z7BsHQ","started_at":"2019-08-15T10:00:00.000+09:00","ended_at":"2019-08-15T12:00:00.000+09:00","limit_number":null,"address":"東京都港区南青山1丁目1","place":"McCann Worldgroup Holdings Japan Inc.","lat":35.6725,"lon":139.725,"state":"closed","id":null},{"event_id":"1238868","title":"【#複活 説明会in東京外神田】信州・塩尻で地域複業をはじめませんか？ ～#複活 働き方に彩りを。～","url":"http://fukukatsu0827.peatix.com","shortener_url":null,"started_at":"2019-08-27T10:00:00.000+09:00","ended_at":"2019-08-29T23:59:59.000+09:00","limit_number":null,"address":"千代田区外神田6丁目11−14","place":"アーツ千代田３３３１","lat":35.7041,"lon":139.771,"state":"active","id":null},{"event_id":"1298908","title":"【8月24日開催】女性限定!!プロボノマッチングセミナー  社外での腕試し、はじめませんか？  ～女性のキャリアの選択肢を広げる、プロボノという働き方～","url":"http://purobono-yamaguchi.peatix.com","shortener_url":null,"started_at":"2019-08-24T05:00:00.000+09:00","ended_at":"2019-08-26T23:59:59.000+09:00","limit_number":null,"address":"山口市湯田温泉5丁目1-1","place":"カリエンテ山口　大ホール","lat":34.1682,"lon":131.458,"state":"active","id":null},{"event_id":"1300985","title":"【8月31日開催】女性限定!!プロボノマッチングセミナー  社外での腕試し、はじめませんか？  ～女性のキャリアの選択肢を広げる、プロボノという働き方～","url":"http://purobono-hiroshima.peatix.com","shortener_url":null,"started_at":"2019-08-31T05:00:00.000+09:00","ended_at":"2019-09-02T23:59:59.000+09:00","limit_number":null,"address":"広島県広島市南区大須賀町13-9","place":"TKPガーデンシティPREMIUM広島駅前　ホール７A","lat":34.3978,"lon":132.473,"state":"active","id":null},{"event_id":"94778","title":"［無料］StartupWeekend 振り返り","url":"https://swkanmon.doorkeeper.jp/events/94778","shortener_url":null,"started_at":"2019-08-17T04:00:00.000+09:00","ended_at":"2019-08-17T06:00:00.000+09:00","limit_number":null,"address":"福岡県北九州市門司区東港町4-68","place":"ZATTA ZISSE","lat":null,"lon":null,"state":"active","id":null},{"event_id":"1302515","title":"べんチョキ先生〜色であそぼう〜（小学生限定）","url":"http://peatix.com/event/1302515","shortener_url":null,"started_at":"2019-08-25T02:00:00.000+09:00","ended_at":"2019-08-27T23:59:59.000+09:00","limit_number":null,"address":"東京都葛飾区亀有3-26-1","place":" 絵と言葉のライブラリー ミッカ（リリオ亀有7F）","lat":35.7666,"lon":139.848,"state":"active","id":null},{"event_id":"1306925","title":"佐賀で“咲くcession”～素敵な仕事を継いでみませんか～","url":"http://peatix.com/event/1306925","shortener_url":null,"started_at":"2019-08-30T09:30:00.000+09:00","ended_at":"2019-09-01T23:59:59.000+09:00","limit_number":null,"address":"千代田区有楽町2丁目10−1","place":"東京交通会館","lat":35.675,"lon":139.764,"state":"active","id":null},{"event_id":"141077","title":"VOICE Summit 2019 Recap (報告会)","url":"https://isao.connpass.com/event/141077/","shortener_url":null,"started_at":"2019-08-20T10:00:00.000+09:00","ended_at":"2019-08-20T12:30:00.000+09:00","limit_number":50,"address":"オンライン","place":"株式会社Colorkrew(2020年6月1日よりISAOから社名が変わります)","lat":35.7014,"lon":139.781,"state":"active","id":null},{"event_id":"143976","title":"Kamakura Mok Mok Hack 54","url":"https://kamkura-mokmok.connpass.com/event/143976/","shortener_url":null,"started_at":"2019-08-24T02:00:00.000+09:00","ended_at":"2019-08-24T04:00:00.000+09:00","limit_number":7,"address":"神奈川県 鎌倉市由比ガ浜1丁目12-8","place":"HOUSE YUIGAHAMA","lat":35.3202,"lon":139.55,"state":"active","id":null},{"event_id":"96537","title":"【無料】カタチにできるアイデアの作り方（Startup Weekend 守山 プレイベント）","url":"https://swmoriyama.doorkeeper.jp/events/96537","shortener_url":null,"started_at":"2019-08-31T08:00:00.000+09:00","ended_at":"2019-08-31T11:00:00.000+09:00","limit_number":10,"address":"滋賀県守山市浮気町300-15 グランドメゾン守山115号","place":"COWORKING TORKS","lat":null,"lon":null,"state":"active","id":null},{"event_id":"1308310","title":"開業時のリーガルリスクマネジメント②【飲食店を中心に】知りませんでしたでは済まされない！弁護士が教える1時間シリーズVol.3","url":"http://peatix.com/event/1308310","shortener_url":null,"started_at":"2019-08-27T09:30:00.000+09:00","ended_at":"2019-08-29T23:59:59.000+09:00","limit_number":null,"address":"福岡市中央区大名2丁目6−11","place":"福岡市スタートアップカフェ","lat":33.5889,"lon":130.395,"state":"active","id":null},{"event_id":"96604","title":"個人事業主は健康が資本！成功する起業家の食","url":"https://kurashinogakkou.doorkeeper.jp/events/96604","shortener_url":null,"started_at":"2019-08-28T09:45:00.000+09:00","ended_at":"2019-08-28T11:30:00.000+09:00","limit_number":6,"address":"神戸市中央区雲井通5丁目3−1 サンパル6F","place":"企業プラザひょうご　（サンパル6F）　B会議室","lat":null,"lon":null,"state":"active","id":null},{"event_id":"144303","title":"東京公共交通オープンデータチャレンジ(アイデアソン)","url":"https://zero-ichi.connpass.com/event/144303/","shortener_url":"https://bit.ly/2HmHU81","started_at":"2019-08-31T00:30:00.000+09:00","ended_at":"2019-08-31T07:00:00.000+09:00","limit_number":10,"address":"〒102-0094 東京都千代田区紀尾井町１−２ 17F","place":"ヤフー株式会社オープンコラボレーションスペース「LODGE」","lat":35.68,"lon":139.738,"state":"active","id":null},{"event_id":"96564","title":"IETF 報告会(105th モントリオール)","url":"https://isocjp.doorkeeper.jp/events/96564","shortener_url":null,"started_at":"2019-08-30T04:30:00.000+09:00","ended_at":"2019-08-30T09:00:00.000+09:00","limit_number":50,"address":"〒100-8019 東京都千代田区大手町2-3-1 大手町プレイスウエストタワー 28F","place":"NTTコミュニケーションズ 大手町プレイスウエストタワー 28F セミナールーム3","lat":null,"lon":null,"state":"active","id":null},{"event_id":"108215","title":"新宿アンベルノッテ　美味しいパンを持ち込む会　8/24(土)14:00~","url":"https://atnd.org/events/108215","shortener_url":null,"started_at":"2019-08-24T05:00:00.000+09:00","ended_at":"2019-08-24T09:00:00.000+09:00","limit_number":null,"address":"東京都渋谷区千駄ヶ谷5-32-6大西ビル303","place":"新宿カフェバー　アンベルノッテ","lat":35.6863,"lon":139.704,"state":"closed","id":null},{"event_id":"144537","title":"名古屋ゲーム制作部　8月25日（日） 部費なしの日","url":"https://nagogebu.connpass.com/event/144537/","shortener_url":null,"started_at":"2019-08-25T01:00:00.000+09:00","ended_at":"2019-08-25T09:00:00.000+09:00","limit_number":5,"address":"愛知県名古屋市中区丸の内３丁目５－３４（セントラルコーポ５０３号室）","place":"名古屋ゲーム制作部(セントラルコーポ 503号室)","lat":35.1773,"lon":136.906,"state":"active","id":null},{"event_id":"144532","title":"名古屋ゲーム制作部　8月24日（土） 部費なしの日","url":"https://nagogebu.connpass.com/event/144532/","shortener_url":null,"started_at":"2019-08-24T01:00:00.000+09:00","ended_at":"2019-08-24T09:00:00.000+09:00","limit_number":5,"address":"愛知県名古屋市中区丸の内３丁目５－３４（セントラルコーポ５０３号室）","place":"名古屋ゲーム制作部(セントラルコーポ 503号室)","lat":35.1773,"lon":136.906,"state":"active","id":null},{"event_id":"144888","title":"Kamakura Mok Mok Hack 55","url":"https://kamkura-mokmok.connpass.com/event/144888/","shortener_url":null,"started_at":"2019-08-31T02:00:00.000+09:00","ended_at":"2019-08-31T04:00:00.000+09:00","limit_number":7,"address":"神奈川県 鎌倉市由比ガ浜1丁目12-8","place":"HOUSE YUIGAHAMA","lat":35.3202,"lon":139.55,"state":"active","id":null},{"event_id":"834821","title":"「写真／光をうけとる」トークセッションーもうひとつの写真に触れる　※受付終了していません。別ページにて受付中。イベント詳細をご覧ください。","url":"http://spiralschole2019-photo.peatix.com","shortener_url":null,"started_at":"2019-08-08T10:00:00.000+09:00","ended_at":"2019-08-10T23:59:59.000+09:00","limit_number":null,"address":"東京都港区南青山5-6-23 9F","place":"スパイラルルーム（スパイラル9F）","lat":35.6636,"lon":139.712,"state":"active","id":null},{"event_id":"110022","title":"Simak Fitur yang Diberikan Bandar Poker Online Terpercaya","url":"https://atnd.org/events/110022","shortener_url":null,"started_at":"2019-08-23T18:30:00.000+09:00","ended_at":"2024-08-23T18:30:00.000+09:00","limit_number":null,"address":"","place":"","lat":null,"lon":null,"state":"closed","id":null}]