[{"event_id":"594921","title":"Kagoshima Tram Night in December","url":"http://peatix.com/event/594921","shortener_url":null,"started_at":"2019-12-22T09:50:00.000+09:00","ended_at":"2019-12-24T23:59:59.000+09:00","limit_number":null,"address":"JR鹿児島中央駅前東口広場, Chuocho, Kagoshima","place":"若き薩摩の群像","lat":31.5842,"lon":130.544,"state":"active","id":null},{"event_id":"145541","title":"【年末】いつもの飲み会の忘年会 in 秋葉原【恒例】","url":"https://svrkcho.connpass.com/event/145541/","shortener_url":null,"started_at":"2019-12-28T07:00:00.000+09:00","ended_at":"2019-12-28T14:59:00.000+09:00","limit_number":45,"address":"東京都千代田区神田佐久間町1-14 B1F 村役場","place":"村役場＠秋葉原店","lat":35.6976,"lon":139.776,"state":"active","id":null},{"event_id":"1339970","title":"【午後の回】0才からのクラシック「音浴じかん」 ～おんよくんとクリスマスコンサート～","url":"http://peatix.com/event/1339970","shortener_url":null,"started_at":"2019-12-22T13:50:00.000+09:00","ended_at":"2019-12-24T23:59:59.000+09:00","limit_number":null,"address":"渋谷区猿楽町29-10","place":"代官山ヒルサイドバンケット（ヒルサイドテラスC棟 B1F）","lat":35.6479,"lon":139.7,"state":"active","id":null},{"event_id":"1339965","title":"【午前の部】0才からのクラシック「音浴じかん」 ～おんよくんとクリスマスコンサート～","url":"http://onyokun-xmas.peatix.com","shortener_url":null,"started_at":"2019-12-22T10:50:00.000+09:00","ended_at":"2019-12-24T23:59:59.000+09:00","limit_number":null,"address":"渋谷区猿楽町29-10","place":"代官山ヒルサイドバンケット（ヒルサイドテラスC棟 B1F）","lat":35.6479,"lon":139.7,"state":"active","id":null},{"event_id":"97902","title":"Startup Weekend Tokyo Foodtech＠サッポロホールディングス","url":"https://swtokyo.doorkeeper.jp/events/97902","shortener_url":null,"started_at":"2019-12-13T18:00:00.000+09:00","ended_at":"2019-12-15T21:00:00.000+09:00","limit_number":100,"address":"東京都港区港南2丁目16−3 品川グランドセントラルタワー","place":"［金］日本マイクロソフト（品川）［土＆日］恵比寿ガーデンプレイス","lat":null,"lon":null,"state":"active","id":null},{"event_id":"1301015","title":"【千葉市のシェアエコを考えるワークショップ】\"モノのシェア\" \"移動のシェア\"\"お金のシェア\" など、シェアリングエコノミーを活用した地域課題解決のアイデアを考えてみませんか？","url":"http://sharechiba1201.peatix.com","shortener_url":null,"started_at":"2019-12-01T01:00:00.000+09:00","ended_at":"2019-12-03T23:59:59.000+09:00","limit_number":null,"address":"千葉県千葉市中央区富士見2-19-7","place":"MASHROOM","lat":35.6089,"lon":140.12,"state":"active","id":null},{"event_id":"151673","title":"AIZU SYNCHROTRON Vol.01","url":"https://connpass.com/event/151673/","shortener_url":"https://bit.ly/31T3oR4","started_at":"2019-12-14T04:00:00.000+09:00","ended_at":"2019-12-14T11:00:00.000+09:00","limit_number":30,"address":"福島県会津若松市白虎町201","place":"会津若松ワシントンホテル「飛翔」","lat":37.507,"lon":139.934,"state":"active","id":null},{"event_id":"1347749","title":"音楽の力で、お子さまの\"コミュニケーション力\"を伸ばしてみませんか？\u003c1歳半～3歳児対象\u003e","url":"http://peatix.com/event/1347749","shortener_url":null,"started_at":"2019-12-08T11:30:00.000+09:00","ended_at":"2019-12-10T23:59:59.000+09:00","limit_number":null,"address":"神奈川県川崎市中原区新丸子町749-6 GSハイム102","place":"武蔵小杉会場【レッスンスタジオ「話芸写」】","lat":35.5804,"lon":139.66,"state":"active","id":null},{"event_id":"1347760","title":"プロの音楽家の演奏で子供の成長を促しませんか\u003c1歳半～3歳児対象\u003e","url":"http://peatix.com/event/1347760","shortener_url":null,"started_at":"2019-12-22T11:30:00.000+09:00","ended_at":"2019-12-24T23:59:59.000+09:00","limit_number":null,"address":"神奈川県川崎市中原区新丸子町749-6 GSハイム102","place":"武蔵小杉会場【レッスンスタジオ「話芸写」】","lat":35.5804,"lon":139.66,"state":"active","id":null},{"event_id":"148398","title":"第25回 SQL Server 2019勉強会(year-end party)","url":"https://sqlserver.connpass.com/event/148398/","shortener_url":"https://bit.ly/2MJCRlf","started_at":"2019-12-21T02:00:00.000+09:00","ended_at":"2019-12-21T09:00:00.000+09:00","limit_number":90,"address":"","place":"Teams Online Meeting","lat":35.6266,"lon":139.741,"state":"active","id":null},{"event_id":"152528","title":"2019アーバンデータチャレンジ京都 in NDL関西館 ハッカソン","url":"https://udc-kyoto.connpass.com/event/152528/","shortener_url":"https://bit.ly/31EZVFK","started_at":"2019-12-07T01:00:00.000+09:00","ended_at":"2019-12-07T08:00:00.000+09:00","limit_number":null,"address":"京都府相楽郡精華町精華台8-1-3","place":"国立国会図書館関西館","lat":34.7434,"lon":135.77,"state":"active","id":null},{"event_id":"1360119","title":"古川 耕×“文具王”高畑正幸×きだてたく×他故壁氏 「第９回 OKB48選抜総選挙 中間発表トーク \u0026 握手会 in 下北沢 by ブング・ジャム×古川 耕」","url":"http://peatix.com/event/1360119","shortener_url":null,"started_at":"2019-12-01T05:30:00.000+09:00","ended_at":"2019-12-03T23:59:59.000+09:00","limit_number":null,"address":"世田谷区北沢2-5-2 BIG BEN B1F","place":"本屋B\u0026B","lat":0.0,"lon":0.0,"state":"active","id":null},{"event_id":"152780","title":"SocioInfo#19「AI時代におけるデータ分析およびセキュリティ人材」","url":"https://socioinfo.connpass.com/event/152780/","shortener_url":null,"started_at":"2019-12-07T01:00:00.000+09:00","ended_at":"2019-12-08T06:00:00.000+09:00","limit_number":95,"address":"茨城県神栖市土合本町2-9928-1","place":"茨城県立波崎高等学校　電気棟","lat":35.7901,"lon":140.779,"state":"active","id":null},{"event_id":"153157","title":"第21回 PCNひろしま こどもプログラミング教室","url":"https://pcn-hiroshima.connpass.com/event/153157/","shortener_url":null,"started_at":"2019-12-01T01:30:00.000+09:00","ended_at":"2019-12-01T03:30:00.000+09:00","limit_number":16,"address":"オンライン","place":"オンライン","lat":34.3941,"lon":132.459,"state":"active","id":null},{"event_id":"1350181","title":"STARRY NIGHT JAM vol.52 TEAM SURPRISEクリスマス ゴスペル コンサート","url":"http://snj52.peatix.com","shortener_url":null,"started_at":"2019-12-21T17:00:00.000+09:00","ended_at":"2019-12-23T23:59:59.000+09:00","limit_number":null,"address":"福岡市中央区 六本松4丁目2−1","place":"福岡市科学館","lat":33.5774,"lon":130.378,"state":"active","id":null},{"event_id":"149189","title":"Firebase Startup #2 ー Pitch \u0026 Demo Day","url":"https://firebase-community.connpass.com/event/149189/","shortener_url":"https://bit.ly/348JX8B","started_at":"2019-12-01T01:00:00.000+09:00","ended_at":"2019-12-01T09:00:00.000+09:00","limit_number":102,"address":"東京都港区北青山3-1-2 青山セント・シオンビル4階（メトロ 外苑前駅 から 徒歩約５分）","place":"pieceofcake HALL","lat":35.6693,"lon":139.715,"state":"active","id":null},{"event_id":"1355511","title":"STARRY NIGHT JAM vol.51 星降る南阿蘇 ～天文台LIVE中継～","url":"http://snj51.peatix.com","shortener_url":null,"started_at":"2019-12-08T17:30:00.000+09:00","ended_at":"2019-12-10T23:59:59.000+09:00","limit_number":null,"address":"福岡市中央区 六本松4丁目2−1","place":"福岡市科学館","lat":33.5774,"lon":130.378,"state":"active","id":null},{"event_id":"1349997","title":"STARRY NIGHT JAM vol.53　追加上映決定！『QUEEN -HEAVEN-』～冬休み特別上映会～","url":"http://snj53.peatix.com","shortener_url":null,"started_at":"2019-12-24T18:30:00.000+09:00","ended_at":"2019-12-26T23:59:59.000+09:00","limit_number":null,"address":"福岡市中央区 六本松4丁目2−1","place":"福岡市科学館","lat":33.5774,"lon":130.378,"state":"active","id":null},{"event_id":"1359020","title":"2019アーバンデータチャレンジ京都 in NDL関西館 ハッカソン","url":"http://ndlk-hackson.peatix.com","shortener_url":"https://bit.ly/36lKwxQ","started_at":"2019-12-07T10:00:00.000+09:00","ended_at":"2019-12-09T23:59:59.000+09:00","limit_number":null,"address":"精華町精華台8丁目1−3","place":"国立国会図書館 関西館","lat":34.7433,"lon":135.77,"state":"active","id":null},{"event_id":"153788","title":"Hack Future 2019 #hackfuture2019","url":"https://mashupawards.connpass.com/event/153788/","shortener_url":"https://bit.ly/2PCOpZk","started_at":"2019-12-14T01:00:00.000+09:00","ended_at":"2019-12-15T11:00:00.000+09:00","limit_number":30,"address":"東京都千代田区大手町１丁目６−１","place":"Inspired.Lab","lat":35.6864,"lon":139.765,"state":"active","id":null},{"event_id":"1365334","title":"オールナイト楽曲制作合宿『大塚の音で作る、SOUNDS GOODな音楽を。』","url":"http://soundsgoodotsuka191207.peatix.com","shortener_url":"https://bit.ly/323wg9E","started_at":"2019-12-07T16:00:00.000+09:00","ended_at":"2019-12-09T23:59:59.000+09:00","limit_number":null,"address":"東京都豊島区南大塚3-36-7 南大塚T\u0026Tビル6F","place":"RYOZAN PARK 大塚 6F CORE","lat":35.7306,"lon":139.727,"state":"active","id":null},{"event_id":"1365051","title":"腰痛を抱えるランナーのための痛み改善教室(4名限定少人数制開催。走りません) 千葉県柏市 リンクフィットネス主催","url":"http://peatix.com/event/1365051","shortener_url":null,"started_at":"2019-12-21T13:00:00.000+09:00","ended_at":"2019-12-23T23:59:59.000+09:00","limit_number":null,"address":"千葉県柏市柏4-4-5メープル柏201","place":"【集合/受付】千葉県柏市 鍼灸マッサージ院FLAT柏","lat":35.863,"lon":139.974,"state":"active","id":null},{"event_id":"154203","title":"熊ゆに Unityもくもく会　2019/12/1（日）","url":"https://kumauni.connpass.com/event/154203/","shortener_url":null,"started_at":"2019-12-01T04:00:00.000+09:00","ended_at":"2019-12-01T07:00:00.000+09:00","limit_number":10,"address":"熊本県熊本市 中央区下通１丁目１２−２７","place":"未来会議室","lat":32.7998,"lon":130.708,"state":"active","id":null},{"event_id":"100007","title":"【平日夜・全8回】文系社会人のための基礎数学ブートキャンプ～えんぴつで解く機械学習《12-1月》","url":"https://soleildatadojo.doorkeeper.jp/events/100007","shortener_url":null,"started_at":"2019-12-13T18:30:00.000+09:00","ended_at":"2020-01-24T21:40:00.000+09:00","limit_number":24,"address":"大阪府大阪市北区西天満二丁目5番3号(堂島深川ビル3階)","place":"Scrrible Osaka Lab（大阪メトロ御堂筋線「淀屋橋」駅より徒歩4分／京阪電鉄中之島線「大江橋」駅徒歩2分）","lat":null,"lon":null,"state":"active","id":null},{"event_id":"1368810","title":"【満員御礼】クリスマスこどもいっぴんいち＠武蔵小金井 ムサコガーデン","url":"http://peatix.com/event/1368810","shortener_url":null,"started_at":"2019-12-21T11:00:00.000+09:00","ended_at":"2019-12-23T23:59:59.000+09:00","limit_number":null,"address":"小金井市本町5丁目1−18","place":"ムサコガーデン","lat":35.7011,"lon":139.505,"state":"active","id":null},{"event_id":"1368839","title":"【14日キャンセル3枠発生】クリスマスこどもいっぴんいち＠武蔵境nonowaテラス","url":"http://peatix.com/event/1368839","shortener_url":null,"started_at":"2019-12-14T11:00:00.000+09:00","ended_at":"2019-12-16T23:59:59.000+09:00","limit_number":null,"address":"武蔵野市境南町2丁目1","place":"武蔵境nonowa terrace","lat":35.702,"lon":139.545,"state":"active","id":null},{"event_id":"109886","title":" you possibly can search or subscribe to us","url":"https://atnd.org/events/109886","shortener_url":null,"started_at":"2019-12-01T15:30:00.000+09:00","ended_at":"2019-12-03T23:59:59.000+09:00","limit_number":null,"address":"","place":"","lat":null,"lon":null,"state":"closed","id":null},{"event_id":"1370590","title":"生演奏で親子一緒にストレス解消しませんか？\u003c1歳半～3歳児対象\u003e","url":"http://peatix.com/event/1370590","shortener_url":null,"started_at":"2019-12-21T11:00:00.000+09:00","ended_at":"2019-12-23T23:59:59.000+09:00","limit_number":null,"address":"神奈川県川崎市中原区小杉陣屋町1丁目23−7","place":"武蔵小杉【ダンススタジオR】","lat":35.5858,"lon":139.659,"state":"active","id":null},{"event_id":"1370586","title":"音楽の力で、お子さまの\"コミュニケーション力\"を伸ばしてみませんか？\u003c1歳半～3歳児対象\u003e","url":"http://peatix.com/event/1370586","shortener_url":null,"started_at":"2019-12-07T11:00:00.000+09:00","ended_at":"2019-12-09T23:59:59.000+09:00","limit_number":null,"address":"神奈川県川崎市小杉陣屋町1丁目23−7","place":"武蔵小杉【ダンススタジオR】","lat":35.5858,"lon":139.659,"state":"active","id":null},{"event_id":"151713","title":"ええじゃないか！学生ハッカソン in 豊橋","url":"https://toyolab.connpass.com/event/151713/","shortener_url":"https://bit.ly/2Cxen8V","started_at":"2019-12-26T01:00:00.000+09:00","ended_at":"2019-12-27T09:00:00.000+09:00","limit_number":30,"address":"〒440-0888 愛知県豊橋市駅前大通一丁目135番地 COCOLA AVENUE 3F","place":"MUSASHI Innovation Lab CLUE","lat":34.7622,"lon":137.383,"state":"active","id":null},{"event_id":"155219","title":"渋谷開催！業界最安級価格で第一線のプロが教えるGoogleアナリティクス/GAIQ集中講座","url":"https://connpass.com/event/155219/","shortener_url":null,"started_at":"2019-12-14T15:30:00.000+09:00","ended_at":"2019-12-14T18:00:00.000+09:00","limit_number":150,"address":"東京都渋谷区渋谷2-22-3渋谷東口ビル1F/東京都渋谷区渋谷2-17-3 渋谷東宝ビル","place":"TKPガーデンシティ渋谷/TKP渋谷カンファレンスセンター","lat":35.6594,"lon":139.705,"state":"active","id":null},{"event_id":"151789","title":"アイマスハッカソン2019 in 関東","url":"https://imas.connpass.com/event/151789/","shortener_url":"https://bit.ly/2rs7LpO","started_at":"2019-12-07T01:00:00.000+09:00","ended_at":"2019-12-07T11:00:00.000+09:00","limit_number":33,"address":"東京都千代田区神田駿河台2‒2 御茶ノ水杏雲ビル5F","place":"株式会社BearTail","lat":35.6655,"lon":139.736,"state":"active","id":null},{"event_id":"154962","title":"アイマスハッカソン2019 in 関西","url":"https://imas.connpass.com/event/154962/","shortener_url":"https://bit.ly/33zKH6F","started_at":"2019-12-07T01:00:00.000+09:00","ended_at":"2019-12-07T11:00:00.000+09:00","limit_number":30,"address":"大阪市北区大深町4番20号 グランフロント大阪タワーA 35階","place":"さくらインターネット 本社","lat":34.704,"lon":135.495,"state":"active","id":null},{"event_id":"1376523","title":"「わたしらしさ」発見ゼミ〜コミュニティビルダーと考える意食住の整え方〜 (豊かな暮らしってなんだ②精神的)","url":"http://peatix.com/event/1376523","shortener_url":null,"started_at":"2019-12-05T11:00:00.000+09:00","ended_at":"2019-12-07T23:59:59.000+09:00","limit_number":null,"address":"東京都中央区日本橋茅場町1-5-8","place":"CAFE SALVADOR BUSINESS SALON","lat":35.6806,"lon":139.779,"state":"active","id":null},{"event_id":"1372082","title":"All Night CATAN　〜世界三大ボードゲーム『カタン』で、夜を明かしてみませんか？〜","url":"http://allnightcatan.peatix.com","shortener_url":null,"started_at":"2019-12-06T19:30:00.000+09:00","ended_at":"2019-12-08T23:59:59.000+09:00","limit_number":null,"address":"大阪市北区浮田1丁目1−8","place":"LINDA HOSTEL 106","lat":34.7085,"lon":135.509,"state":"active","id":null},{"event_id":"1372235","title":"アイディアソン：スローモビリティで楽しいアキバ！","url":"http://tttgreaterakiba.peatix.com","shortener_url":"https://bit.ly/33I87qN","started_at":"2019-12-07T12:00:00.000+09:00","ended_at":"2019-12-09T23:59:59.000+09:00","limit_number":null,"address":"東京都千代田区外神田1-8-13 NREG秋葉原ビル","place":"二松学舎大学　AKIBA Lab.","lat":35.6992,"lon":139.77,"state":"active","id":null},{"event_id":"155589","title":"わたし達の未来をつくるアイデアソン・ハッカソン〜身体障害を持つ方編〜【レビュー】","url":"https://connpass.com/event/155589/","shortener_url":"https://bit.ly/34YiWVP","started_at":"2019-12-06T04:00:00.000+09:00","ended_at":"2019-12-06T09:00:00.000+09:00","limit_number":30,"address":"〒651-0096 兵庫県神戸市中央区雲井通5丁目3-1 サンパル 6階","place":"起業プラザひょうご セミナールーム","lat":34.6956,"lon":135.197,"state":"active","id":null},{"event_id":"1364868","title":"「14時間で作る新規事業案」ブロックチェーンビジネスアイデアソン#10","url":"http://blockchainbusinessideathon12.peatix.com","shortener_url":"https://bit.ly/32MoQrF","started_at":"2019-12-13T19:00:00.000+09:00","ended_at":"2019-12-15T23:59:59.000+09:00","limit_number":null,"address":"中央区1丁目8−19 キラリトギンザ 11階","place":"BINARYSTAR 株式会社","lat":35.6744,"lon":139.769,"state":"active","id":null},{"event_id":"155988","title":"Teams Hackathon Vol.1","url":"https://connpass.com/event/155988/","shortener_url":"https://bit.ly/2CKbilV","started_at":"2019-12-02T01:00:00.000+09:00","ended_at":"2019-12-04T03:00:00.000+09:00","limit_number":40,"address":"東京都渋谷区代官山町20-5 リードシー代官山 2F","place":"セミナールーム","lat":35.6486,"lon":139.703,"state":"active","id":null},{"event_id":"1346855","title":"社会を変えるアイデアソン（週末アイデアソンでちょっといい感じに社会をカエルンジャー【第2部】）","url":"http://20191201-kaerunjer.peatix.com","shortener_url":"https://bit.ly/37bYSB6","started_at":"2019-12-01T04:00:00.000+09:00","ended_at":"2019-12-03T23:59:59.000+09:00","limit_number":null,"address":"中央区日本橋小舟町7−10","place":"むすべや日本橋まどか","lat":35.6863,"lon":139.778,"state":"active","id":null},{"event_id":"1362808","title":"SDGsカードゲームで考える社会課題（週末アイデアソンでちょっといい感じに社会をカエルンジャー【第１部】）","url":"http://20191201-sdgs-kaeru01.peatix.com","shortener_url":"https://bit.ly/33WkkYO","started_at":"2019-12-01T01:30:00.000+09:00","ended_at":"2019-12-03T23:59:59.000+09:00","limit_number":null,"address":"中央区日本橋小舟町7−10","place":"むすべや日本橋まどか","lat":35.6863,"lon":139.778,"state":"active","id":null},{"event_id":"1382213","title":"【無料】リアルタイムに図解する楽描（らくがき） 体験会 #楽描きワイワイ  （定例：毎月第２日曜日）※今回は都合により土曜日","url":"http://rkgkyy-20191207.peatix.com","shortener_url":null,"started_at":"2019-12-07T09:30:00.000+09:00","ended_at":"2019-12-09T23:59:59.000+09:00","limit_number":null,"address":"千代田区紀尾井町1−2 17F","place":"LODGE","lat":35.6797,"lon":139.737,"state":"active","id":null},{"event_id":"156290","title":"子ども向けプログラミングクラブ コーダー道場甲府#29","url":"https://coderdojokofu.connpass.com/event/156290/","shortener_url":null,"started_at":"2019-12-07T00:20:00.000+09:00","ended_at":"2019-12-07T02:40:00.000+09:00","limit_number":13,"address":"山梨県甲府市北口２丁目８番１号","place":"山梨県立図書館","lat":35.6685,"lon":138.57,"state":"active","id":null},{"event_id":"110183","title":" Conclusion  Side channel blowers usually are not only critical","url":"https://atnd.org/events/110183","shortener_url":null,"started_at":"2019-12-04T15:30:00.000+09:00","ended_at":"2019-12-06T23:59:59.000+09:00","limit_number":null,"address":"","place":"","lat":null,"lon":null,"state":"closed","id":null},{"event_id":"1382217","title":"‐畑ビジネスのスタートアップ‐　東京から始める「小さい農業」アイデアソンvol.2","url":"http://workshop1209.peatix.com","shortener_url":"https://bit.ly/341mA19","started_at":"2019-12-09T19:00:00.000+09:00","ended_at":"2019-12-11T23:59:59.000+09:00","limit_number":null,"address":"千代田区丸の内2丁目1−1 明治安田生命ビル TOKYO創業ステーション1F","place":"Startup Hub Tokyo・TOKYO創業ステーション","lat":35.6792,"lon":139.762,"state":"active","id":null},{"event_id":"1382887","title":"【無料体験会】岡山北長瀬校（金曜日）/2019年12月6日(金)　※チケット選択できない学年は、満員のため申込できませんのでご注意下さい。 (複製)","url":"http://kitanagasekin-1206.peatix.com","shortener_url":null,"started_at":"2019-12-06T17:00:00.000+09:00","ended_at":"2019-12-08T23:59:59.000+09:00","limit_number":null,"address":"岡山市北区北長瀬表町1丁目1−1","place":"岡山ドーム隣の多目的広場A（南面道路側）","lat":34.6538,"lon":133.892,"state":"active","id":null},{"event_id":"110192","title":"Daftar Situs Judi Onlie","url":"https://atnd.org/events/110192","shortener_url":null,"started_at":"2019-12-31T16:30:00.000+09:00","ended_at":"2020-01-02T17:00:00.000+09:00","limit_number":null,"address":"","place":"","lat":null,"lon":null,"state":"closed","id":null},{"event_id":"110190","title":"プロ生勉強会 合宿＠湯河原 #マスコットアプリ文化祭","url":"https://atnd.org/events/110190","shortener_url":"https://bit.ly/2OvbXwS","started_at":"2019-12-21T03:00:00.000+09:00","ended_at":"2019-12-22T08:00:00.000+09:00","limit_number":10,"address":"","place":"","lat":null,"lon":null,"state":"closed","id":null},{"event_id":"1368531","title":"【無料体験会！】今話題の”ドローンパイロットのお仕事”しませんか？","url":"http://droneenjoy-cocoe.peatix.com","shortener_url":null,"started_at":"2019-12-09T13:00:00.000+09:00","ended_at":"2019-12-11T23:59:59.000+09:00","limit_number":null,"address":"宮城県仙台市青葉区国分町1-4-9 enspace","place":"イベントスペース【enspace】","lat":0.0,"lon":0.0,"state":"active","id":null},{"event_id":"1384026","title":"残席1【東京12月開催】02：UIデザインの常識を改める「認知学から学ぶUIの基本」","url":"http://peatix.com/event/1384026","shortener_url":null,"started_at":"2019-12-15T13:00:00.000+09:00","ended_at":"2019-12-17T23:59:59.000+09:00","limit_number":null,"address":"千代田区神田鍛冶町3丁目2−2","place":"エッサム神田ホール1号館","lat":35.6935,"lon":139.771,"state":"active","id":null},{"event_id":"1384023","title":"残席１【東京体験版12月】初心者歓迎！他では絶対教えてくれない！楽しく学ぶユーザー視点のUIデザイン","url":"http://peatix.com/event/1384023","shortener_url":null,"started_at":"2019-12-13T19:00:00.000+09:00","ended_at":"2019-12-15T23:59:59.000+09:00","limit_number":null,"address":"千代田区神田鍛冶町3丁目2−2","place":"エッサム神田ホール1号館","lat":35.6935,"lon":139.771,"state":"active","id":null},{"event_id":"1384025","title":"【東京12月開催】01：ユーザー視点のUIデザインへのヒント「街中のサイン表示」","url":"http://peatix.com/event/1384025","shortener_url":null,"started_at":"2019-12-15T16:30:00.000+09:00","ended_at":"2019-12-17T23:59:59.000+09:00","limit_number":null,"address":"千代田区神田鍛冶町3丁目2−2","place":"エッサム神田ホール1号館","lat":35.6935,"lon":139.771,"state":"active","id":null},{"event_id":"1381644","title":"だしソムリエ東京　〜良い鰹節ってなんだ？　見て聞いて味わおう〜","url":"http://dashi-study-totkyo-20191201.peatix.com","shortener_url":null,"started_at":"2019-12-01T06:15:00.000+09:00","ended_at":"2019-12-03T23:59:59.000+09:00","limit_number":null,"address":"東京都千代田区神田錦町2-9-1 斎藤ビル2階","place":"サテライトオフィス","lat":35.6913,"lon":139.763,"state":"active","id":null},{"event_id":"1384398","title":"【生活習慣に関連する遺伝子＆腸内フローラ検査からわかる将来の健康リスクと対処法】とは？　【この遺伝子セミナーを見る前に他の遺伝子検査を受けることは考えてはいけません！】","url":"http://peatix.com/event/1384398","shortener_url":null,"started_at":"2019-12-19T10:00:00.000+09:00","ended_at":"2019-12-21T23:59:59.000+09:00","limit_number":null,"address":"世田谷区 粕谷4丁目19−6-2F","place":"トータルヘルスケアハーブ","lat":35.6646,"lon":139.603,"state":"active","id":null},{"event_id":"1386562","title":"FUSE 38 - ゲーム開発イベント（Game Jam / ハッカソン）","url":"http://fuse38.peatix.com","shortener_url":"https://bit.ly/2qy0ncF","started_at":"2019-12-08T10:00:00.000+09:00","ended_at":"2019-12-10T23:59:59.000+09:00","limit_number":null,"address":"福島県郡山市方八町2-4-15","place":"WiZ 国際情報工科自動車大学校","lat":37.3943,"lon":140.391,"state":"active","id":null},{"event_id":"1385613","title":"べんチョキ先生〜色であそぼう〜","url":"http://peatix.com/event/1385613","shortener_url":null,"started_at":"2019-12-01T02:00:00.000+09:00","ended_at":"2019-12-03T23:59:59.000+09:00","limit_number":null,"address":"東京都葛飾区亀有3-26-1","place":" 絵と言葉のライブラリー ミッカ（リリオ亀有7F）","lat":35.7666,"lon":139.848,"state":"active","id":null},{"event_id":"1385607","title":"事業創造アイデアソン―“未来のありたい姿”から高知の未来を担う、観光・ヘルスケア領域の事業アイデアを考える―","url":"http://ideathon2019ksb2.peatix.com","shortener_url":"https://bit.ly/2pNxYyN","started_at":"2019-12-16T13:00:00.000+09:00","ended_at":"2019-12-18T23:59:59.000+09:00","limit_number":null,"address":"南御座90−1 高知蔦屋書店3階","place":"Kochi Startup BASE","lat":33.5667,"lon":133.563,"state":"active","id":null},{"event_id":"1386422","title":"大晦日は早起きして陣馬山で年越し蕎麦を食べませんか？","url":"http://peatix.com/event/1386422","shortener_url":null,"started_at":"2019-12-31T07:50:00.000+09:00","ended_at":"2020-01-02T23:59:59.000+09:00","limit_number":null,"address":"相模原市緑区小渕1702−3","place":"藤野駅","lat":35.6158,"lon":139.152,"state":"active","id":null},{"event_id":"1385590","title":"残1名募集【犬用お料理教室】１２月は愛犬も一緒にクリスマス！ワンちゃん用のクリスマスケーキを一緒に作りましょう！毎月第3火曜日は「わんちゃんデー」 大切な愛犬のためにできること、楽しく学んでみませんか？","url":"http://peatix.com/event/1385590","shortener_url":null,"started_at":"2019-12-17T10:00:00.000+09:00","ended_at":"2019-12-19T23:59:59.000+09:00","limit_number":null,"address":"杉並区西荻北3丁目21−5","place":"Kokopluscafe","lat":35.7048,"lon":139.6,"state":"active","id":null},{"event_id":"156760","title":"札幌オープンイノベーション勉強会（vol.6）＃札幌dis から ＃札幌discover へ","url":"https://sapporo-openinovation.connpass.com/event/156760/","shortener_url":null,"started_at":"2019-12-08T06:00:00.000+09:00","ended_at":"2019-12-08T08:00:00.000+09:00","limit_number":60,"address":"札幌市中央区大通西1-1","place":"NHK札幌放送局　第２スタジオ","lat":43.0613,"lon":141.356,"state":"active","id":null},{"event_id":"110317","title":"激闘！ドラゴン大決戦プレリリースパーティーin名古屋","url":"https://atnd.org/events/110317","shortener_url":null,"started_at":"2019-12-07T05:00:00.000+09:00","ended_at":"2019-12-07T09:00:00.000+09:00","limit_number":30,"address":"愛知県名古屋市中区新栄2-3-12","place":"a.ligne(アリーニュ)","lat":35.1689,"lon":136.923,"state":"closed","id":null},{"event_id":"157339","title":"Kamakura Mok Mok Hack 64 - 鎌倉もくもく会","url":"https://kamkura-mokmok.connpass.com/event/157339/","shortener_url":null,"started_at":"2019-12-07T04:30:00.000+09:00","ended_at":"2019-12-07T07:00:00.000+09:00","limit_number":7,"address":"神奈川県 鎌倉市由比ガ浜1丁目12-8","place":"HOUSE YUIGAHAMA","lat":35.3202,"lon":139.55,"state":"active","id":null},{"event_id":"157472","title":"CfKTQ2020望年会","url":"https://code4kitakyushu.connpass.com/event/157472/","shortener_url":null,"started_at":"2019-12-13T10:00:00.000+09:00","ended_at":"2019-12-13T12:00:00.000+09:00","limit_number":20,"address":"福岡県北九州市小倉北区浅野２丁目１２−１４","place":"カフェカウサ2階","lat":33.8887,"lon":130.882,"state":"active","id":null},{"event_id":"1381223","title":"どうして私は先生になったんだっけ？ー教育者の学びを深める1泊2日ー","url":"http://20191226tariki.peatix.com","shortener_url":null,"started_at":"2019-12-26T10:00:00.000+09:00","ended_at":"2019-12-28T23:59:59.000+09:00","limit_number":null,"address":"兵庫県丹波市山南町南中115-6","place":"ゲストハウスひだまり（みんなの村内）","lat":35.092,"lon":134.998,"state":"active","id":null},{"event_id":"1386517","title":"【12月15日開催】 東京から一番近い村！清川村で冬の畑仕事を一緒にしませんか？ ADDress清川菜園プロジェクト","url":"http://peatix.com/event/1386517","shortener_url":null,"started_at":"2019-12-15T13:00:00.000+09:00","ended_at":"2019-12-17T23:59:59.000+09:00","limit_number":null,"address":"清川村","place":"清川村煤ヶ谷（郵便局近く）","lat":35.4824,"lon":139.276,"state":"active","id":null},{"event_id":"1384893","title":"れいわ新選組・山本太郎代表　最新著書『＃あなたを幸せにしたいんだ 山本太郎とれいわ新選組』出版記念サイン会【限定50名】","url":"http://shupure-yamamototaro1215.peatix.com","shortener_url":null,"started_at":"2019-12-15T14:30:00.000+09:00","ended_at":"2019-12-17T23:59:59.000+09:00","limit_number":null,"address":"東京都千代田区神田神保町3-13-1","place":"集英社　神保町3丁目ビル1Fロビー（神保町駅A1出口徒歩30秒）","lat":35.6954,"lon":139.755,"state":"active","id":null},{"event_id":"1387261","title":"2019/12/18（水）19：00～『街灯りとしての本屋』重版記念＜僕らの本の仕入れ方 ～ゆるトーク選書ん（セッション）～＞登壇者 落合 博（Readin' Writin' TAWARAMACHI BOOK STORE 店主） 竹田 信弥（双子のライオン堂 店主）","url":"http://peatix.com/event/1387261","shortener_url":null,"started_at":"2019-12-18T19:00:00.000+09:00","ended_at":"2019-12-20T23:59:59.000+09:00","limit_number":null,"address":"千代田区神田小川町3丁目8−5","place":"八木書店 店売所","lat":35.696,"lon":139.762,"state":"active","id":null},{"event_id":"157573","title":"【東京】UX JAM' 04","url":"https://uxmilk.connpass.com/event/157573/","shortener_url":null,"started_at":"2019-12-11T10:30:00.000+09:00","ended_at":"2019-12-11T13:00:00.000+09:00","limit_number":203,"address":"東京都渋谷区千駄ケ谷４丁目２３−５ ＪＰＲ千駄ヶ谷ビル５F","place":"ピクシブ株式会社","lat":35.6809,"lon":139.707,"state":"active","id":null},{"event_id":"157560","title":"スクラム道関西 オープン・ジャム","url":"https://scrumdo-kansai.connpass.com/event/157560/","shortener_url":null,"started_at":"2019-12-10T10:30:00.000+09:00","ended_at":"2019-12-10T12:30:00.000+09:00","limit_number":25,"address":"大阪府大阪市北区末広町3-7","place":"TAM COWORKING OSAKA","lat":34.7019,"lon":135.51,"state":"active","id":null},{"event_id":"1388315","title":"【１２月２日 (月)】ラボで朝活～珈琲とパンを食べながら～ (テーマ：マインドフルネス入門　今日から一緒に始めてみませんか？）","url":"http://peatix.com/event/1388315","shortener_url":null,"started_at":"2019-12-01T22:30:00.000+09:00","ended_at":"2019-12-03T23:59:59.000+09:00","limit_number":null,"address":"中央区日本橋本町2丁目3−11","place":"日本橋ライフサイエンスビルディング","lat":35.6877,"lon":139.776,"state":"active","id":null},{"event_id":"157461","title":"株式会社ニトリのITアイデアソン「#N_HACK （エヌハック）」","url":"https://connpass.com/event/157461/","shortener_url":"https://bit.ly/2L3Eh8y","started_at":"2019-12-11T10:00:00.000+09:00","ended_at":"2019-12-11T13:00:00.000+09:00","limit_number":19,"address":"〒150-0033東京都渋谷区猿楽町10-1","place":"株式会社サイバード","lat":35.6504,"lon":139.703,"state":"active","id":null},{"event_id":"1382877","title":"（学生無料）ブロックチェーン研究教育講座（中級）第4講#2 【ブロックチェーンビジネスアイデアソン】","url":"http://bbc-waseda-brel-bs-blockchaincourse4-2.peatix.com","shortener_url":"https://bit.ly/35KCs8I","started_at":"2019-12-13T19:00:00.000+09:00","ended_at":"2019-12-15T23:59:59.000+09:00","limit_number":null,"address":"中央区1丁目8−19 キラリトギンザ 11階","place":"BINARYSTAR 株式会社","lat":35.6744,"lon":139.769,"state":"active","id":null},{"event_id":"1386371","title":"JOKERという悲しみを生まない人間関係を、私たちはつくれるのか？映画『JOKER』を、『天才を殺す凡人』から読む。１２月の「本で遊ぶじかん」","url":"http://sugoiinc201912.peatix.com","shortener_url":null,"started_at":"2019-12-18T19:00:00.000+09:00","ended_at":"2019-12-20T23:59:59.000+09:00","limit_number":null,"address":"東京都世田谷区三軒茶屋1-32-9 4B","place":"株式会社SUGOI","lat":0.0,"lon":0.0,"state":"active","id":null},{"event_id":"110531","title":"【ハンズオン講習 \u0026 ハッカソン】Node.jsでLine or  Slackのbotを作ってみよう #Cording owl","url":"https://atnd.org/events/110531","shortener_url":"https://bit.ly/35X55j7","started_at":"2019-12-07T04:00:00.000+09:00","ended_at":"2019-12-07T11:00:00.000+09:00","limit_number":15,"address":"東京都世田谷区駒沢5丁目26−7 コマザワパークサイドテラスノース3F","place":"株式会社ALCHEMY 　オフィス","lat":35.6271,"lon":139.656,"state":"closed","id":null},{"event_id":"158023","title":"子どものためのプログラミングクラブ コーダー道場韮崎 #9","url":"https://coderdojo-nirasaki.connpass.com/event/158023/","shortener_url":null,"started_at":"2019-12-15T04:30:00.000+09:00","ended_at":"2019-12-15T06:40:00.000+09:00","limit_number":13,"address":"山梨県韮崎市若宮一丁目2番50号","place":"韮崎市民交流センター","lat":35.7117,"lon":138.45,"state":"active","id":null},{"event_id":"158022","title":"子どものためのプログラミングクラブ コーダー道場北杜 #8","url":"https://coderdojo-hokuto.connpass.com/event/158022/","shortener_url":null,"started_at":"2019-12-15T00:30:00.000+09:00","ended_at":"2019-12-15T02:40:00.000+09:00","limit_number":8,"address":"山梨県北杜市高根町村山北割３２８８","place":"北杜市高根町農村環境改善センター","lat":35.8375,"lon":138.412,"state":"active","id":null},{"event_id":"1383567","title":"そのテンプレ飽きられてませんか？コピペは卒業！熱血?スカウトテクニック","url":"http://digrow-seminar2.peatix.com","shortener_url":null,"started_at":"2019-12-04T09:00:00.000+09:00","ended_at":"2019-12-06T23:59:59.000+09:00","limit_number":null,"address":"港区南青山5丁目4−35","place":"Supership株式会社","lat":35.6618,"lon":139.714,"state":"active","id":null},{"event_id":"1390051","title":"「木」と正面から向き合いませんか　～建築材としての「木」の神秘～ Vol.3 法隆寺はなぜ樹齢1600年の檜にこだわったか","url":"http://peatix.com/event/1390051","shortener_url":null,"started_at":"2019-12-11T19:00:00.000+09:00","ended_at":"2019-12-13T23:59:59.000+09:00","limit_number":null,"address":"新宿区市谷田町1丁目14","place":"DNPプラザ","lat":35.6934,"lon":139.737,"state":"active","id":null},{"event_id":"158249","title":"第631回 Kaggle メディカルデータ分析ハッカソン by Team AI 12/7(土)","url":"https://teamai.connpass.com/event/158249/","shortener_url":"https://bit.ly/2OFW3RA","started_at":"2019-12-07T07:00:00.000+09:00","ended_at":"2019-12-07T09:00:00.000+09:00","limit_number":22,"address":"","place":"Online","lat":35.6618,"lon":139.696,"state":"active","id":null},{"event_id":"1389834","title":"広島開催！スタートアップ・ラボ・東広島 説明会＊アイデアソン","url":"http://peatix.com/event/1389834","shortener_url":"https://bit.ly/2Ldk8Ny","started_at":"2019-12-08T15:00:00.000+09:00","ended_at":"2019-12-10T23:59:59.000+09:00","limit_number":null,"address":"広島市中区本川町3丁目1−番5号","place":"ポートインク","lat":34.4003,"lon":132.451,"state":"active","id":null},{"event_id":"1389921","title":"Dec 8 - NBT Jam Session - Hosted by Michael Veerapen Trio","url":"http://peatix.com/event/1389921","shortener_url":null,"started_at":"2019-12-08T22:00:00.000+09:00","ended_at":"2019-12-10T23:59:59.000+09:00","limit_number":null,"address":"17, Jalan Mesui, off, Jalan Nagasari, Bukit Bintang, Kuala Lumpur","place":"No Black Tie","lat":3.14868,"lon":101.708,"state":"active","id":null},{"event_id":"1388564","title":"介護の世界で未来の職業をつくるアイデアソン　～みんながケアに関われる社会をつくろう","url":"http://ideawb2.peatix.com","shortener_url":"https://bit.ly/37SZeNo","started_at":"2019-12-23T18:30:00.000+09:00","ended_at":"2019-12-25T23:59:59.000+09:00","limit_number":null,"address":"仙台市青葉区国分町1丁目4−9 enspace","place":"enspace","lat":38.2609,"lon":140.868,"state":"active","id":null},{"event_id":"1388511","title":"「わたし」と社会課題をつなぐしごと創造アイデアソン　～Lego® Serious Play®メソッドと教材を活用したワークショップ","url":"http://ideawb1.peatix.com","shortener_url":"https://bit.ly/2DIGPF2","started_at":"2019-12-16T18:30:00.000+09:00","ended_at":"2019-12-18T23:59:59.000+09:00","limit_number":null,"address":"仙台市青葉区国分町1丁目4−9 enspace","place":"enspace","lat":38.2609,"lon":140.868,"state":"active","id":null},{"event_id":"1390506","title":"on-line マインドフルネス・ワークショップ　～心の荒波を、凪にしませんか？","url":"http://morefree-on-line-ws.peatix.com","shortener_url":null,"started_at":"2019-12-19T20:00:00.000+09:00","ended_at":"2019-12-21T23:59:59.000+09:00","limit_number":null,"address":"東京都中野区中野1-41-11","place":"お好きな場所からご参加下さい","lat":35.7056,"lon":139.675,"state":"active","id":null},{"event_id":"158447","title":"リクエストコーディング基礎授業 #1","url":"https://shomiyu-camp.connpass.com/event/158447/","shortener_url":null,"started_at":"2019-12-08T01:00:00.000+09:00","ended_at":"2019-12-08T10:00:00.000+09:00","limit_number":7,"address":"東京都渋谷区道玄坂2-10-12 新大宗ビル3号館9F","place":"日本フードデリバリー株式会社様 オフィス","lat":35.6587,"lon":139.698,"state":"active","id":null},{"event_id":"158445","title":"【福岡】UX JAM in FUKUOKA 02","url":"https://uxmilk.connpass.com/event/158445/","shortener_url":null,"started_at":"2019-12-18T10:30:00.000+09:00","ended_at":"2019-12-18T12:30:00.000+09:00","limit_number":61,"address":"福岡県福岡市中央区大名２丁目６−１１","place":"FUKUOKA growth next","lat":33.5892,"lon":130.395,"state":"active","id":null},{"event_id":"158390","title":"【初心者向け】北千住：弊社代表がインフラ構築するのを眺める会","url":"https://soilab.connpass.com/event/158390/","shortener_url":null,"started_at":"2019-12-07T02:00:00.000+09:00","ended_at":"2019-12-07T08:00:00.000+09:00","limit_number":4,"address":"東京都足立区千住1-3-3金田ビル401","place":"創意ラボ(株)千住オフィス","lat":35.747,"lon":139.8,"state":"active","id":null},{"event_id":"158322","title":"第639回 Kaggle 自然言語データ分析ハッカソン by Team AI 12/21(土)","url":"https://teamai.connpass.com/event/158322/","shortener_url":"https://bit.ly/2OMqcyL","started_at":"2019-12-21T07:00:00.000+09:00","ended_at":"2019-12-21T09:00:00.000+09:00","limit_number":22,"address":"","place":"Online","lat":35.6618,"lon":139.696,"state":"active","id":null},{"event_id":"158313","title":"第635回 Kaggle FinTechデータ分析ハッカソン by Team AI 12/14（土）","url":"https://teamai.connpass.com/event/158313/","shortener_url":"https://bit.ly/2YfFbEy","started_at":"2019-12-14T07:00:00.000+09:00","ended_at":"2019-12-14T09:00:00.000+09:00","limit_number":22,"address":"","place":"Online","lat":35.6618,"lon":139.696,"state":"active","id":null},{"event_id":"1354974","title":"【hairlogy】#8 予約リストをあなたの大好きなお客様でいっぱいにしませんか12月","url":"http://hairlogy191119.peatix.com","shortener_url":null,"started_at":"2019-12-12T19:30:00.000+09:00","ended_at":"2019-12-14T23:59:59.000+09:00","limit_number":null,"address":"東京都調布市仙川町1―15―65","place":"Log.","lat":35.66,"lon":139.586,"state":"active","id":null},{"event_id":"1386255","title":"「なぜそんなやり方するのだろう」相手が期待通り動いてくれないことはありませんか？","url":"http://peatix.com/event/1386255","shortener_url":null,"started_at":"2019-12-07T10:00:00.000+09:00","ended_at":"2019-12-09T23:59:59.000+09:00","limit_number":null,"address":"東京都文京区本郷3-27-12","place":"本郷デントビル２F","lat":35.7067,"lon":139.762,"state":"active","id":null},{"event_id":"100301","title":"Wikipedia Town 函南","url":"https://0168e91711e4c480d710c70399.doorkeeper.jp/events/100301","shortener_url":null,"started_at":"2019-12-08T09:30:00.000+09:00","ended_at":"2019-12-08T17:00:00.000+09:00","limit_number":15,"address":"静岡県 田方郡函南町上沢字田中107","place":"かんなみ知恵の和館（函南町立図書館）","lat":null,"lon":null,"state":"active","id":null},{"event_id":"100400","title":"アクセスに優れた渋谷開催！業界最安級価格で第一線のプロが教えるGoogleアナリティクス/GAIQ集中講座","url":"https://aa4bcf6c84cefde48b81e0f2ea.doorkeeper.jp/events/100400","shortener_url":null,"started_at":"2019-12-14T15:30:00.000+09:00","ended_at":"2019-12-14T18:00:00.000+09:00","limit_number":150,"address":"東京都渋谷区渋谷2-22-3渋谷東口ビル1F/東京都渋谷区渋谷2-17-3 渋谷東宝ビル","place":"TKPガーデンシティ渋谷/TKP渋谷カンファレンスセンター","lat":null,"lon":null,"state":"active","id":null},{"event_id":"100533","title":"12/22(日)festivo SEO Camp@東京【9,000円】～SEOの全体像をつかむ！基礎概要から内部対策、キーワードやコンテンツの作り方など、実践スキルを学ぶ7時間！～","url":"https://festivo.doorkeeper.jp/events/100533","shortener_url":"https://bit.ly/33Sh67O","started_at":"2019-12-22T10:30:00.000+09:00","ended_at":"2019-12-22T18:30:00.000+09:00","limit_number":12,"address":"東京都新宿区高田馬場1-28-10 三慶ビル4F","place":"CASE Shinjuku（ケイスシンジュク）","lat":null,"lon":null,"state":"active","id":null},{"event_id":"100544","title":"SDGsの本質をカードゲーム型ワークショップで体感しよう！ 〜SW Tokyo GreenTech 3rd プレイベント〜","url":"https://swtokyo.doorkeeper.jp/events/100544","shortener_url":null,"started_at":"2019-12-14T10:15:00.000+09:00","ended_at":"2019-12-14T14:00:00.000+09:00","limit_number":30,"address":"千代田区神田神保町1-6","place":"みらいけん（神保町サンビルディング3F）","lat":null,"lon":null,"state":"active","id":null},{"event_id":"99482","title":"ユーザーリサーチの進め方","url":"https://swtokyo.doorkeeper.jp/events/99482","shortener_url":null,"started_at":"2019-12-12T19:00:00.000+09:00","ended_at":"2019-12-12T21:00:00.000+09:00","limit_number":25,"address":"東京都港区南青山6-10-11","place":"Wesley Center #204","lat":null,"lon":null,"state":"active","id":null},{"event_id":"99595","title":"スタートアップの始め方","url":"https://swfukuyama.doorkeeper.jp/events/99595","shortener_url":null,"started_at":"2019-12-26T18:00:00.000+09:00","ended_at":"2019-12-26T20:00:00.000+09:00","limit_number":20,"address":"広島県福山市 伏見町4番33号","place":"エリアイン伏見町","lat":null,"lon":null,"state":"active","id":null},{"event_id":"100805","title":"【12/9（月）・16（月）】初心者向け・２回で学ぶシリーズ①『PythonとJupyterNotebookの基礎』","url":"https://soleildatadojo.doorkeeper.jp/events/100805","shortener_url":null,"started_at":"2019-12-09T19:30:00.000+09:00","ended_at":"2019-12-16T21:30:00.000+09:00","limit_number":8,"address":"大阪府大阪市北区西天満二丁目5番3号(堂島深川ビル3階)","place":"SCRIBBLE OSAKA LAB（SOL）（大阪メトロ御堂筋線「淀屋橋」駅から徒歩４分）","lat":null,"lon":null,"state":"active","id":null},{"event_id":"100611","title":"クラウドファンディングの始め方","url":"https://swtokyo.doorkeeper.jp/events/100611","shortener_url":null,"started_at":"2019-12-10T19:00:00.000+09:00","ended_at":"2019-12-10T21:00:00.000+09:00","limit_number":10,"address":"東京都港区南青山6-10-11","place":"Wesley Center #201","lat":null,"lon":null,"state":"active","id":null},{"event_id":"158571","title":"第632回International IT/AI Meetup","url":"https://teamai.connpass.com/event/158571/","shortener_url":null,"started_at":"2019-12-10T10:30:00.000+09:00","ended_at":"2019-12-10T12:30:00.000+09:00","limit_number":5,"address":"東京都渋谷区道玄坂2丁目17-2（トップ美奄 2Ｆ）","place":"KOBUSHI BEER LOUNGE \u0026 BAR","lat":35.6588,"lon":139.697,"state":"active","id":null},{"event_id":"100892","title":"#45 Wacker 和歌山でやるITエンジニア勉強会 12月 白浜開催 Wacker Camp \u0026 忘年会","url":"https://wacker.doorkeeper.jp/events/100892","shortener_url":null,"started_at":"2019-12-21T15:00:00.000+09:00","ended_at":"2019-12-22T11:00:00.000+09:00","limit_number":null,"address":"和歌山県白浜町","place":"白浜","lat":null,"lon":null,"state":"active","id":null},{"event_id":"100612","title":"コミュニティの育て方","url":"https://swtokyo.doorkeeper.jp/events/100612","shortener_url":null,"started_at":"2019-12-17T19:00:00.000+09:00","ended_at":"2019-12-17T21:00:00.000+09:00","limit_number":10,"address":"東京都港区南青山6-10-11","place":"Wesley Center #201","lat":null,"lon":null,"state":"active","id":null},{"event_id":"100613","title":"パラレルキャリアの始め方","url":"https://swtokyo.doorkeeper.jp/events/100613","shortener_url":null,"started_at":"2019-12-19T19:00:00.000+09:00","ended_at":"2019-12-19T21:00:00.000+09:00","limit_number":10,"address":"東京都港区南青山6-10-11","place":"Wesley Center #201","lat":null,"lon":null,"state":"active","id":null},{"event_id":"100614","title":"［海外］StartupWeekend説明会","url":"https://swtokyo.doorkeeper.jp/events/100614","shortener_url":null,"started_at":"2019-12-21T14:30:00.000+09:00","ended_at":"2019-12-21T15:30:00.000+09:00","limit_number":20,"address":"東京都港区南青山6-10-11","place":"Wesley Center #204","lat":null,"lon":null,"state":"active","id":null},{"event_id":"100615","title":"SW挑戦後の振り返り","url":"https://swtokyo.doorkeeper.jp/events/100615","shortener_url":null,"started_at":"2019-12-21T12:30:00.000+09:00","ended_at":"2019-12-21T14:30:00.000+09:00","limit_number":20,"address":"","place":"Wesley Center #204","lat":null,"lon":null,"state":"active","id":null},{"event_id":"101059","title":"12/11（水）～13（金）★大阪開催【横浜国立大学・横浜市立大学】研究∝縁結び企画『研究詣で』× プレ異能vationスクールSOL【入場無料】","url":"https://soleildatadojo.doorkeeper.jp/events/101059","shortener_url":null,"started_at":"2019-12-13T17:00:00.000+09:00","ended_at":"2019-12-13T18:00:00.000+09:00","limit_number":null,"address":"大阪府大阪市北区西天満二丁目5番3号(堂島深川ビル3階)","place":"SCRIBBLE OSAKA LAB（SOL）（大阪メトロ御堂筋線「淀屋橋」駅から徒歩４分）","lat":null,"lon":null,"state":"active","id":null},{"event_id":"101484","title":"香りと心で身体を癒す　　老けにくい 心と身体を作る　アロマテラピー＆SAT療法セミナー","url":"https://kurashinogakkou.doorkeeper.jp/events/101484","shortener_url":null,"started_at":"2019-12-18T18:30:00.000+09:00","ended_at":"2019-12-18T20:30:00.000+09:00","limit_number":18,"address":"神戸市中央区雲井通5丁目3−1","place":"起業プラザひょうご　セミナールーム（サンパル６階）","lat":null,"lon":null,"state":"active","id":null},{"event_id":"1391019","title":"志んまち勘亭流書道會《師走》","url":"http://peatix.com/event/1391019","shortener_url":null,"started_at":"2019-12-28T14:00:00.000+09:00","ended_at":"2019-12-30T23:59:59.000+09:00","limit_number":null,"address":"大阪市西区新町一丁目南","place":"惺々庵","lat":34.6775,"lon":135.495,"state":"active","id":null},{"event_id":"110717","title":"Mcafee Activate Key","url":"https://atnd.org/events/110717","shortener_url":null,"started_at":"2019-12-31T17:30:00.000+09:00","ended_at":"2020-01-09T18:00:00.000+09:00","limit_number":null,"address":"","place":"43 Sunbeam Drive Jamaica, NY 11434","lat":null,"lon":null,"state":"closed","id":null},{"event_id":"110704","title":"大晦日ハッカソン2019 #大晦日ハッカソン","url":"https://atnd.org/events/110704","shortener_url":"https://bit.ly/2rrzMy3","started_at":"2019-12-30T15:00:00.000+09:00","ended_at":"2019-12-31T14:59:00.000+09:00","limit_number":null,"address":"","place":"","lat":null,"lon":null,"state":"closed","id":null},{"event_id":"101567","title":"2020　個人事業主のパフォーマンスを上げる『健康経営』","url":"https://kurashinogakkou.doorkeeper.jp/events/101567","shortener_url":null,"started_at":"2019-12-18T15:00:00.000+09:00","ended_at":"2019-12-18T16:30:00.000+09:00","limit_number":10,"address":"神戸市中央区雲井通5丁目3−1 サンパル6F","place":"企業プラザひょうご　（サンパル6F）　セミナールーム","lat":null,"lon":null,"state":"active","id":null},{"event_id":"1393398","title":"クリスマスいっぴんいち＠武蔵境nonowaテラス","url":"http://ippinmusashisakai.peatix.com","shortener_url":null,"started_at":"2019-12-14T11:00:00.000+09:00","ended_at":"2019-12-16T23:59:59.000+09:00","limit_number":null,"address":"武蔵野市境南町2丁目1","place":"武蔵境nonowa terrace","lat":35.702,"lon":139.545,"state":"active","id":null},{"event_id":"158116","title":"Metro Ad Creative Award アイデアソン","url":"https://zero-ichi.connpass.com/event/158116/","shortener_url":"https://bit.ly/2s1Zt8t","started_at":"2019-12-22T01:00:00.000+09:00","ended_at":"2019-12-22T08:00:00.000+09:00","limit_number":6,"address":"〒102-0094 東京都千代田区紀尾井町１−２ 17F","place":"ヤフー株式会社オープンコラボレーションスペース「LODGE」","lat":35.68,"lon":139.738,"state":"active","id":null},{"event_id":"158836","title":"Kamakura Mok Mok Hack 65 - 鎌倉もくもく会","url":"https://kamkura-mokmok.connpass.com/event/158836/","shortener_url":null,"started_at":"2019-12-21T02:00:00.000+09:00","ended_at":"2019-12-21T04:30:00.000+09:00","limit_number":7,"address":"神奈川県 鎌倉市由比ガ浜1丁目12-8","place":"HOUSE YUIGAHAMA","lat":35.3202,"lon":139.55,"state":"active","id":null},{"event_id":"1390494","title":"【学生向け】Intern Meetup 「福岡で、新しい社会をつくる」仕事に挑戦しませんか？","url":"http://intern-meetup-fukuoka-191216.peatix.com","shortener_url":null,"started_at":"2019-12-16T18:30:00.000+09:00","ended_at":"2019-12-18T23:59:59.000+09:00","limit_number":null,"address":"福岡市博多区博多駅中央街8−1 Jrjp博多ビル 12F","place":"LINE Fukuoka株式会社","lat":33.5883,"lon":130.419,"state":"active","id":null},{"event_id":"1393390","title":"【無料体験会】岡山北長瀬校（金曜日）/2019年12月27日(金)　※チケット選択できない学年は、満員のため申込できませんのでご注意下さい。","url":"http://kitanagasekin-1227.peatix.com","shortener_url":null,"started_at":"2019-12-27T17:00:00.000+09:00","ended_at":"2019-12-29T23:59:59.000+09:00","limit_number":null,"address":"岡山市北区北長瀬表町1丁目1−1","place":"岡山ドーム隣の多目的広場A（南面道路側）","lat":34.6538,"lon":133.892,"state":"active","id":null},{"event_id":"1393388","title":"【無料体験会】岡山北長瀬校（金曜日）/2019年12月20日(金)　※チケット選択できない学年は、満員のため申込できませんのでご注意下さい。","url":"http://kitanagasekin-1220.peatix.com","shortener_url":null,"started_at":"2019-12-20T17:00:00.000+09:00","ended_at":"2019-12-22T23:59:59.000+09:00","limit_number":null,"address":"岡山市北区北長瀬表町1丁目1−1","place":"岡山ドーム隣の多目的広場A（南面道路側）","lat":34.6538,"lon":133.892,"state":"active","id":null},{"event_id":"101694","title":"『Python, Machine Learning \u0026 Raspberry PI』もくもく会#37","url":"https://soleildatadojo.doorkeeper.jp/events/101694","shortener_url":null,"started_at":"2019-12-23T19:30:00.000+09:00","ended_at":"2019-12-23T21:30:00.000+09:00","limit_number":8,"address":"大阪府大阪市北区西天満二丁目5番3号(堂島深川ビル3階)","place":"SCRIBBLE OSAKA LAB（SOL）（大阪メトロ御堂筋線「淀屋橋」駅から徒歩４分）","lat":null,"lon":null,"state":"active","id":null},{"event_id":"1390740","title":"児童養護施設の子供たちににクリスマスケーキを贈りませんか？","url":"http://peatix.com/event/1390740","shortener_url":null,"started_at":"2019-12-20T14:00:00.000+09:00","ended_at":"2019-12-22T23:59:59.000+09:00","limit_number":null,"address":"岩手県一関市山目字館2-5","place":"児童養護施設藤の園","lat":38.9407,"lon":141.121,"state":"active","id":null},{"event_id":"1390713","title":"東北の児童養護施設の子供たちにクリスマスケーキを贈りませんか？","url":"http://peatix.com/event/1390713","shortener_url":null,"started_at":"2019-12-03T14:00:00.000+09:00","ended_at":"2019-12-05T23:59:59.000+09:00","limit_number":null,"address":"岩手県一関市山目字館2番地5","place":"児童養護施設藤の園","lat":0.0,"lon":0.0,"state":"active","id":null},{"event_id":"159341","title":"株式会社ニトリのITアイデアソン「#N_HACK （エヌハック）」","url":"https://connpass.com/event/159341/","shortener_url":"https://bit.ly/2PjoSDC","started_at":"2019-12-19T10:00:00.000+09:00","ended_at":"2019-12-19T13:00:00.000+09:00","limit_number":8,"address":"〒150-0033東京都渋谷区猿楽町10-1","place":"株式会社サイバード","lat":35.6504,"lon":139.703,"state":"active","id":null},{"event_id":"1395085","title":"ワークショップイベント 「オリジナル提灯を作ろう！」","url":"http://maison-umenoy-05.peatix.com","shortener_url":null,"started_at":"2019-12-22T13:00:00.000+09:00","ended_at":"2019-12-24T23:59:59.000+09:00","limit_number":null,"address":"東京都荒川区西尾久2-32","place":"めぞん梅の湯（マスミ美容室 2F,3F ）","lat":35.7482,"lon":139.762,"state":"active","id":null},{"event_id":"1394327","title":"創業計画書を弁護士が見るとこうなる～知りませんでしたでは済まされない！弁護士が教える１時間シリーズVol.7～","url":"http://peatix.com/event/1394327","shortener_url":null,"started_at":"2019-12-17T18:30:00.000+09:00","ended_at":"2019-12-19T23:59:59.000+09:00","limit_number":null,"address":"福岡市中央区大名2丁目6−11","place":"福岡市スタートアップカフェ","lat":33.5889,"lon":130.395,"state":"active","id":null},{"event_id":"158646","title":"AWS re:Invent 2019 報告会","url":"https://repro-tech.connpass.com/event/158646/","shortener_url":null,"started_at":"2019-12-18T10:30:00.000+09:00","ended_at":"2019-12-18T13:30:00.000+09:00","limit_number":35,"address":"東京都渋谷区代々木1丁目36-4 全理連ビル 4階","place":"Repro株式会社 4F","lat":35.6839,"lon":139.701,"state":"active","id":null},{"event_id":"110895","title":"WiFi Störsender im Gefängnis installiert","url":"https://atnd.org/events/110895","shortener_url":null,"started_at":"2019-12-17T16:30:00.000+09:00","ended_at":"2020-01-30T18:30:00.000+09:00","limit_number":100,"address":"birminghan","place":"stoersender","lat":33.5186,"lon":-86.8104,"state":"closed","id":null},{"event_id":"1393412","title":"クリスマスこどもいっぴんいち＠武蔵小金井 ムサコガーデン","url":"http://peatix.com/event/1393412","shortener_url":null,"started_at":"2019-12-21T11:00:00.000+09:00","ended_at":"2019-12-23T23:59:59.000+09:00","limit_number":null,"address":"小金井市本町5丁目1−18","place":"ムサコガーデン","lat":35.7011,"lon":139.505,"state":"active","id":null},{"event_id":"1394938","title":"ネガティブ・アフリカ◆違和感を語ろう Talk Jam at Blue Baobab Africa","url":"http://peatix.com/event/1394938","shortener_url":null,"started_at":"2019-12-26T19:00:00.000+09:00","ended_at":"2019-12-28T23:59:59.000+09:00","limit_number":null,"address":"港区麻布台2-2-122 三貴 ビル 2F","place":"ブルー バオバブ アフリカ Blue Baobab Africa","lat":35.6587,"lon":139.743,"state":"active","id":null},{"event_id":"1391691","title":"『ラストバトル！モダピん家』in鎌倉開催！夜の部:モダBAR","url":"http://peatix.com/event/1391691","shortener_url":null,"started_at":"2019-12-21T18:00:00.000+09:00","ended_at":"2019-12-23T23:59:59.000+09:00","limit_number":null,"address":"神奈川県鎌倉市御成町4-31","place":"面白法人カヤック／ぼくらの会議棟 １F","lat":0.0,"lon":0.0,"state":"active","id":null},{"event_id":"1397212","title":"【採用責任者・経営陣向け】トレンドを加味した来年の採用戦略を一緒に作りませんか？","url":"http://peatix.com/event/1397212","shortener_url":null,"started_at":"2019-12-23T19:30:00.000+09:00","ended_at":"2019-12-25T23:59:59.000+09:00","limit_number":null,"address":"品川区西五反田1丁目32−2 3F","place":"HeaR株式会社","lat":35.6243,"lon":139.722,"state":"active","id":null},{"event_id":"1385793","title":"H³  第28回：「価値に基づく医療費支払超入門」＠青山一丁目","url":"http://hhh28.peatix.com","shortener_url":"https://bit.ly/2S5KDJ0","started_at":"2019-12-19T19:00:00.000+09:00","ended_at":"2019-12-21T23:59:59.000+09:00","limit_number":null,"address":"東京都港区北青山一丁目2番3号","place":"CSLベーリング本社 （青山ビル8階）","lat":35.673,"lon":139.723,"state":"active","id":null},{"event_id":"111038","title":"Handy Störsender löst das Problem des Smartphone-Rauschens","url":"https://atnd.org/events/111038","shortener_url":null,"started_at":"2019-12-23T19:00:00.000+09:00","ended_at":"2020-02-28T18:00:00.000+09:00","limit_number":100,"address":"birminghan","place":"stoersender","lat":52.4862,"lon":-1.8904,"state":"closed","id":null},{"event_id":"110976","title":"【ZEROICHI】Metro Ad Creative Award アイデアソン","url":"https://atnd.org/events/110976","shortener_url":null,"started_at":"2019-12-22T01:00:00.000+09:00","ended_at":"2019-12-24T23:59:59.000+09:00","limit_number":6,"address":"東京都 千代田区紀尾井町1-3 東京ガーデンテラス紀尾井町","place":"Yahoo!Lodge","lat":35.6795,"lon":139.737,"state":"closed","id":null},{"event_id":"161221","title":"CXL会員専用　特設販売サイト　B2Bハックカード　「ノート」専用シール","url":"https://connpass.com/event/161221/","shortener_url":null,"started_at":"2019-12-29T00:00:00.000+09:00","ended_at":"2019-12-29T01:00:00.000+09:00","limit_number":5,"address":"","place":"","lat":null,"lon":null,"state":"active","id":null},{"event_id":"159810","title":"i☆Risハッカソンもくもく会1st","url":"https://iris.connpass.com/event/159810/","shortener_url":null,"started_at":"2019-12-24T10:00:00.000+09:00","ended_at":"2019-12-24T12:00:00.000+09:00","limit_number":null,"address":"東京都渋谷区道玄坂一丁目12番5号 (渋谷マークシティ４階 クリエーションスクエアしぶや内)","place":"Coin Space 渋谷マークシティ店","lat":35.6577,"lon":139.697,"state":"active","id":null},{"event_id":"1293428562502938625","title":"Download the latest indie games","url":"https://itch.io/","shortener_url":null,"started_at":"2019-12-10T16:19:00.000+09:00","ended_at":"2020-07-21T19:01:00.000+09:00","limit_number":null,"address":null,"place":"online","lat":null,"lon":null,"state":"active","id":null},{"event_id":"1301515925531906050","title":"GameJam+ 2020 in 沖縄","url":"https://igda-ryukyus.doorkeeper.jp/events/110740","shortener_url":"https://bit.ly/32QxkQw","started_at":"2019-12-10T00:00:00.000+09:00","ended_at":"2020-09-13T23:59:00.000+09:00","limit_number":null,"address":null,"place":"online","lat":null,"lon":null,"state":"closed","id":null},{"event_id":"1308401114786791424","title":"Cartesi Dapp Incubation Program Onboard","url":"https://gitcoin.co/hackathon/cartesi-incubator/onboard","shortener_url":null,"started_at":"2019-12-07T00:00:00.000+09:00","ended_at":"2019-12-07T14:59:59.000+09:00","limit_number":null,"address":null,"place":"online","lat":null,"lon":null,"state":"active","id":null},{"event_id":"1316535013261811712","title":"SDBL - EVENT","url":"https://sd-bl.net/event_20201108","shortener_url":"https://bit.ly/3lPKGnZ","started_at":"2019-12-20T17:30:00.000+09:00","ended_at":"2020-11-09T04:00:00.000+09:00","limit_number":null,"address":"青森県青森市横内字神田12","place":"青森県青森市横内字神田12\r","lat":40.7841,"lon":140.762,"state":"active","id":null},{"event_id":"1333298465112199169","title":"スタートアップ企業のアイデアソン「AirTech BootCamp Africa」をナイロビにて開催 | ニュースリリース | ダイキン工業株式会社","url":"https://www.daikin.co.jp/press/2019/20191212/","shortener_url":null,"started_at":"2019-12-10T23:59:00.000+09:00","ended_at":"2020-02-05T23:59:00.000+09:00","limit_number":null,"address":"東京都千代田区)にて、第2回短期集中事業立案プログラム「AirTech BootCamp」の開催を予定しています。","place":"東京都千代田区)にて、第2回短期集中事業立案プログラム「AirTech BootCamp」の開催を予定しています。","lat":null,"lon":null,"state":"active","id":null}]