[{"event_id":"602565","title":"第７回 さぶみっと！ヨクスル in 名古屋【2019年6月20日(木)開催】","url":"http://peatix.com/event/602565","shortener_url":null,"started_at":"2019-06-20T10:00:00.000+09:00","ended_at":"2019-06-22T23:59:59.000+09:00","limit_number":null,"address":"名古屋市東区東桜1丁目13","place":"ＮHＫ名古屋放送センタービル 20階（HatCh）","lat":35.1717,"lon":136.911,"state":"active","id":null},{"event_id":"615736","title":"6月16日(日)18:00～★ 銀座 国際結婚したい人の為のGaitomo国際交流パーティー","url":"http://peatix.com/event/615736","shortener_url":null,"started_at":"2019-06-16T09:00:00.000+09:00","ended_at":"2019-06-18T23:59:59.000+09:00","limit_number":null,"address":"中央区銀座5丁目9−13 菊正ビル9F","place":"パーティプラネット「銀座PPサロン」-貸切ダイニング-","lat":35.6699,"lon":139.765,"state":"active","id":null},{"event_id":"621561","title":"6/8(土)~9(日)festivo はじめてのフレームワーク（Laravel）Camp@東京【学生20,000円、一般25,000円】～早く効率的なWEB開発スキルを手に入れる！フレームワークを学ぶ15時間の集中合宿！～","url":"http://peatix.com/event/621561","shortener_url":"https://bit.ly/2ObmHA4","started_at":"2019-06-08T01:00:00.000+09:00","ended_at":"2019-06-10T23:59:59.000+09:00","limit_number":null,"address":"東京都練馬区豊玉北3-15-17","place":"起業家シェアハウス x-garden セミナールーム","lat":35.7329,"lon":139.661,"state":"active","id":null},{"event_id":"621537","title":"【オンライン/東京会場同時開催】上級ウェブ解析士認定講座","url":"http://20190612swac.peatix.com","shortener_url":null,"started_at":"2019-06-12T04:00:00.000+09:00","ended_at":"2019-06-14T23:59:59.000+09:00","limit_number":null,"address":"東京都中央区八重洲1-6-14","place":"KIZUNA会議室　八重洲２F（ISO八重洲ビル　201）","lat":35.6813,"lon":139.771,"state":"active","id":null},{"event_id":"621539","title":"【オンライン/新宿会場同時開催】Google アナリティクス講座〜GAIQ対策付き〜","url":"http://20190619ga.peatix.com","shortener_url":null,"started_at":"2019-06-19T01:00:00.000+09:00","ended_at":"2019-06-21T23:59:59.000+09:00","limit_number":null,"address":"東京都新宿区西新宿7-1-7","place":"新宿ダイカンプラザＡ館６１０号会議室","lat":35.6945,"lon":139.699,"state":"active","id":null},{"event_id":"621533","title":"【オンライン/東京会場同時開催】上級Google アナリティクス講座〜GAをマスターするとともに、レポートを自動化し業務効率化〜","url":"http://20190601swacga.peatix.com","shortener_url":null,"started_at":"2019-06-01T04:00:00.000+09:00","ended_at":"2019-06-03T23:59:59.000+09:00","limit_number":null,"address":"東京都中央区八重洲1-6-14","place":"KIZUNA会議室　八重洲２F（ISO八重洲ビル　201）","lat":35.6813,"lon":139.771,"state":"active","id":null},{"event_id":"621421","title":"BORN TO YOG teacher training -Advance- 2019-2020","url":"http://btyttadvanced2019-2020.peatix.com","shortener_url":null,"started_at":"2019-06-30T21:00:00.000+09:00","ended_at":"2019-07-02T23:59:59.000+09:00","limit_number":null,"address":"千葉県市原市五井中央西1丁目1番地25","place":"サンプラザ市原その他","lat":0.0,"lon":0.0,"state":"active","id":null},{"event_id":"622673","title":"6/1(土)~2(日)festivo ホームページ作成（WordPress） Camp@東京【学生20,000円、一般25,000円】～戦うスキルを身につける15時間！WordPress集中合宿！～","url":"http://peatix.com/event/622673","shortener_url":"https://bit.ly/2OfO2kx","started_at":"2019-06-01T01:30:00.000+09:00","ended_at":"2019-06-03T23:59:59.000+09:00","limit_number":null,"address":"東京都練馬区豊玉北3-15-17","place":"起業家シェアハウス x-garden セミナールーム","lat":35.7329,"lon":139.661,"state":"active","id":null},{"event_id":"613530","title":"内外海・海のステージ2019 #4 6/2(日)和太鼓集団「鬼太鼓座」（＋伝統の田烏太鼓）","url":"http://ondekoza-uminostage.peatix.com","shortener_url":null,"started_at":"2019-06-02T06:00:00.000+09:00","ended_at":"2019-06-04T23:59:59.000+09:00","limit_number":null,"address":"小浜市田烏","place":"田烏の棚田","lat":35.5324,"lon":135.825,"state":"active","id":null},{"event_id":"622021","title":"BTY LIVE 2019 in Sendai vol.1","url":"http://btylive2019sendai1.peatix.com","shortener_url":null,"started_at":"2019-06-01T02:00:00.000+09:00","ended_at":"2019-06-03T23:59:59.000+09:00","limit_number":null,"address":"宮城県仙台市宮城野区新田東4-1-1","place":"元気フィールド仙台","lat":38.2778,"lon":140.936,"state":"active","id":null},{"event_id":"89144","title":"6/1(土)~2(日)festivo ホームページ作成（WordPress） Camp@東京【学生20,000円、一般25,000円】～戦うスキルを身につける15時間！WordPress集中合宿！～","url":"https://festivo.doorkeeper.jp/events/89144","shortener_url":"https://bit.ly/2HGbib4","started_at":"2019-06-01T01:30:00.000+09:00","ended_at":"2019-06-02T09:30:00.000+09:00","limit_number":10,"address":"東京都練馬区豊玉北3-15-17","place":"起業家シェアハウス x-garden セミナールーム","lat":35.733,"lon":139.661,"state":"active","id":null},{"event_id":"125806","title":"PyLadies Tokyo スタッフ合宿 2019","url":"https://pyladies-tokyo.connpass.com/event/125806/","shortener_url":null,"started_at":"2019-06-21T23:00:00.000+09:00","ended_at":"2019-06-23T08:00:00.000+09:00","limit_number":10,"address":"福島県磐梯山","place":"とある宿＠福島","lat":37.6009,"lon":140.072,"state":"active","id":null},{"event_id":"127120","title":"【大阪】XRジャム2019【AR/MR/VRハッカソン】","url":"https://osaka-driven-dev.connpass.com/event/127120/","shortener_url":"https://bit.ly/2InTYIn","started_at":"2019-06-15T00:30:00.000+09:00","ended_at":"2019-06-16T09:30:00.000+09:00","limit_number":55,"address":"大阪市住之江区南港北2-1-10 ATCビルITM棟 6階","place":"ソフト産業プラザ TEQS","lat":34.6379,"lon":135.411,"state":"active","id":null},{"event_id":"89915","title":"6/8(土)~9(日)festivo はじめてのフレームワーク（Laravel）Camp@東京【学生20,000円、一般25,000円】～早く効率的なWEB開発スキルを手に入れる！フレームワークを学ぶ15時間の集中合宿！～","url":"https://festivo.doorkeeper.jp/events/89915","shortener_url":"https://bit.ly/2IgbC0n","started_at":"2019-06-08T01:00:00.000+09:00","ended_at":"2019-06-09T10:00:00.000+09:00","limit_number":7,"address":"東京都練馬区豊玉北3-15-17","place":"起業家シェアハウス x-garden セミナールーム","lat":null,"lon":null,"state":"active","id":null},{"event_id":"633584","title":"【名古屋/栄】グーグルアナリティクス講座(6/22)","url":"http://peatix.com/event/633584","shortener_url":null,"started_at":"2019-06-22T00:00:00.000+09:00","ended_at":"2019-06-24T23:59:59.000+09:00","limit_number":null,"address":"愛知県名古屋市中区錦3-22-24","place":"名古屋会議室 栄店 (ATS広小路ビル4F)","lat":35.1689,"lon":136.904,"state":"active","id":null},{"event_id":"633342","title":"エンタメ系クラウドファンディングの使い方勉強会その2 〜第一部音楽＆ゲーム業界向け〜","url":"http://bamboo-cfseminar-05.peatix.com","shortener_url":null,"started_at":"2019-06-01T03:00:00.000+09:00","ended_at":"2019-06-03T23:59:59.000+09:00","limit_number":null,"address":"渋谷区渋谷2丁目22−3 5F 渋谷東口ビル","place":"株式会社CAMPFIRE (株式会社キャンプファイヤー)","lat":35.6586,"lon":139.704,"state":"active","id":null},{"event_id":"633594","title":"【オンライン講座】グーグルアナリティクス講座 (6/6)","url":"http://peatix.com/event/633594","shortener_url":null,"started_at":"2019-06-06T04:00:00.000+09:00","ended_at":"2019-06-08T23:59:59.000+09:00","limit_number":null,"address":"日本","place":"ご自宅のPC","lat":0.0,"lon":0.0,"state":"active","id":null},{"event_id":"631029","title":"【初級BBQ検定】6月2日新潟県長岡市にて開催 in WEST長岡店","url":"http://n-bbq-in-nagaoka.peatix.com","shortener_url":null,"started_at":"2019-06-02T02:00:00.000+09:00","ended_at":"2019-06-04T23:59:59.000+09:00","limit_number":null,"address":"長岡市花園南1丁目71","place":"ウエスト長岡店（WEST長岡店)","lat":37.4276,"lon":138.864,"state":"active","id":null},{"event_id":"633380","title":"エンタメ系クラウドファンディングの使い方勉強会その2 〜第二部PJブートキャンプ〜","url":"http://bamboo-cfseminar-06.peatix.com","shortener_url":null,"started_at":"2019-06-01T07:30:00.000+09:00","ended_at":"2019-06-03T23:59:59.000+09:00","limit_number":null,"address":"渋谷区渋谷2丁目22−3 5F 渋谷東口ビル","place":"株式会社CAMPFIRE (株式会社キャンプファイヤー)","lat":35.6586,"lon":139.704,"state":"active","id":null},{"event_id":"629905","title":"NECKTIE\u0026BOWTIE PUB CRAWL PARTY! (SAT) ネクタイ＆リボン パーティー！（土）","url":"http://peatix.com/event/629905","shortener_url":null,"started_at":"2019-06-01T10:00:00.000+09:00","ended_at":"2019-06-03T23:59:59.000+09:00","limit_number":null,"address":"東京都港区六本木3-14-9 ユア六本木2F","place":"Bar Propaganda (2F)","lat":35.6623,"lon":139.735,"state":"active","id":null},{"event_id":"623320","title":"6月15日（土）クラウドファンディングで始める起業スタイル","url":"http://190615crowd.peatix.com","shortener_url":null,"started_at":"2019-06-15T00:00:00.000+09:00","ended_at":"2019-06-17T23:59:59.000+09:00","limit_number":null,"address":"横浜市中区海岸通1-1","place":"波止場会館　３Ｆ小会議室Ｃ","lat":35.4484,"lon":139.645,"state":"active","id":null},{"event_id":"633581","title":"【名古屋/栄】グーグルアナリティクス講座(6/13)","url":"http://peatix.com/event/633581","shortener_url":null,"started_at":"2019-06-13T00:00:00.000+09:00","ended_at":"2019-06-15T23:59:59.000+09:00","limit_number":null,"address":"愛知県名古屋市中区錦3-22-24","place":"名古屋会議室 栄店 (ATS広小路ビル4F)","lat":35.1689,"lon":136.904,"state":"active","id":null},{"event_id":"633597","title":"【オンライン講座】グーグルアナリティクス講座 (6/27)","url":"http://peatix.com/event/633597","shortener_url":null,"started_at":"2019-06-27T04:00:00.000+09:00","ended_at":"2019-06-29T23:59:59.000+09:00","limit_number":null,"address":"日本","place":"ご自宅のPC","lat":0.0,"lon":0.0,"state":"active","id":null},{"event_id":"633600","title":"【オンライン講座】グーグルアナリティクス講座 (6/1)","url":"http://peatix.com/event/633600","shortener_url":null,"started_at":"2019-06-01T04:00:00.000+09:00","ended_at":"2019-06-03T23:59:59.000+09:00","limit_number":null,"address":"日本","place":"ご自宅のPC","lat":0.0,"lon":0.0,"state":"active","id":null},{"event_id":"636558","title":"6月1日(土)19:00～★ 心斎橋 駅近の隠れ家ラウンジでオリジナルGaitomo国際交流パーティー","url":"http://peatix.com/event/636558","shortener_url":null,"started_at":"2019-06-01T10:00:00.000+09:00","ended_at":"2019-06-03T23:59:59.000+09:00","limit_number":null,"address":"大阪市中央区東心斎橋1-18-6","place":"心斎橋 Singles Bar Eden ","lat":34.6738,"lon":135.503,"state":"active","id":null},{"event_id":"630160","title":"6月15日（土）クリエイターの適正価格を考えるマーケティングワークショップ「Creators Discussion」","url":"http://creators.peatix.com","shortener_url":null,"started_at":"2019-06-15T05:30:00.000+09:00","ended_at":"2019-06-17T23:59:59.000+09:00","limit_number":null,"address":"横浜市中区海岸通1-1","place":"波止場会館　３Ｆ小会議室Ｃ（日本大通り駅 徒歩５分）","lat":35.4483,"lon":139.645,"state":"active","id":null},{"event_id":"636570","title":"6月2日(日)18:00～★ 六本木【独身限定】駅近セレブラウンジでGaitomo国際交流パーティー","url":"http://peatix.com/event/636570","shortener_url":null,"started_at":"2019-06-02T09:00:00.000+09:00","ended_at":"2019-06-04T23:59:59.000+09:00","limit_number":null,"address":"東京都港区六本木4-10-10","place":"六本木 balance(バランス) ","lat":35.6639,"lon":139.732,"state":"active","id":null},{"event_id":"636535","title":"6月1日(土)19:00～★ 西麻布 シックでお洒落なNYスタイルのバーでGaitomo国際交流パーティー","url":"http://peatix.com/event/636535","shortener_url":null,"started_at":"2019-06-01T10:00:00.000+09:00","ended_at":"2019-06-03T23:59:59.000+09:00","limit_number":null,"address":"Japan","place":"B612","lat":35.6621,"lon":139.726,"state":"active","id":null},{"event_id":"631401","title":"ISLAND PRIVATE BEACH MUSIC OVERNIGHT PARTY","url":"http://private-beach-2019.peatix.com","shortener_url":null,"started_at":"2019-06-28T23:30:00.000+09:00","ended_at":"2019-06-30T23:59:59.000+09:00","limit_number":null,"address":"Umeda","place":"Hankyu Umeda Station ","lat":34.7006,"lon":135.496,"state":"active","id":null},{"event_id":"89919","title":"【増枠】Startup Weekend Tokyo 未来の学び＠CO☆PIT　-Learning Innovation-","url":"https://swtokyo.doorkeeper.jp/events/89919","shortener_url":null,"started_at":"2019-06-21T09:00:00.000+09:00","ended_at":"2019-06-23T12:00:00.000+09:00","limit_number":71,"address":"東京都港区港南2-14-14 品川インターシティフロント 6階","place":"CO☆PIT","lat":null,"lon":null,"state":"active","id":null},{"event_id":"638519","title":"【edoARTworkshop】青森伝統の技と心を知る 津軽こぎん刺し体験～こぎん刺しで作るこぎん刺し がま口印鑑ケース","url":"http://edoart220.peatix.com","shortener_url":null,"started_at":"2019-06-08T04:30:00.000+09:00","ended_at":"2019-06-10T23:59:59.000+09:00","limit_number":null,"address":"〒108-0014 東京都港区芝4丁目7ー6","place":"芝ビルディング704","lat":35.649,"lon":139.752,"state":"active","id":null},{"event_id":"90415","title":"WikipediaTown沼津#14","url":"https://0168e91711e4c480d710c70399.doorkeeper.jp/events/90415","shortener_url":null,"started_at":"2019-06-08T01:00:00.000+09:00","ended_at":"2019-06-08T07:30:00.000+09:00","limit_number":15,"address":"沼津市西熊堂372-1","place":"明治史料館","lat":null,"lon":null,"state":"active","id":null},{"event_id":"640247","title":"【参加費無料・懇親会あり】管理職ゼロの組織が実践する新しい目標管理の形とは？","url":"http://peatix.com/event/640247","shortener_url":null,"started_at":"2019-06-20T07:00:00.000+09:00","ended_at":"2019-06-22T23:59:59.000+09:00","limit_number":null,"address":"東京都台東区浅草橋5-20-8 CSタワー7階","place":"株式会社ISAO","lat":35.7014,"lon":139.781,"state":"active","id":null},{"event_id":"625167","title":"【edoARTworkshop】御菓子司に習う 雨の季節を彩る和菓子づくり","url":"http://edoart219.peatix.com","shortener_url":null,"started_at":"2019-06-02T04:15:00.000+09:00","ended_at":"2019-06-04T23:59:59.000+09:00","limit_number":null,"address":"〒169-0075東京都新宿区高田馬場3-1-5","place":"サンパティオ高田馬場309","lat":35.7144,"lon":139.704,"state":"active","id":null},{"event_id":"643188","title":"6/1(Sat) Drink Meetup in Jiyugaoka","url":"http://peatix.com/event/643188","shortener_url":null,"started_at":"2019-06-01T10:00:00.000+09:00","ended_at":"2019-06-03T23:59:59.000+09:00","limit_number":null,"address":"東京都目黒区自由が丘1丁目8-18","place":"Clann","lat":35.6069,"lon":139.669,"state":"active","id":null},{"event_id":"635697","title":"NECKTIE\u0026BOWTIE PUB CRAWL PARTY! (SAT) ネクタイ＆リボン パーティー！（土）","url":"http://peatix.com/event/635697","shortener_url":null,"started_at":"2019-06-01T10:00:00.000+09:00","ended_at":"2019-06-03T23:59:59.000+09:00","limit_number":null,"address":"大阪市中央区東心斎橋2-5-27","place":"The Blarney Stone (B1F)","lat":34.6718,"lon":135.504,"state":"active","id":null},{"event_id":"642089","title":"＜超音波検査の領域を広げるチャンスです！ホットな情報♪＞","url":"http://peatix.com/event/642089","shortener_url":null,"started_at":"2019-06-19T00:00:00.000+09:00","ended_at":"2019-06-21T23:59:59.000+09:00","limit_number":null,"address":"台東区台東4丁目8−7 ヒューリック仲御徒町ビル8階","place":"メドフィット【MEDFit】","lat":35.7061,"lon":139.777,"state":"active","id":null},{"event_id":"643842","title":"【体験型心臓エコーセミナー】実技の不安を解消しませんか？","url":"http://peatix.com/event/643842","shortener_url":null,"started_at":"2019-06-23T00:00:00.000+09:00","ended_at":"2019-06-25T23:59:59.000+09:00","limit_number":null,"address":"台東区台東4丁目8−7 ヒューリック仲御徒町ビル8階","place":"メドフィット【MEDFit】","lat":35.7061,"lon":139.777,"state":"active","id":null},{"event_id":"642060","title":"＜プローブを握る機会に恵まれない未経験の方へ「初めの一歩」をお手伝いします＞","url":"http://peatix.com/event/642060","shortener_url":null,"started_at":"2019-06-18T00:00:00.000+09:00","ended_at":"2019-06-20T23:59:59.000+09:00","limit_number":null,"address":"台東区台東4丁目8−7 ヒューリック仲御徒町ビル8階","place":"メドフィット【MEDFit】","lat":35.7061,"lon":139.777,"state":"active","id":null},{"event_id":"642098","title":"＜Bモードの手技だけで大丈夫ですか？カラードプラ/パルスドプラを学んでステップアップしたい方へのお誘いです＞","url":"http://peatix.com/event/642098","shortener_url":null,"started_at":"2019-06-05T00:00:00.000+09:00","ended_at":"2019-06-07T23:59:59.000+09:00","limit_number":null,"address":"台東区台東4丁目8−7 ヒューリック仲御徒町ビル8階","place":"メドフィット【MEDFit】","lat":35.7061,"lon":139.777,"state":"active","id":null},{"event_id":"637579","title":"6月8日(土)19:00～★ 六本木 土曜日は新しい飲み友作りにGaitomo国際交流パーティー","url":"http://peatix.com/event/637579","shortener_url":null,"started_at":"2019-06-08T10:00:00.000+09:00","ended_at":"2019-06-10T23:59:59.000+09:00","limit_number":null,"address":"港区六本木3丁目10−5 1階 マリナービル","place":"ＮＥＷ ＰＬＡＮＥＴ","lat":35.6632,"lon":139.733,"state":"active","id":null},{"event_id":"637547","title":"6月7日(金)19:00～★ 恵比寿 新しい出会いの場立ち飲みバーでGaitomo国際交流パーティー","url":"http://peatix.com/event/637547","shortener_url":null,"started_at":"2019-06-07T10:00:00.000+09:00","ended_at":"2019-06-09T23:59:59.000+09:00","limit_number":null,"address":"東京都渋谷区恵比寿1-7-9","place":"恵比寿 私を恵比寿に連れてってEbisu330BAR ","lat":35.648,"lon":139.711,"state":"active","id":null},{"event_id":"637537","title":"6月4日(火)19:30～◆ 表参道 飲み放題+10品フルコース料理のGaitomo国際交流パーティー","url":"http://peatix.com/event/637537","shortener_url":null,"started_at":"2019-06-04T10:30:00.000+09:00","ended_at":"2019-06-06T23:59:59.000+09:00","limit_number":null,"address":"東京都渋谷区神宮前5-46-15","place":"シャルール表参道 ","lat":35.6641,"lon":139.708,"state":"active","id":null},{"event_id":"643834","title":"【コース2】＜最大4名の少人数！一歩差がつく【体験型腹部エコーセミナー】お好きな日程が選べます！＞","url":"http://peatix.com/event/643834","shortener_url":null,"started_at":"2019-06-04T00:00:00.000+09:00","ended_at":"2019-06-06T23:59:59.000+09:00","limit_number":null,"address":"台東区台東4丁目8−7 ヒューリック仲御徒町ビル8階","place":"メドフィット【MEDFit】","lat":35.7061,"lon":139.777,"state":"active","id":null},{"event_id":"643839","title":"【コース2】＜最大4名の少人数！一歩差がつく【体験型腹部エコーセミナー】お好きな日程が選べます！＞","url":"http://peatix.com/event/643839","shortener_url":null,"started_at":"2019-06-17T00:00:00.000+09:00","ended_at":"2019-06-19T23:59:59.000+09:00","limit_number":null,"address":"台東区台東4丁目8−7 ヒューリック仲御徒町ビル8階","place":"メドフィット【MEDFit】","lat":35.7061,"lon":139.777,"state":"active","id":null},{"event_id":"643831","title":"【コース1】＜最大4名の少人数！一歩差がつく【体験型腹部エコーセミナー】お好きな日程が選べます！＞","url":"http://peatix.com/event/643831","shortener_url":null,"started_at":"2019-06-03T00:00:00.000+09:00","ended_at":"2019-06-05T23:59:59.000+09:00","limit_number":null,"address":"台東区台東4丁目8−7 ヒューリック仲御徒町ビル8階","place":"メドフィット【MEDFit】","lat":35.7061,"lon":139.777,"state":"active","id":null},{"event_id":"637606","title":"6月12日(水)19:00～★ 銀座 帰宅前にちょこっと充実時間Gaitomo国際交流パーティー","url":"http://peatix.com/event/637606","shortener_url":null,"started_at":"2019-06-12T10:00:00.000+09:00","ended_at":"2019-06-14T23:59:59.000+09:00","limit_number":null,"address":"中央区3 銀座4-3-5 ハトリビル4F","place":"POP INN.GINZA(ポップイン 銀座)","lat":35.6723,"lon":139.765,"state":"active","id":null},{"event_id":"640293","title":"6月20日(木)19:00～★ 新宿御苑 本場ナポリピッツァが食べれる平日Gaitomo国際交流パーティー","url":"http://peatix.com/event/640293","shortener_url":null,"started_at":"2019-06-20T10:00:00.000+09:00","ended_at":"2019-06-22T23:59:59.000+09:00","limit_number":null,"address":"新宿区新宿2丁目8−1 1・2F 新宿セブンビル","place":"ピッツァナポレターノカフェ 新宿御苑前店｜ピザ ご飯 女子会 ワイン 飲み放題 宴会 飲み会 合コン 貸切 デート","lat":35.689,"lon":139.71,"state":"active","id":null},{"event_id":"643833","title":"【コース1】＜最大4名の少人数！一歩差がつく【体験型腹部エコーセミナー】お好きな日程が選べます！＞","url":"http://peatix.com/event/643833","shortener_url":null,"started_at":"2019-06-24T00:00:00.000+09:00","ended_at":"2019-06-26T23:59:59.000+09:00","limit_number":null,"address":"台東区台東4丁目8−7 ヒューリック仲御徒町ビル8階","place":"メドフィット【MEDFit】","lat":35.7061,"lon":139.777,"state":"active","id":null},{"event_id":"637590","title":"6月9日(日)18:00～★ 青山【シングル限定】優雅なセレブラウンジでGaitomo国際交流パーティー","url":"http://peatix.com/event/637590","shortener_url":null,"started_at":"2019-06-09T09:00:00.000+09:00","ended_at":"2019-06-11T23:59:59.000+09:00","limit_number":null,"address":"東京都港区北青山3-2-5","place":"青山 Aoyama Lounge ","lat":35.6689,"lon":139.715,"state":"active","id":null},{"event_id":"640299","title":"6月21日(金)19:00～★ 代官山 婚活恋活OnlyのGaitomo国際交流パーティー","url":"http://peatix.com/event/640299","shortener_url":null,"started_at":"2019-06-21T10:00:00.000+09:00","ended_at":"2019-06-23T23:59:59.000+09:00","limit_number":null,"address":"渋谷区恵比寿西1丁目34−17 B1F Za HOUSE ビル","place":"ユナイス 代官山","lat":35.6468,"lon":139.702,"state":"active","id":null},{"event_id":"90567","title":"【増枠】Startup Weekend 岡山 #3 @イコットニコット","url":"https://swokayama.doorkeeper.jp/events/90567","shortener_url":null,"started_at":"2019-06-14T09:00:00.000+09:00","ended_at":"2019-06-16T11:00:00.000+09:00","limit_number":80,"address":"〒700-0023 岡山県岡山市北区駅前町1丁目8番18号 イコットニコット2F","place":"ワンダーウォール","lat":null,"lon":null,"state":"active","id":null},{"event_id":"643852","title":"6月28日(金)19:00～★ 代官山 目的別ブレスレットで出会い率アップのGaitomo国際交流パーティー","url":"http://peatix.com/event/643852","shortener_url":null,"started_at":"2019-06-28T10:00:00.000+09:00","ended_at":"2019-06-30T23:59:59.000+09:00","limit_number":null,"address":"〒150-0034, 20-20 代官山町, 渋谷区","place":"BLU JAM CAFE Daikanyama","lat":35.648,"lon":139.702,"state":"active","id":null},{"event_id":"643846","title":"6月26日(水)19:00～★ 恵比寿 仕事帰りに駅近のお洒落カフェで平日Gaitomo国際交流パーティー","url":"http://peatix.com/event/643846","shortener_url":null,"started_at":"2019-06-26T10:00:00.000+09:00","ended_at":"2019-06-28T23:59:59.000+09:00","limit_number":null,"address":"東京都渋谷区恵比寿南1-3-2","place":"恵比寿 dot. Grill and Bar ","lat":35.6457,"lon":139.708,"state":"active","id":null},{"event_id":"643828","title":"6月22日(土)19:00～★ 六本木 人気企画【シングル限定】土曜日のGaitomo国際交流パーティー","url":"http://peatix.com/event/643828","shortener_url":null,"started_at":"2019-06-22T10:00:00.000+09:00","ended_at":"2019-06-24T23:59:59.000+09:00","limit_number":null,"address":"東京都港区六本木3-14-7","place":"六本木 SEVEN SENSE","lat":35.6626,"lon":139.735,"state":"active","id":null},{"event_id":"643835","title":"6月23日(日)18:00～★ 赤坂見附【１人参加限定】アクセス抜群Gaitomo国際交流パーティー","url":"http://peatix.com/event/643835","shortener_url":null,"started_at":"2019-06-23T09:00:00.000+09:00","ended_at":"2019-06-25T23:59:59.000+09:00","limit_number":null,"address":"港区赤坂3丁目21−14 TS共和六番館5F","place":"FIORE AKASAK （フィオーレ赤坂）ランチ営業/貸切/二次会/カラオケ/赤坂見附レンタルスペース","lat":35.6768,"lon":139.736,"state":"active","id":null},{"event_id":"643864","title":"6月30(日)18:00～★ 麻布十番 恋愛に関係なく国際交流したい人のGaitomo国際交流パーティー","url":"http://peatix.com/event/643864","shortener_url":null,"started_at":"2019-06-30T09:00:00.000+09:00","ended_at":"2019-07-02T23:59:59.000+09:00","limit_number":null,"address":"港区麻布十番1丁目9−2 ユニマット麻布十番ビル7F","place":"SPUTNIK LOUNGE","lat":35.6564,"lon":139.735,"state":"active","id":null},{"event_id":"646942","title":"VYS621 YOGA MATSURI 2019, International Day of Yoga Event","url":"http://yogamatsuri2019english.peatix.com","shortener_url":null,"started_at":"2019-06-21T10:00:00.000+09:00","ended_at":"2019-06-23T23:59:59.000+09:00","limit_number":null,"address":"品川区広町2丁目1−19","place":"スポル品川大井町","lat":35.6084,"lon":139.732,"state":"active","id":null},{"event_id":"644228","title":"【東京　6月29日（土）13:00】響きあうアジア2019『プラータナー：憑依のポートレート』  / 【Tokyo Jun.29th,2019(Sat)13:00】ASIA IN RESONANCE 2019 ”Pratthana - A Portrait of Possession”","url":"http://pratthana629.peatix.com","shortener_url":null,"started_at":"2019-06-29T04:00:00.000+09:00","ended_at":"2019-07-01T23:59:59.000+09:00","limit_number":null,"address":"東京都豊島区西池袋1-8-1","place":"東京芸術劇場 シアターイースト","lat":35.7297,"lon":139.708,"state":"active","id":null},{"event_id":"633149","title":"【東京　6月27日（木）18:00】響きあうアジア2019『プラータナー：憑依のポートレート』  / 【Tokyo Jun.27th,2019(Thu)18:00】ASIA IN RESONANCE 2019 ”Pratthana - A Portrait of Possession”","url":"http://pratthana627.peatix.com","shortener_url":null,"started_at":"2019-06-27T09:00:00.000+09:00","ended_at":"2019-06-29T23:59:59.000+09:00","limit_number":null,"address":"東京都豊島区西池袋1-8-1","place":"東京芸術劇場 シアターイースト","lat":35.7297,"lon":139.708,"state":"active","id":null},{"event_id":"644239","title":"【東京　6月30日（日）13:00】響きあうアジア2019『プラータナー：憑依のポートレート』  / 【Tokyo Jun.30th,2019(Sun)13:00】ASIA IN RESONANCE 2019 ”Pratthana - A Portrait of Possession”","url":"http://pratthana630.peatix.com","shortener_url":null,"started_at":"2019-06-30T04:00:00.000+09:00","ended_at":"2019-07-02T23:59:59.000+09:00","limit_number":null,"address":"東京都豊島区西池袋1-8-1","place":"東京芸術劇場 シアターイースト","lat":35.7297,"lon":139.708,"state":"active","id":null},{"event_id":"644208","title":"【東京　6月28日（金）18:00】響きあうアジア2019『プラータナー：憑依のポートレート』  / 【Tokyo Jun.28th,2019(Fri)18:00】ASIA IN RESONANCE 2019 ”Pratthana - A Portrait of Possession”","url":"http://pratthana628.peatix.com","shortener_url":null,"started_at":"2019-06-28T09:00:00.000+09:00","ended_at":"2019-06-30T23:59:59.000+09:00","limit_number":null,"address":"東京都豊島区西池袋1-8-1","place":"東京芸術劇場 シアターイースト","lat":35.7297,"lon":139.708,"state":"active","id":null},{"event_id":"593515","title":"10th Japan Bachata Festival 2019","url":"http://10japanbachatafestival.peatix.com","shortener_url":null,"started_at":"2019-06-14T10:00:00.000+09:00","ended_at":"2019-06-16T23:59:59.000+09:00","limit_number":null,"address":"okyo to, Arakawa ku, Higashi Nippori 5-50-5","place":"First Place Tokyo (Hotel Lungwood)","lat":35.728,"lon":139.773,"state":"active","id":null},{"event_id":"651404","title":"「シナリオランド」オフラインイベント　声優×脚本家～演技から学ぶ創作講座～","url":"http://peatix.com/event/651404","shortener_url":null,"started_at":"2019-06-22T10:00:00.000+09:00","ended_at":"2019-06-24T23:59:59.000+09:00","limit_number":null,"address":"東京都豊島区東池袋4-5-2","place":"あうるすぽっと（ライズアリーナビル3F：会議室B2）","lat":35.7269,"lon":139.719,"state":"active","id":null},{"event_id":"651814","title":"【SDGsをAIで解決！】未来技術女子部×日本女性技術者フォーラム　SDGsワークショップ","url":"http://peatix.com/event/651814","shortener_url":null,"started_at":"2019-06-12T10:30:00.000+09:00","ended_at":"2019-06-14T23:59:59.000+09:00","limit_number":null,"address":"品川区東五反田2丁目10−2 東五反田スクエア13F","place":"Innovation Space DEJIMA","lat":35.6248,"lon":139.727,"state":"active","id":null},{"event_id":"651022","title":"6月15日（土）アイデアからビジネスを創る起業ワークショップ「Startup Discussion」","url":"http://peatix.com/event/651022","shortener_url":null,"started_at":"2019-06-15T01:30:00.000+09:00","ended_at":"2019-06-17T23:59:59.000+09:00","limit_number":null,"address":"横浜市中区海岸通1-1","place":"波止場会館　３Ｆ小会議室Ｃ（日本大通り駅 徒歩５分）","lat":35.4483,"lon":139.645,"state":"active","id":null},{"event_id":"90992","title":"6/22(土)~23(日) festivo ウェブデザイン Camp@東京 【学生20,000円、一般25,000円】～2講師体制で戦うスキルを身につける15時間！HTML/CSS/WEBサイトコーディング/Photoshop集中合宿！～","url":"https://festivo.doorkeeper.jp/events/90992","shortener_url":"https://bit.ly/2GKS5mX","started_at":"2019-06-22T01:30:00.000+09:00","ended_at":"2019-06-23T09:30:00.000+09:00","limit_number":7,"address":"東京都練馬区豊玉北3-15-17","place":"起業家シェアハウス x-garden セミナールーム","lat":null,"lon":null,"state":"active","id":null},{"event_id":"646704","title":"Tsumugi（つむぎ）｜手作り手ごねパン教室～ハイジの白パン＆ジャム作り～","url":"http://peatix.com/event/646704","shortener_url":null,"started_at":"2019-06-11T01:00:00.000+09:00","ended_at":"2019-06-13T23:59:59.000+09:00","limit_number":null,"address":"文京区関口1丁目29−6 1F","place":"我楽田工房｜Bono Inc.","lat":35.7107,"lon":139.725,"state":"active","id":null},{"event_id":"650377","title":"クリール×アラプラス　2019練習会1　タイムトライアル（5000m）","url":"http://ala-courir2019-1.peatix.com","shortener_url":null,"started_at":"2019-06-08T00:00:00.000+09:00","ended_at":"2019-06-10T23:59:59.000+09:00","limit_number":null,"address":"足立区舎人公園1−1","place":"舎人公園陸上競技場","lat":35.8006,"lon":139.769,"state":"active","id":null},{"event_id":"653001","title":"6/22(土)~23(日) festivo ウェブデザイン Camp@東京 【学生20,000円、一般25,000円】～2講師体制で戦うスキルを身につける15時間！HTML/CSS/WEBサイトコーディング/Photoshop集中合宿！～","url":"http://peatix.com/event/653001","shortener_url":"https://bit.ly/2XNvwDH","started_at":"2019-06-22T01:30:00.000+09:00","ended_at":"2019-06-24T23:59:59.000+09:00","limit_number":null,"address":"東京都練馬区豊玉北3-15-17","place":"起業家シェアハウス x-garden セミナールーム","lat":35.7329,"lon":139.661,"state":"active","id":null},{"event_id":"641393","title":"スマートコーチング1Dayキャンプ","url":"http://20190622sccyclecamp.peatix.com","shortener_url":null,"started_at":"2019-06-22T00:30:00.000+09:00","ended_at":"2019-06-24T23:59:59.000+09:00","limit_number":null,"address":"市原市","place":"千葉県市原市周辺（集合場所はエントリー者に後日通知します）","lat":0.0,"lon":0.0,"state":"active","id":null},{"event_id":"651050","title":"ファッション × D2Cブランドの成功事例から学ぶ【D2Cブランドの立ち上げ戦略】【サザビーリーグ相川氏 登壇】","url":"http://peatix.com/event/651050","shortener_url":null,"started_at":"2019-06-18T05:00:00.000+09:00","ended_at":"2019-06-20T23:59:59.000+09:00","limit_number":null,"address":"東京都目黒区下目黒1-8-1","place":"アマゾンジャパン　アルコタワー　19階","lat":0.0,"lon":0.0,"state":"active","id":null},{"event_id":"645579","title":"STARRY NIGHT JAM vol.40　星兄の爆笑プラネタリウムショー","url":"http://snj40.peatix.com","shortener_url":null,"started_at":"2019-06-01T07:00:00.000+09:00","ended_at":"2019-06-03T23:59:59.000+09:00","limit_number":null,"address":"福岡市中央区六本松4丁目2","place":"福岡市科学館 ドームシアター","lat":33.5773,"lon":130.378,"state":"active","id":null},{"event_id":"91048","title":"【日程変更】TOKYO Perception Neuron Meetup【5/14→6/4（火）】","url":"https://japanxrhackathon.doorkeeper.jp/events/91048","shortener_url":null,"started_at":"2019-06-04T09:00:00.000+09:00","ended_at":"2019-06-04T12:00:00.000+09:00","limit_number":80,"address":"東京都江東区青海2-5-10 テレコムセンター東棟14階","place":"コワーキングスペースMONO","lat":null,"lon":null,"state":"active","id":null},{"event_id":"654116","title":"「１８時間で新規事業案を作れ。」ブロックチェーン ビジネス ハッカソン #4【バイナリースター】","url":"http://peatix.com/event/654116","shortener_url":"https://bit.ly/2XTyeaN","started_at":"2019-06-22T00:30:00.000+09:00","ended_at":"2019-06-24T23:59:59.000+09:00","limit_number":null,"address":"〒104-0061東京都中央区銀座1丁目8-19 11階","place":"BINARYSTAR 株式会社","lat":35.6743,"lon":139.769,"state":"active","id":null},{"event_id":"654032","title":"ワークショップから学ぶ！デザインスプリント Vol.5","url":"http://peatix.com/event/654032","shortener_url":null,"started_at":"2019-06-19T10:00:00.000+09:00","ended_at":"2019-06-21T23:59:59.000+09:00","limit_number":null,"address":"東京都中央区築地6-16-1 築地616ビル","place":"株式会社ニューロマジック　7階セミナースペース","lat":35.664,"lon":139.774,"state":"active","id":null},{"event_id":"652892","title":"6/7(Fri)Shibuya Around 30s Night Meetup","url":"http://peatix.com/event/652892","shortener_url":null,"started_at":"2019-06-07T10:00:00.000+09:00","ended_at":"2019-06-09T23:59:59.000+09:00","limit_number":null,"address":"渋谷区猿楽町2−12 相野谷ビル1F","place":"Asian Spice King 渋谷・代官山","lat":35.6533,"lon":139.705,"state":"active","id":null},{"event_id":"653034","title":"6/8(Sat) Shibuya Travel Lovers Meetup【Where are you going on summer vacation?】","url":"http://peatix.com/event/653034","shortener_url":null,"started_at":"2019-06-08T06:00:00.000+09:00","ended_at":"2019-06-10T23:59:59.000+09:00","limit_number":null,"address":"渋谷区道玄坂1丁目3−11 一番ビル 3F","place":"Hobgoblin Shibuya British Pub","lat":35.6583,"lon":139.7,"state":"active","id":null},{"event_id":"648686","title":"6/5(Wed) Russian Night in Roppongi","url":"http://peatix.com/event/648686","shortener_url":null,"started_at":"2019-06-05T10:00:00.000+09:00","ended_at":"2019-06-07T23:59:59.000+09:00","limit_number":null,"address":"東京都港区六本木3−16−33","place":"Hobgoblin Roppongi","lat":35.6623,"lon":139.737,"state":"active","id":null},{"event_id":"653412","title":"【まちノリ☆ラボ】ランドカーまちづくり講習会 〜試乗会×ビジネスデザイン講座で協業のチャンスをつかむ〜｜INSPIRE×ヤマハ発動機","url":"http://landcar-seminar-2019.peatix.com","shortener_url":null,"started_at":"2019-06-07T01:00:00.000+09:00","ended_at":"2019-06-09T23:59:59.000+09:00","limit_number":null,"address":"静岡県掛川市満水2000","place":"つま恋リゾート 彩の郷","lat":34.7657,"lon":138.045,"state":"active","id":null},{"event_id":"655120","title":"笑って学ぶ！問いを創る？SDGs：ワークショップシリーズ『問いストーリー』④","url":"http://peatix.com/event/655120","shortener_url":null,"started_at":"2019-06-02T02:45:00.000+09:00","ended_at":"2019-06-04T23:59:59.000+09:00","limit_number":null,"address":"札幌市中央区北2条西3丁目1−29−2F タケサトビル","place":"コワーキングスペース SPACE KANTE","lat":43.0643,"lon":141.352,"state":"active","id":null},{"event_id":"658183","title":"【説明会6/12】働きながら起業家/社内起業家の一歩を踏み出す Innovation Leaders Program 第5期","url":"http://ilp20190612.peatix.com","shortener_url":null,"started_at":"2019-06-12T10:00:00.000+09:00","ended_at":"2019-06-14T23:59:59.000+09:00","limit_number":null,"address":"東京都中央区日本橋本町1-4-3 日本橋ムロホンビル1","place":"Beyond Next Venturesオフィス 5F","lat":35.6862,"lon":139.776,"state":"active","id":null},{"event_id":"651399","title":"トーキョーローカルの可能性｜OTSUKA TOWN DESIGN MEETING vol.1","url":"http://peatix.com/event/651399","shortener_url":null,"started_at":"2019-06-05T10:00:00.000+09:00","ended_at":"2019-06-07T23:59:59.000+09:00","limit_number":null,"address":"東京都豊島区北大塚2丁目26-1 1F","place":"エイトデイズ","lat":35.733,"lon":139.729,"state":"active","id":null},{"event_id":"657746","title":"半田付け体験とテスター・オシロスコープ入門【06/06(木)開催】","url":"http://dmmmake190606hand.peatix.com","shortener_url":null,"started_at":"2019-06-06T02:00:00.000+09:00","ended_at":"2019-06-08T23:59:59.000+09:00","limit_number":null,"address":"東京都千代田区神田練塀町3 富士ソフト秋葉原ビル 10F DMM.make AKIBA Studio","place":"DMM.make AKIBA 10F Studio","lat":35.7008,"lon":139.774,"state":"active","id":null},{"event_id":"130232","title":"【デザイナーさん歓迎】Unityゆるゆるコラボ会【共同制作】","url":"https://yoyogigame.connpass.com/event/130232/","shortener_url":"https://bit.ly/2LopckM","started_at":"2019-06-15T04:00:00.000+09:00","ended_at":"2019-06-15T09:00:00.000+09:00","limit_number":8,"address":"渋谷区代々木1-13-4-4F","place":"コワーキングスペース spAce4510","lat":35.682,"lon":139.7,"state":"active","id":null},{"event_id":"661716","title":"円空仏像彫刻にチャレンジ！＠金剛院 〜お守り袋に入る千体仏〜","url":"http://peatix.com/event/661716","shortener_url":null,"started_at":"2019-06-30T04:30:00.000+09:00","ended_at":"2019-07-02T23:59:59.000+09:00","limit_number":null,"address":"東京都豊島区長崎1-9-2","place":"金剛院 蓮華堂B1","lat":35.7272,"lon":139.696,"state":"active","id":null},{"event_id":"657019","title":"NADAM","url":"http://goh-nadam.peatix.com","shortener_url":null,"started_at":"2019-06-22T03:00:00.000+09:00","ended_at":"2019-06-24T23:59:59.000+09:00","limit_number":null,"address":"90 Goodman Road","place":"Goodman Arts Centre","lat":1.30411,"lon":103.885,"state":"active","id":null},{"event_id":"90446","title":"［無料］ものづくり財務講座","url":"https://swtokyo.doorkeeper.jp/events/90446","shortener_url":null,"started_at":"2019-06-08T04:00:00.000+09:00","ended_at":"2019-06-08T07:00:00.000+09:00","limit_number":70,"address":"東京都大田区南蒲田1丁目20-20","place":"大田区産業プラザPiO C会議室","lat":null,"lon":null,"state":"active","id":null},{"event_id":"642169","title":"SURIMACCAワークショップ（午前の部）","url":"http://surimacca-am.peatix.com","shortener_url":null,"started_at":"2019-06-02T02:00:00.000+09:00","ended_at":"2019-06-04T23:59:59.000+09:00","limit_number":null,"address":"山口市大殿大路133−1","place":"ファブラボ山口 ｜ FabLab Yamaguchi","lat":34.1828,"lon":131.48,"state":"active","id":null},{"event_id":"642174","title":"SURIMACCAワークショップ（午後の部）","url":"http://surimacca-pm.peatix.com","shortener_url":null,"started_at":"2019-06-02T05:00:00.000+09:00","ended_at":"2019-06-04T23:59:59.000+09:00","limit_number":null,"address":"山口市大殿大路133−1","place":"ファブラボ山口 ｜ FabLab Yamaguchi","lat":34.1828,"lon":131.48,"state":"active","id":null},{"event_id":"657788","title":"〜シンギュラリティ・ラボ Meetup ～テクノロジーで社会課題を解決しよう～（6月）","url":"http://peatix.com/event/657788","shortener_url":null,"started_at":"2019-06-13T10:30:00.000+09:00","ended_at":"2019-06-15T23:59:59.000+09:00","limit_number":null,"address":"渋谷区南平台町16−28 グラスシテイ渋谷10階","place":"HENNGEオープンラウンジ","lat":35.655,"lon":139.695,"state":"active","id":null},{"event_id":"662752","title":"小橋賢児×神田勘太朗（カリスマカンタロー）「最高の自分の見つけかた」  『セカンドID―「本当の自分」に出会う、これからの時代の生き方』『誰も君のことなんて気にしていない。』刊行記念","url":"http://peatix.com/event/662752","shortener_url":null,"started_at":"2019-06-05T11:00:00.000+09:00","ended_at":"2019-06-07T23:59:59.000+09:00","limit_number":null,"address":"世田谷区北沢2-5-2 BIG BEN B1F","place":"本屋B\u0026B","lat":0.0,"lon":0.0,"state":"active","id":null},{"event_id":"654957","title":"仕事で活かせる強みを引きだす「自分史の棚卸ワークショップ」 40代から考える人生二毛作#10（フォローアップセッション付き）","url":"http://nimousaku10.peatix.com","shortener_url":null,"started_at":"2019-06-15T01:00:00.000+09:00","ended_at":"2019-06-17T23:59:59.000+09:00","limit_number":null,"address":"東京都港区麻布十番2-9-7","place":"麻布十番Charie'sBar（ディオーネ8ビル6F-B）","lat":35.6549,"lon":139.735,"state":"active","id":null},{"event_id":"130677","title":"Code and Response Day Numazu #2 ブロックチェーンハンズオン","url":"https://bmxug.connpass.com/event/130677/","shortener_url":"https://bit.ly/2VUqwA0","started_at":"2019-06-22T04:30:00.000+09:00","ended_at":"2019-06-22T11:00:00.000+09:00","limit_number":15,"address":"静岡県 沼津市町方町103","place":"cafe M103","lat":35.0982,"lon":138.857,"state":"active","id":null},{"event_id":"667725","title":"趣味を仕事に！図解屋から学ぶ「クリエイターの営業講座」","url":"http://creator-business.peatix.com","shortener_url":null,"started_at":"2019-06-08T03:30:00.000+09:00","ended_at":"2019-06-10T23:59:59.000+09:00","limit_number":null,"address":"いすみ市深堀1712−1","place":"hinode","lat":35.2596,"lon":140.398,"state":"active","id":null},{"event_id":"667718","title":"WEBライティングの一歩先へ！初めての「取材ライター講座」","url":"http://interview-writer.peatix.com","shortener_url":null,"started_at":"2019-06-29T03:30:00.000+09:00","ended_at":"2019-07-01T23:59:59.000+09:00","limit_number":null,"address":"富津市金谷3870","place":"コワーキングスペース まるも","lat":35.1665,"lon":139.824,"state":"active","id":null},{"event_id":"131114","title":"【Incubate School 第3期】〜後編・VC資金調達のためのピッチブック入門編〜","url":"https://incubatefund.connpass.com/event/131114/","shortener_url":null,"started_at":"2019-06-13T10:30:00.000+09:00","ended_at":"2019-06-13T12:30:00.000+09:00","limit_number":40,"address":"東京都港区虎ノ門4-3-1 城山トラストタワー4F","place":"creww dock-Toranomon","lat":35.6646,"lon":139.743,"state":"active","id":null},{"event_id":"131113","title":"【Incubate School 第3期】〜前編・VC資金調達のための基礎編〜","url":"https://incubatefund.connpass.com/event/131113/","shortener_url":null,"started_at":"2019-06-06T10:30:00.000+09:00","ended_at":"2019-06-06T12:30:00.000+09:00","limit_number":40,"address":"東京都港区虎ノ門4-3-1 城山トラストタワー4F","place":"creww dock-Toranomon","lat":35.6646,"lon":139.743,"state":"active","id":null},{"event_id":"91472","title":"【Startup Weekend Tokyo 未来の学びプレイベント】おやこちゃれんじ−よいアイデアを考えよう！− powered by Robotex Japan","url":"https://swtokyo.doorkeeper.jp/events/91472","shortener_url":null,"started_at":"2019-06-09T04:00:00.000+09:00","ended_at":"2019-06-09T07:50:00.000+09:00","limit_number":11,"address":"東京都目黒区大橋2丁目22−42 地下1階","place":"Mistletoe of Tokyo","lat":null,"lon":null,"state":"active","id":null},{"event_id":"645595","title":"STARRY NIGHT JAM vol.41 KAGAYA スペシャルトークショー　～世界に星空と夢を求めて～","url":"http://snj41.peatix.com","shortener_url":null,"started_at":"2019-06-22T08:30:00.000+09:00","ended_at":"2019-06-24T23:59:59.000+09:00","limit_number":null,"address":"福岡市中央区 六本松4丁目2−1","place":"福岡市科学館","lat":33.5774,"lon":130.378,"state":"active","id":null},{"event_id":"666858","title":"人気専門店も登場!親子で楽しむおうちかき氷探究イベント★お土産つき★","url":"http://kyobashikakikorekids3.peatix.com","shortener_url":null,"started_at":"2019-06-12T05:30:00.000+09:00","ended_at":"2019-06-14T23:59:59.000+09:00","limit_number":null,"address":"中央区京橋2丁目2−2番8号 明治屋京橋ビル7F","place":"明治屋ホール","lat":35.6774,"lon":139.77,"state":"active","id":null},{"event_id":"665516","title":"京橋かき氷コレクションを6/12開催！一般社団法人日本かき氷協会×明治屋 イベント★お土産つき★","url":"http://kyobashikakikore3.peatix.com","shortener_url":null,"started_at":"2019-06-12T09:30:00.000+09:00","ended_at":"2019-06-14T23:59:59.000+09:00","limit_number":null,"address":"中央区京橋2丁目2−2番8号 明治屋京橋ビル7F","place":"明治屋ホール","lat":35.6774,"lon":139.77,"state":"active","id":null},{"event_id":"667792","title":"内海聡の内海塾 in東京第6回「水素と微生物」6/7(金)","url":"http://wonder20190607.peatix.com","shortener_url":null,"started_at":"2019-06-07T10:00:00.000+09:00","ended_at":"2019-06-09T23:59:59.000+09:00","limit_number":null,"address":"千代田区 神田小川町3丁目10 新駿河台ビル10F","place":"ハロー貸会議室神保町","lat":35.6961,"lon":139.761,"state":"active","id":null},{"event_id":"131371","title":"Food Tech Hackathon #1","url":"https://cookpad.connpass.com/event/131371/","shortener_url":"https://bit.ly/2LEnN9H","started_at":"2019-06-08T01:00:00.000+09:00","ended_at":"2019-06-08T12:00:00.000+09:00","limit_number":50,"address":"東京都渋谷区恵比寿4-20-3","place":"クックパッド株式会社 (恵比寿ガーデンプレイスタワー12F)","lat":35.6423,"lon":139.713,"state":"active","id":null},{"event_id":"130301","title":"第25回　CoderDojo横浜","url":"https://coderdojo-yokohama.connpass.com/event/130301/","shortener_url":null,"started_at":"2019-06-01T01:00:00.000+09:00","ended_at":"2019-06-01T03:00:00.000+09:00","limit_number":null,"address":"神奈川県横浜市神奈川区鶴屋町2-24-2","place":"かながわ県民センター","lat":35.4684,"lon":139.621,"state":"active","id":null},{"event_id":"664013","title":"6/9(Sun) Nihongo DrinkMeetup in Nishi-Sinjuku","url":"http://peatix.com/event/664013","shortener_url":null,"started_at":"2019-06-09T09:00:00.000+09:00","ended_at":"2019-06-11T23:59:59.000+09:00","limit_number":null,"address":"〒160-0023, 8丁目-19-11 西新宿, 新宿区","place":"カシワギカフェ","lat":35.6956,"lon":139.691,"state":"active","id":null},{"event_id":"664123","title":"6/11(Tue) Shibuya Curry Night","url":"http://peatix.com/event/664123","shortener_url":null,"started_at":"2019-06-11T10:00:00.000+09:00","ended_at":"2019-06-13T23:59:59.000+09:00","limit_number":null,"address":"渋谷区 猿楽町2−12","place":"Asian Spice King 渋谷・代官山","lat":35.6533,"lon":139.705,"state":"active","id":null},{"event_id":"665618","title":"6/13(Thu) English Only Meetup in Shibuya","url":"http://peatix.com/event/665618","shortener_url":null,"started_at":"2019-06-13T10:00:00.000+09:00","ended_at":"2019-06-15T23:59:59.000+09:00","limit_number":null,"address":"渋谷区道玄坂1丁目3−11 一番ビル 3F","place":"Hobgoblin Shibuya British Pub","lat":35.6583,"lon":139.7,"state":"active","id":null},{"event_id":"668418","title":"6/15(Sat) Drink Meetup in Nishi-Shinjuku","url":"http://peatix.com/event/668418","shortener_url":null,"started_at":"2019-06-15T10:00:00.000+09:00","ended_at":"2019-06-17T23:59:59.000+09:00","limit_number":null,"address":"新宿区西新宿8丁目19−11","place":"KASHIWAGI CAFE","lat":35.6956,"lon":139.691,"state":"active","id":null},{"event_id":"666412","title":"6/14(Fri) Nihongo Night in Nishi-Shinjuku","url":"http://peatix.com/event/666412","shortener_url":null,"started_at":"2019-06-14T10:00:00.000+09:00","ended_at":"2019-06-16T23:59:59.000+09:00","limit_number":null,"address":"東京都新宿区西新宿8-19-11","place":"KASHIWAGI CAFE  ","lat":35.6956,"lon":139.691,"state":"active","id":null},{"event_id":"665381","title":"6/12(Wed) German Night in Roppongi","url":"http://peatix.com/event/665381","shortener_url":null,"started_at":"2019-06-12T10:00:00.000+09:00","ended_at":"2019-06-14T23:59:59.000+09:00","limit_number":null,"address":"東京都港区六本木3−16−33","place":"Hobgoblin Roppongi","lat":35.6623,"lon":139.737,"state":"active","id":null},{"event_id":"91355","title":"OSS ハッカソン@ScalaMatsuri 2019","url":"https://scalaconfjp.doorkeeper.jp/events/91355","shortener_url":"https://bit.ly/2W9vdWu","started_at":"2019-06-27T04:00:00.000+09:00","ended_at":"2019-06-27T09:00:00.000+09:00","limit_number":40,"address":"東京都江東区青海2-2-1 国際研究交流大学村内 プラザ平成","place":"東京国際交流館プラザ平成施設 会議室3（会場E)","lat":null,"lon":null,"state":"active","id":null},{"event_id":"91706","title":"IchigoJamを組み立ててプログラミング(午前10:30から)","url":"https://pcn-kobe.doorkeeper.jp/events/91706","shortener_url":null,"started_at":"2019-06-30T01:30:00.000+09:00","ended_at":"2019-06-30T03:00:00.000+09:00","limit_number":8,"address":"兵庫県神戸市灘区桜口町4丁目1−1 ウエルブ六甲道4番街4階","place":"キッズプログラミングスクール8x9　六甲道校（JR六甲道駅より徒歩４分、阪神新在家駅より徒歩４分）","lat":null,"lon":null,"state":"active","id":null},{"event_id":"91707","title":"IchigoJamを組み立ててプログラミング(午後1:00から)","url":"https://pcn-kobe.doorkeeper.jp/events/91707","shortener_url":null,"started_at":"2019-06-30T04:00:00.000+09:00","ended_at":"2019-06-30T05:30:00.000+09:00","limit_number":5,"address":"兵庫県神戸市灘区桜口町4丁目1−1 ウエルブ六甲道4番街4階","place":"キッズプログラミングスクール8x9　六甲道校（JR六甲道駅より徒歩４分、阪神新在家駅より徒歩４分）","lat":null,"lon":null,"state":"active","id":null},{"event_id":"91708","title":"IchigoJamを組み立ててプログラミング(午後3:00から)","url":"https://pcn-kobe.doorkeeper.jp/events/91708","shortener_url":null,"started_at":"2019-06-30T06:00:00.000+09:00","ended_at":"2019-06-30T07:30:00.000+09:00","limit_number":8,"address":"兵庫県神戸市灘区桜口町4丁目1−1 ウエルブ六甲道4番街4階","place":"キッズプログラミングスクール8x9　六甲道校（JR六甲道駅より徒歩４分、阪神新在家駅より徒歩４分） ","lat":null,"lon":null,"state":"active","id":null},{"event_id":"674325","title":"自分らしいライフとキャリアを考える、1週間のデンマーク旅　説明会【Web参加可】","url":"http://peatix.com/event/674325","shortener_url":null,"started_at":"2019-06-08T02:45:00.000+09:00","ended_at":"2019-06-10T23:59:59.000+09:00","limit_number":null,"address":"渋谷区千駄ケ谷5丁目33−8 サウスゲート新宿ビル","place":"H.I.S. 新宿本社営業所","lat":0.0,"lon":0.0,"state":"active","id":null},{"event_id":"667957","title":"NHKディレクソン in 鳥取 ～参加者全員がTVディレクター！？「鳥取の魅力を再発見する番組を創ろう！」","url":"http://nhkdirecthon22.peatix.com","shortener_url":"https://bit.ly/2LOqOVj","started_at":"2019-06-15T01:30:00.000+09:00","ended_at":"2019-06-17T23:59:59.000+09:00","limit_number":null,"address":"鳥取市扇町21番地","place":"鳥取県立生涯学習センター (県民ふれあい会館)　５階　講義室","lat":35.4916,"lon":134.226,"state":"active","id":null},{"event_id":"657712","title":"第10回 駿馬とねっこ PLUS KAGAWA 3rd","url":"http://shunmetonekkoplus.peatix.com","shortener_url":null,"started_at":"2019-06-22T00:30:00.000+09:00","ended_at":"2019-06-24T23:59:59.000+09:00","limit_number":null,"address":"香川県丸亀市柞原町596","place":"善照寺","lat":34.2735,"lon":133.804,"state":"active","id":null},{"event_id":"667809","title":"【東京】会社員×フリーランスで、新しい働き方を！「複業フリーランス養成講座」","url":"http://peatix.com/event/667809","shortener_url":"https://bit.ly/2W4PCw5","started_at":"2019-06-08T01:00:00.000+09:00","ended_at":"2019-06-10T23:59:59.000+09:00","limit_number":null,"address":"千代田区神田錦町3丁目11 弦本ビル","place":"TOKYO PRODUCERS HOUSE","lat":35.6921,"lon":139.76,"state":"active","id":null},{"event_id":"650435","title":"納浩一直伝！必ずわかるジャズ・スタンダード・セオリー　前期","url":"http://rittor-jazz-base1-first.peatix.com","shortener_url":null,"started_at":"2019-06-20T10:00:00.000+09:00","ended_at":"2019-06-22T23:59:59.000+09:00","limit_number":null,"address":"東京都 千代田区神田駿河台2-1","place":"御茶ノ水Rittor Base（OCCビルB1）","lat":35.6995,"lon":139.762,"state":"active","id":null},{"event_id":"673932","title":"6/19(水) ロシア語ナイト@自由が丘 / Russian Night in Jiyuugaoka","url":"http://peatix.com/event/673932","shortener_url":null,"started_at":"2019-06-19T10:00:00.000+09:00","ended_at":"2019-06-21T23:59:59.000+09:00","limit_number":null,"address":"東京都目黒区自由が丘1丁目8-18","place":"アイリッシュパブ クラン（Clann)","lat":35.6069,"lon":139.669,"state":"active","id":null},{"event_id":"675698","title":"6/20(Thu) Latin Lovers Meetup Spain, Portugal, Italy, Brazil★","url":"http://peatix.com/event/675698","shortener_url":null,"started_at":"2019-06-20T10:00:00.000+09:00","ended_at":"2019-06-22T23:59:59.000+09:00","limit_number":null,"address":"目黒区下目黒1-3-28 サンウッド目黒2F","place":"■The Meguro Tavern","lat":35.6343,"lon":139.713,"state":"active","id":null},{"event_id":"673695","title":"6/18(Tue) Nihongo Night in Nishi-Shinjuku","url":"http://peatix.com/event/673695","shortener_url":null,"started_at":"2019-06-18T10:00:00.000+09:00","ended_at":"2019-06-20T23:59:59.000+09:00","limit_number":null,"address":"東京都新宿区西新宿8-19-11","place":"KASHIWAGI CAFE  ","lat":35.6956,"lon":139.691,"state":"active","id":null},{"event_id":"131783","title":"UOZUゲームハッカソン 夏の陣","url":"https://uozu.connpass.com/event/131783/","shortener_url":"https://bit.ly/2WeoyKG","started_at":"2019-06-29T00:00:00.000+09:00","ended_at":"2019-06-30T10:00:00.000+09:00","limit_number":50,"address":"818 Shimajiri, Uozu-shi, Toyama-ken 937-0033","place":"片貝公民館","lat":36.7923,"lon":137.471,"state":"active","id":null},{"event_id":"91888","title":"【6/5（水）・12（水）】初心者向け・２回で学ぶシリーズ①『PythonとJupyterNotebookの基礎』","url":"https://soleildatadojo.doorkeeper.jp/events/91888","shortener_url":null,"started_at":"2019-06-05T10:30:00.000+09:00","ended_at":"2019-06-12T12:30:00.000+09:00","limit_number":6,"address":"大阪府大阪市北区西天満二丁目5番3号(堂島深川ビル3階)","place":"SCRIBBLE OSAKA LAB（SOL）（大阪メトロ御堂筋線「淀屋橋」駅から徒歩４分）","lat":null,"lon":null,"state":"active","id":null},{"event_id":"643757","title":"入場無料 いのちの感謝祭マルシェ\u0026フードコート　無農薬・無肥料の種取り野菜・雑穀・調味料 当日ふらっとお立ち寄りください^ ^","url":"http://peatix.com/event/643757","shortener_url":null,"started_at":"2019-06-30T01:30:00.000+09:00","ended_at":"2019-07-02T23:59:59.000+09:00","limit_number":null,"address":"世田谷区池尻2丁目4−5","place":"IID 世田谷ものづくり学校","lat":35.6457,"lon":139.681,"state":"active","id":null},{"event_id":"131926","title":"アイデアソン＠よこはま","url":"https://moku-moku-yokohama.connpass.com/event/131926/","shortener_url":"https://bit.ly/2WcdSMH","started_at":"2019-06-23T01:00:00.000+09:00","ended_at":"2019-06-23T09:00:00.000+09:00","limit_number":9,"address":"横浜市西区みなとみらい 3-7-1","place":"OCEAN GATE MINATO MIRAI@WeWork","lat":35.4581,"lon":139.634,"state":"active","id":null},{"event_id":"131485","title":"【大阪】XRJAM直前！XR X HoloLens ハンズオン（基礎編） 2019/6/1","url":"https://osaka-driven-dev.connpass.com/event/131485/","shortener_url":"https://bit.ly/2LVXY5a","started_at":"2019-06-01T10:30:00.000+09:00","ended_at":"2019-06-01T12:00:00.000+09:00","limit_number":8,"address":"大阪市中央区本町4丁目7-7-302","place":"kiiya Hommachi(302)","lat":34.6849,"lon":135.498,"state":"active","id":null},{"event_id":"91940","title":"【6/1（土）午後】初心者向けシリーズ①『PythonとJupyterNotebookの基礎』","url":"https://soleildatadojo.doorkeeper.jp/events/91940","shortener_url":null,"started_at":"2019-06-01T04:00:00.000+09:00","ended_at":"2019-06-01T08:10:00.000+09:00","limit_number":6,"address":"大阪府大阪市北区西天満二丁目5番3号(堂島深川ビル3階)","place":"SCRIBBLE OSAKA LAB（SOL）（大阪メトロ御堂筋線「淀屋橋」駅から徒歩４分）","lat":null,"lon":null,"state":"active","id":null},{"event_id":"670639","title":"WADA POLICE JAM 2019 in YBP","url":"http://peatix.com/event/670639","shortener_url":null,"started_at":"2019-06-08T01:00:00.000+09:00","ended_at":"2019-06-10T23:59:59.000+09:00","limit_number":null,"address":"山梨県北杜市長坂町小荒間1823","place":"YBP（Yuta's Bike Park／通称：八ヶ岳バイシクルパーク）","lat":35.8858,"lon":138.357,"state":"active","id":null},{"event_id":"132334","title":"次世代コンビニATMで、こんなコトできたらいいなぁを実現しよう！","url":"https://hmcn.connpass.com/event/132334/","shortener_url":"https://bit.ly/2M3cE2s","started_at":"2019-06-04T09:30:00.000+09:00","ended_at":"2019-06-04T11:00:00.000+09:00","limit_number":null,"address":"広島市中区紙屋町1-4-3 (エフケイビル1F)","place":"イノベーション・ハブ・ひろしまCamps","lat":34.3941,"lon":132.459,"state":"active","id":null},{"event_id":"132336","title":"わたし達の未来をつくるアイデアソン・ハッカソン【最終報告会】","url":"https://connpass.com/event/132336/","shortener_url":"https://bit.ly/2WiSmG8","started_at":"2019-06-07T05:00:00.000+09:00","ended_at":"2019-06-07T07:00:00.000+09:00","limit_number":30,"address":"〒651-0087　神戸市中央区御幸通8-1-6","place":"神戸国際会館セミナーハウス701号室","lat":34.6921,"lon":135.196,"state":"active","id":null},{"event_id":"132233","title":"智恵の和勉強会","url":"https://connpass.com/event/132233/","shortener_url":null,"started_at":"2019-06-01T04:00:00.000+09:00","ended_at":"2019-06-01T08:00:00.000+09:00","limit_number":null,"address":"東京都港区港南 2-16-3 品川グランドセントラルタワー","place":"マイクロソフト品川本社","lat":35.6267,"lon":139.74,"state":"active","id":null},{"event_id":"683235","title":"IchigoJamプログラミング講座＜子ども向け・大人向け＞6月29日","url":"http://peatix.com/event/683235","shortener_url":null,"started_at":"2019-06-29T01:30:00.000+09:00","ended_at":"2019-07-01T23:59:59.000+09:00","limit_number":null,"address":"〒916-0025, 旭町1丁目6-6, 鯖江市","place":"Hana道場 - Hana Open Innovation Dojo -","lat":35.9446,"lon":136.186,"state":"active","id":null},{"event_id":"683198","title":"IchigoJamプログラミング講座＜子ども向け・大人向け＞6月15日","url":"http://peatix.com/event/683198","shortener_url":null,"started_at":"2019-06-15T01:30:00.000+09:00","ended_at":"2019-06-17T23:59:59.000+09:00","limit_number":null,"address":"〒916-0025, 旭町1丁目6-6, 鯖江市","place":"Hana道場 - Hana Open Innovation Dojo -","lat":35.9446,"lon":136.186,"state":"active","id":null},{"event_id":"674301","title":"【第3回】みんなでバンカラ！どこよりも参加しやすい音楽交流会","url":"http://peatix.com/event/674301","shortener_url":null,"started_at":"2019-06-16T04:00:00.000+09:00","ended_at":"2019-06-18T23:59:59.000+09:00","limit_number":null,"address":"港区六本木7丁目14−1 5F 東李閣ビル","place":"UTAIBA / ウタイバ","lat":35.6641,"lon":139.731,"state":"active","id":null},{"event_id":"629361","title":"Google I/O Extended 2019 Kuala Lumpur","url":"http://ioxkl19.peatix.com","shortener_url":null,"started_at":"2019-06-16T00:00:00.000+09:00","ended_at":"2019-06-18T23:59:59.000+09:00","limit_number":null,"address":"5, Jalan Universiti, Bandar Sunway, Petaling Jaya","place":"Sunway University","lat":3.06691,"lon":101.604,"state":"active","id":null},{"event_id":"672059","title":"IP SMART \"CREATE\" 2019","url":"http://peatix.com/event/672059","shortener_url":null,"started_at":"2019-06-19T02:00:00.000+09:00","ended_at":"2019-06-21T23:59:59.000+09:00","limit_number":null,"address":"Unit 02-02, Lvl 2, Cimb Leadership Academy,, No 3, Jalan Medini Utara 1, Medini Iskandar, Iskandar Puteri","place":"IskandarSpace","lat":1.42636,"lon":103.634,"state":"active","id":null},{"event_id":"672087","title":"TECHSTARS STARTUP WEEKEND ISKANDAR PUTERI @ IPSMART \"CREATE\" 2019","url":"http://ipsmart19sw.peatix.com","shortener_url":null,"started_at":"2019-06-21T10:00:00.000+09:00","ended_at":"2019-06-23T23:59:59.000+09:00","limit_number":null,"address":"Unit 02-02, Lvl 2, Cimb Leadership Academy,, No 3, Jalan Medini Utara 1, Medini Iskandar, Iskandar Puteri","place":"IskandarSpace","lat":1.42636,"lon":103.634,"state":"active","id":null},{"event_id":"679219","title":"6/22(Sat)International Nihongo Meetup in Shibuya","url":"http://peatix.com/event/679219","shortener_url":null,"started_at":"2019-06-22T06:00:00.000+09:00","ended_at":"2019-06-24T23:59:59.000+09:00","limit_number":null,"address":"東京都渋谷区道玄坂1-3-11","place":"■Hobgoblin Shibuya","lat":35.6583,"lon":139.7,"state":"active","id":null},{"event_id":"683228","title":"6/23 (sun) 20s Social Meetup Shibuya","url":"http://peatix.com/event/683228","shortener_url":null,"started_at":"2019-06-23T05:00:00.000+09:00","ended_at":"2019-06-25T23:59:59.000+09:00","limit_number":null,"address":"渋谷区道玄坂1丁目3−11 一番ビル 3F","place":"Hobgoblin Shibuya British Pub","lat":35.6583,"lon":139.7,"state":"active","id":null},{"event_id":"132494","title":"（第35回 SOIL水曜セミナー）アイデアソン勉強会","url":"https://soil.connpass.com/event/132494/","shortener_url":"https://bit.ly/2WntNb2","started_at":"2019-06-06T07:00:00.000+09:00","ended_at":"2019-06-06T09:00:00.000+09:00","limit_number":8,"address":"〒813-8503 福岡県福岡市東区松香台２丁目３−１","place":"九州産業大学","lat":33.6705,"lon":130.444,"state":"active","id":null},{"event_id":"132496","title":"Kamakura Mok Mok Hack #47 @ 面白法人カヤックオフィス","url":"https://kamkura-mokmok.connpass.com/event/132496/","shortener_url":null,"started_at":"2019-06-22T02:00:00.000+09:00","ended_at":"2019-06-22T05:00:00.000+09:00","limit_number":8,"address":"神奈川県鎌倉市御成町4-31","place":"面白法人カヤック ぼくらの会議棟","lat":35.3166,"lon":139.55,"state":"active","id":null},{"event_id":"681238","title":"VTuber LT大会2019夏 in 現実世界","url":"http://vtlt201906.peatix.com","shortener_url":"https://bit.ly/2WuF5v3","started_at":"2019-06-25T10:00:00.000+09:00","ended_at":"2019-06-27T23:59:59.000+09:00","limit_number":null,"address":"東京都品川区上大崎2-13-30","place":"株式会社アカツキ","lat":35.6346,"lon":139.718,"state":"active","id":null},{"event_id":"680640","title":"Ableton and Max Community Japan #001","url":"http://amcj-001.peatix.com","shortener_url":null,"started_at":"2019-06-08T08:00:00.000+09:00","ended_at":"2019-06-10T23:59:59.000+09:00","limit_number":null,"address":"東京都 千代田区神田駿河台2-1","place":"御茶ノ水Rittor Base （OCCビルB1）","lat":35.6995,"lon":139.762,"state":"active","id":null},{"event_id":"686393","title":"白猫プロジェクトオフ会in大阪","url":"http://peatix.com/event/686393","shortener_url":null,"started_at":"2019-06-08T10:00:00.000+09:00","ended_at":"2019-06-10T23:59:59.000+09:00","limit_number":null,"address":"大阪府中央区西心斎橋2-4-9","place":"白猫オフ会場　(なんば駅から徒歩5分)","lat":34.6695,"lon":135.5,"state":"active","id":null},{"event_id":"682745","title":"やまぐち暮らし東京支援センター（山口県） #9","url":"http://peatix.com/event/682745","shortener_url":null,"started_at":"2019-06-02T04:00:00.000+09:00","ended_at":"2019-06-04T23:59:59.000+09:00","limit_number":null,"address":"千代田区有楽町2丁目10−1","place":"東京交通会館","lat":35.675,"lon":139.764,"state":"active","id":null},{"event_id":"132234","title":"【増枠！】禍つヴァールハイトの裏側お話します","url":"https://klab-fukuoka-meetup.connpass.com/event/132234/","shortener_url":null,"started_at":"2019-06-05T09:55:00.000+09:00","ended_at":"2019-06-05T12:30:00.000+09:00","limit_number":47,"address":"福岡県福岡市中央区長浜１丁目１","place":"KBCビル9F","lat":33.5958,"lon":130.396,"state":"active","id":null},{"event_id":"677051","title":"ATHLETE IDEATHON Vol.1　「トップアスリートと考える、令和時代における個の在り方」","url":"http://athlete-ideathon.peatix.com","shortener_url":"https://bit.ly/2HyeGDo","started_at":"2019-06-02T10:00:00.000+09:00","ended_at":"2019-06-04T23:59:59.000+09:00","limit_number":null,"address":"東京都港区麻布台1−8—10 B1","place":"R-StartupStudio","lat":35.6599,"lon":139.742,"state":"active","id":null},{"event_id":"677125","title":"『 SDGs de 地方創生ゲーム 』体験会 in 富山　６月 vol.1","url":"http://peatix.com/event/677125","shortener_url":null,"started_at":"2019-06-01T09:00:00.000+09:00","ended_at":"2019-06-03T23:59:59.000+09:00","limit_number":null,"address":"富山市桜町1丁目1−61","place":"マリエとやま","lat":36.7004,"lon":137.214,"state":"active","id":null},{"event_id":"688699","title":"ゲーミファイ・ネットワーク 第6回勉強会","url":"http://peatix.com/event/688699","shortener_url":null,"started_at":"2019-06-20T10:30:00.000+09:00","ended_at":"2019-06-22T23:59:59.000+09:00","limit_number":null,"address":"東京都千代田区神田佐久間町3-21-5 三共ビル","place":"ヒューマンアカデミー秋葉原校","lat":0.0,"lon":0.0,"state":"active","id":null},{"event_id":"132787","title":"【大阪】ハッカソン・新規事業・スタートアップ：夜通し作業しNight 2019/06/14","url":"https://hackers-salon.connpass.com/event/132787/","shortener_url":"https://bit.ly/2YMWjkc","started_at":"2019-06-14T14:00:00.000+09:00","ended_at":"2019-06-14T22:30:00.000+09:00","limit_number":10,"address":"大阪市中央区本町４丁目７−７ 飛鳥ビル３０２","place":"Kiiiya Hommachi（2020年6月営業終了）","lat":34.6849,"lon":135.498,"state":"active","id":null},{"event_id":"132784","title":"【大阪】ハッカソン・新規事業・スタートアップ：夜通し作業しNight 2019/06/07","url":"https://hackers-salon.connpass.com/event/132784/","shortener_url":"https://bit.ly/2YGkXmi","started_at":"2019-06-07T14:00:00.000+09:00","ended_at":"2019-06-07T20:00:00.000+09:00","limit_number":10,"address":"大阪市中央区本町４丁目７−７ 飛鳥ビル３０２","place":"Kiiiya Hommachi（2020年6月営業終了）","lat":34.6849,"lon":135.498,"state":"active","id":null},{"event_id":"92275","title":"【レベルと目的に応じて３冊の本で学ぶ】DeepLearning勉強会#1","url":"https://soleildatadojo.doorkeeper.jp/events/92275","shortener_url":null,"started_at":"2019-06-06T10:30:00.000+09:00","ended_at":"2019-06-06T12:30:00.000+09:00","limit_number":10,"address":"大阪府大阪市北区西天満二丁目5番3号(堂島深川ビル3階)","place":"SCRIBBLE OSAKA LAB（SOL）（大阪メトロ御堂筋線「淀屋橋」駅から徒歩４分）","lat":null,"lon":null,"state":"active","id":null},{"event_id":"677099","title":"【参加無料】「αGEL+あなたのアイデアで暮らしを豊かに」ゲルを使ったMake-a-thon 第2回！【大賞10万円】","url":"http://taica-makeathon0629.peatix.com","shortener_url":null,"started_at":"2019-06-29T01:00:00.000+09:00","ended_at":"2019-07-01T23:59:59.000+09:00","limit_number":null,"address":"千代田区神田練塀町3 富士ソフト秋葉原ビル","place":"DMM.make AKIBA","lat":35.7005,"lon":139.774,"state":"active","id":null},{"event_id":"132896","title":"熊ゆに Unityもくもく会　2019/6/2（日）","url":"https://kumauni.connpass.com/event/132896/","shortener_url":null,"started_at":"2019-06-02T04:00:00.000+09:00","ended_at":"2019-06-02T08:00:00.000+09:00","limit_number":10,"address":"熊本県熊本市 中央区下通１丁目１２−２７","place":"未来会議室","lat":32.7998,"lon":130.708,"state":"active","id":null},{"event_id":"649485","title":"Chill Sessions at Kult Kafé","url":"http://chillsessionsatkultkafe.peatix.com","shortener_url":null,"started_at":"2019-06-01T09:00:00.000+09:00","ended_at":"2019-06-03T23:59:59.000+09:00","limit_number":null,"address":"11 Upper Wilkie Road","place":"kult kafé","lat":1.3031,"lon":103.849,"state":"active","id":null},{"event_id":"688598","title":"6/28(Fri) Nihongo DrinkMeetup in Jiyugaoka","url":"http://peatix.com/event/688598","shortener_url":null,"started_at":"2019-06-28T10:00:00.000+09:00","ended_at":"2019-06-30T23:59:59.000+09:00","limit_number":null,"address":"東京都目黒区自由が丘1丁目8-18","place":"■アイリッシュパブ クラン（Clann)","lat":35.6069,"lon":139.669,"state":"active","id":null},{"event_id":"655768","title":"メーカーズ飲み会 #9","url":"http://makers-nomikai-9.peatix.com","shortener_url":null,"started_at":"2019-06-08T09:30:00.000+09:00","ended_at":"2019-06-10T23:59:59.000+09:00","limit_number":null,"address":"大阪市北区小松原町1-11","place":"パーティースペース 梅田カンパーニュ","lat":34.7025,"lon":135.501,"state":"active","id":null},{"event_id":"132371","title":"VRゲームジャム　6月29日（土）～6月30日（日）","url":"https://nagogebu.connpass.com/event/132371/","shortener_url":"https://bit.ly/2YQ2p3a","started_at":"2019-06-29T01:00:00.000+09:00","ended_at":"2019-06-30T09:00:00.000+09:00","limit_number":17,"address":"名古屋市中区丸の内3-5-34","place":"名古屋ゲーム制作部(セントラルコーポ 503号室)","lat":35.1773,"lon":136.906,"state":"active","id":null},{"event_id":"132614","title":"【神戸】UX JAM in KOBE 02","url":"https://uxmilk.connpass.com/event/132614/","shortener_url":null,"started_at":"2019-06-10T10:30:00.000+09:00","ended_at":"2019-06-10T13:00:00.000+09:00","limit_number":32,"address":"〒651-0083　兵庫県神戸市中央区浜辺通5丁目1-14　神戸商工貿易センタービル 16階","place":"株式会社メンバーズ　ウェブガーデン神戸","lat":34.6882,"lon":135.2,"state":"active","id":null},{"event_id":"132883","title":"IHANet Hackathon@淡路町 \u0026 peering day #9","url":"https://ihanet.connpass.com/event/132883/","shortener_url":"https://bit.ly/2HES1W7","started_at":"2019-06-01T04:00:00.000+09:00","ended_at":"2019-06-01T09:00:00.000+09:00","limit_number":70,"address":"東京都千代田区神田司町2-8-1(PMO神田司町2F)","place":"株式会社セキュアスカイ・テクノロジー　本社","lat":35.6941,"lon":139.768,"state":"active","id":null},{"event_id":"133048","title":"子ども向けプログラミングクラブ コーダー道場甲府#23","url":"https://coderdojokofu.connpass.com/event/133048/","shortener_url":null,"started_at":"2019-06-30T00:20:00.000+09:00","ended_at":"2019-06-30T02:40:00.000+09:00","limit_number":13,"address":"山梨県甲府市北口２丁目８番１号","place":"山梨県立図書館","lat":35.6685,"lon":138.57,"state":"active","id":null},{"event_id":"132737","title":"AITCシニア技術者勉強会「一からはじめるIoT ４周目」第5回 アイデアソン","url":"https://aitc-senior.connpass.com/event/132737/","shortener_url":"https://bit.ly/2YPLRs2","started_at":"2019-06-08T05:00:00.000+09:00","ended_at":"2019-06-08T09:00:00.000+09:00","limit_number":30,"address":"東京都渋谷区代々木1-22-1　代々木1丁目ビル","place":"ジャパンシステム株式会社　本社 セミナールーム","lat":35.6811,"lon":139.702,"state":"active","id":null},{"event_id":"682074","title":"京都里山の風土を伝える日本ワイン〜丹波ワイン〜","url":"http://peatix.com/event/682074","shortener_url":null,"started_at":"2019-06-05T11:00:00.000+09:00","ended_at":"2019-06-07T23:59:59.000+09:00","limit_number":null,"address":"千代田区六番町4−3 GEMS市ヶ谷2F","place":"JAM ORCHESTRA（ジャムオーケストラ）","lat":35.6892,"lon":139.735,"state":"active","id":null},{"event_id":"689265","title":"【6/16(日)10時30分から】issueお菓子学「ハーブを学ぶ。乳/卵/小麦/ナッツ/大豆不使用　ハーブのスコーン」","url":"http://peatix.com/event/689265","shortener_url":null,"started_at":"2019-06-16T01:30:00.000+09:00","ended_at":"2019-06-18T23:59:59.000+09:00","limit_number":null,"address":"札幌市中央区南6条西23丁目4−26","place":"issue","lat":43.0499,"lon":141.324,"state":"active","id":null},{"event_id":"689195","title":"【6/12(水)10時30分から】issueお菓子学「ハーブを学ぶ。乳/卵/小麦/ナッツ/大豆不使用　ハーブのスコーン」","url":"http://peatix.com/event/689195","shortener_url":null,"started_at":"2019-06-12T01:30:00.000+09:00","ended_at":"2019-06-14T23:59:59.000+09:00","limit_number":null,"address":"札幌市中央区南6条西23丁目4−26","place":"issue","lat":43.0499,"lon":141.324,"state":"active","id":null},{"event_id":"689261","title":"【6/23(日)10時30分から】issueお菓子学「ハーブを学ぶ。乳/卵/小麦/ナッツ/大豆不使用　ハーブのスコーン」","url":"http://peatix.com/event/689261","shortener_url":null,"started_at":"2019-06-23T01:30:00.000+09:00","ended_at":"2019-06-25T23:59:59.000+09:00","limit_number":null,"address":"札幌市中央区南6条西23丁目4−26","place":"issue","lat":43.0499,"lon":141.324,"state":"active","id":null},{"event_id":"689256","title":"【6/20(木)19時00分から】issueお菓子学「ハーブを学ぶ。乳/卵/小麦/ナッツ/大豆不使用　ハーブのスコーン」","url":"http://peatix.com/event/689256","shortener_url":null,"started_at":"2019-06-20T10:00:00.000+09:00","ended_at":"2019-06-22T23:59:59.000+09:00","limit_number":null,"address":"札幌市中央区南6条西23丁目4−26","place":"issue","lat":43.0499,"lon":141.324,"state":"active","id":null},{"event_id":"133358","title":"【大阪】XRジャムフォローアップ 環境構築/体験会 2019/06/08","url":"https://osaka-driven-dev.connpass.com/event/133358/","shortener_url":null,"started_at":"2019-06-08T01:00:00.000+09:00","ended_at":"2019-06-08T03:30:00.000+09:00","limit_number":8,"address":"大阪市中央区本町4丁目7-7-303","place":"Kiiiya Hommachi","lat":34.6849,"lon":135.498,"state":"active","id":null},{"event_id":"133290","title":"Dev-Camp in さいたま 2019/06/09","url":"https://devcamp.connpass.com/event/133290/","shortener_url":null,"started_at":"2019-06-09T04:00:00.000+09:00","ended_at":"2019-06-09T08:00:00.000+09:00","limit_number":null,"address":"さいたま市中央区上落合","place":"ラウンジ","lat":35.8943,"lon":139.626,"state":"active","id":null},{"event_id":"133293","title":"Dev-Camp in さいたま 2019/06/23","url":"https://devcamp.connpass.com/event/133293/","shortener_url":null,"started_at":"2019-06-23T04:00:00.000+09:00","ended_at":"2019-06-23T08:00:00.000+09:00","limit_number":null,"address":"さいたま市中央区上落合","place":"ラウンジ","lat":35.8943,"lon":139.626,"state":"active","id":null},{"event_id":"133301","title":"sisisinハウス合宿 6/2（日）","url":"https://sisisin.connpass.com/event/133301/","shortener_url":null,"started_at":"2019-06-02T01:00:00.000+09:00","ended_at":"2019-06-02T09:00:00.000+09:00","limit_number":6,"address":"twitterなどで聞いてください","place":"sisisinハウス","lat":null,"lon":null,"state":"active","id":null},{"event_id":"92390","title":"ラボ発スタートアップのビジネスを考えよう！ワークショップ＆交流会","url":"https://swtokyo.doorkeeper.jp/events/92390","shortener_url":null,"started_at":"2019-06-25T09:30:00.000+09:00","ended_at":"2019-06-25T12:30:00.000+09:00","limit_number":40,"address":"東京都渋谷区恵比寿南3-5-7 デジタルゲートビル 9F","place":"株式会社デジタルガレージ 本社 9階 ","lat":null,"lon":null,"state":"active","id":null},{"event_id":"92457","title":"【6/14（金）・6/21（金）】初心者向け・２回で学ぶシリーズ②『Pandasによるデータ前処理と可視化の基礎』","url":"https://soleildatadojo.doorkeeper.jp/events/92457","shortener_url":null,"started_at":"2019-06-14T10:30:00.000+09:00","ended_at":"2019-06-21T12:30:00.000+09:00","limit_number":6,"address":"大阪府大阪市北区西天満二丁目5番3号(堂島深川ビル3階)","place":"SCRIBBLE OSAKA LAB（SOL）（大阪メトロ御堂筋線「淀屋橋」駅から徒歩４分）","lat":null,"lon":null,"state":"active","id":null},{"event_id":"690429","title":"6/29(Sat) Drink Meetup in Jiyugaoka","url":"http://peatix.com/event/690429","shortener_url":null,"started_at":"2019-06-29T10:00:00.000+09:00","ended_at":"2019-07-01T23:59:59.000+09:00","limit_number":null,"address":"東京都目黒区自由が丘1丁目8-18","place":"Clann","lat":35.6069,"lon":139.669,"state":"active","id":null},{"event_id":"92259","title":"「はじめてのハッカソン」の技術を学ぼう by Asia Open Data Hackathon","url":"https://hackcamp.doorkeeper.jp/events/92259","shortener_url":"https://bit.ly/2YWaQtS","started_at":"2019-06-26T09:00:00.000+09:00","ended_at":"2019-06-26T12:30:00.000+09:00","limit_number":40,"address":"〒100-8141 東京都千代田区永田町2丁目10−3","place":"三菱総合研究所","lat":null,"lon":null,"state":"active","id":null},{"event_id":"631492","title":"Living Anywhere Week in うるま","url":"http://laweekuruma.peatix.com","shortener_url":null,"started_at":"2019-06-27T01:00:00.000+09:00","ended_at":"2019-06-29T23:59:59.000+09:00","limit_number":null,"address":"うるま市勝連浜19","place":"浜中学校","lat":26.3252,"lon":127.953,"state":"active","id":null},{"event_id":"696374","title":"地域の価値を高めるシゴトづくり〜本当に豊かなシゴトとは？〜","url":"http://tamamuraya0628.peatix.com","shortener_url":null,"started_at":"2019-06-28T10:00:00.000+09:00","ended_at":"2019-06-30T23:59:59.000+09:00","limit_number":null,"address":"南越前町今庄82−10","place":"地域まるっと体感宿 玉村屋","lat":35.7712,"lon":136.199,"state":"active","id":null},{"event_id":"696395","title":"豊かな食材を味わう＆豊かな暮らし方にふれる時間☆講師：中村功芳","url":"http://tamamuraya0629.peatix.com","shortener_url":null,"started_at":"2019-06-29T09:30:00.000+09:00","ended_at":"2019-07-01T23:59:59.000+09:00","limit_number":null,"address":"南越前町今庄82−10","place":"地域まるっと体感宿 玉村屋","lat":35.7712,"lon":136.199,"state":"active","id":null},{"event_id":"681081","title":"Comedy Masala ft. BEN FRANK (USA/CHINA)","url":"http://benfrank.peatix.com","shortener_url":null,"started_at":"2019-06-25T12:00:00.000+09:00","ended_at":"2019-06-27T23:59:59.000+09:00","limit_number":null,"address":"69 Circular Road, Boat Quay, Singapore 049423","place":"HERO'S, 69 Circular Road, Singapore 049423","lat":1.28641,"lon":103.849,"state":"active","id":null},{"event_id":"692887","title":"第２９回　Table Cruise【ポーカー】【コントラクトブリッジ】【バックギャモン】","url":"http://sc-tablecruise-tc029.peatix.com","shortener_url":null,"started_at":"2019-06-22T04:15:00.000+09:00","ended_at":"2019-06-24T23:59:59.000+09:00","limit_number":null,"address":"東京都新宿区西新宿8-5-7 輿石ビル202","place":"Crave西新宿02","lat":35.6949,"lon":139.693,"state":"active","id":null},{"event_id":"133558","title":"Kamakura Mok Mok Hack 45","url":"https://kamkura-mokmok.connpass.com/event/133558/","shortener_url":null,"started_at":"2019-06-01T02:00:00.000+09:00","ended_at":"2019-06-01T04:00:00.000+09:00","limit_number":7,"address":"神奈川県 鎌倉市由比ガ浜1丁目12-8","place":"HOUSE YUIGAHAMA","lat":35.3202,"lon":139.55,"state":"active","id":null},{"event_id":"133539","title":"【大阪】XRジャムフォローアップハンズオン Unity+XR 2019/06/08","url":"https://osaka-driven-dev.connpass.com/event/133539/","shortener_url":"https://bit.ly/2I8N8Ut","started_at":"2019-06-08T08:30:00.000+09:00","ended_at":"2019-06-08T12:00:00.000+09:00","limit_number":8,"address":"大阪市中央区本町4丁目7-7-303","place":"Kiiiya Hommachi","lat":34.6849,"lon":135.498,"state":"active","id":null},{"event_id":"133338","title":"【大阪】XRジャムフォローアップハンズオン UE4+XR 2019/06/08","url":"https://osaka-driven-dev.connpass.com/event/133338/","shortener_url":"https://bit.ly/2Wg5wV2","started_at":"2019-06-08T04:30:00.000+09:00","ended_at":"2019-06-08T08:00:00.000+09:00","limit_number":8,"address":"大阪市中央区本町4丁目7-7-303","place":"Kiiiya Hommachi","lat":34.6849,"lon":135.498,"state":"active","id":null},{"event_id":"92679","title":"『Python, Machine Learning \u0026 Raspberry PI』もくもく会#25","url":"https://soleildatadojo.doorkeeper.jp/events/92679","shortener_url":null,"started_at":"2019-06-11T10:30:00.000+09:00","ended_at":"2019-06-11T12:30:00.000+09:00","limit_number":8,"address":"大阪府大阪市北区西天満二丁目5番3号(堂島深川ビル3階)","place":"SCRIBBLE OSAKA LAB（SOL）（大阪メトロ御堂筋線「淀屋橋」駅から徒歩４分）","lat":null,"lon":null,"state":"active","id":null},{"event_id":"688812","title":"カメラ合宿　オフィスキャンプ東吉野","url":"http://ikomacamera07.peatix.com","shortener_url":null,"started_at":"2019-06-22T08:00:00.000+09:00","ended_at":"2019-06-24T23:59:59.000+09:00","limit_number":null,"address":"東吉野村小川610-2","place":"オフィスキャンプ東吉野","lat":34.403,"lon":135.97,"state":"active","id":null},{"event_id":"677482","title":"【特別イベント】地方のローカル企業と東京のローカルコミュニティでヒット食品を生み出した共創の秘訣とは？","url":"http://peatix.com/event/677482","shortener_url":null,"started_at":"2019-06-07T10:00:00.000+09:00","ended_at":"2019-06-09T23:59:59.000+09:00","limit_number":null,"address":"東京都千代田区丸の内2-5-1 丸の内二丁目ビル6F 611区","place":"TIP*S","lat":35.68,"lon":139.763,"state":"active","id":null},{"event_id":"696050","title":"金沢工業大学虎ノ門大学院×DIWal Limited共催イベント 「ブロックチェーンシンポジウム」開催","url":"http://peatix.com/event/696050","shortener_url":"https://bit.ly/2W9XZm0","started_at":"2019-06-19T09:00:00.000+09:00","ended_at":"2019-06-21T23:59:59.000+09:00","limit_number":null,"address":"東京都港区愛宕1-3-4","place":"KIT金沢工業大学　虎ノ門大学院　愛宕東洋ビル１３階 （1階のミニストップが目印です）https://www.kanazawa-it.ac.jp/tokyo/map.htm","lat":35.6659,"lon":139.749,"state":"active","id":null},{"event_id":"694463","title":"【銀座】五大シャトーVS世界の注目ワイン！星付きシェフ考案贅沢フルコース付きブラインドテイスティング会開催","url":"http://peatix.com/event/694463","shortener_url":null,"started_at":"2019-06-16T04:00:00.000+09:00","ended_at":"2019-06-18T23:59:59.000+09:00","limit_number":null,"address":"中央区銀座4丁目3−1 GINZA9F NAMIKIKAN GINZA","place":"re:Dine GINZA（リダイン 銀座）","lat":35.6726,"lon":139.765,"state":"active","id":null},{"event_id":"689005","title":"＜エンジニア向け＞■日本初上陸の新ツール■  IoT×音声認識の実働プロトタイプを2.5時間で完成させよう！！","url":"http://noodl-hands-on190626.peatix.com","shortener_url":null,"started_at":"2019-06-26T10:30:00.000+09:00","ended_at":"2019-06-28T23:59:59.000+09:00","limit_number":null,"address":"東京都豊島区南池袋1丁目19-12 山の手ビル東館6F","place":"いいオフィス池袋","lat":35.7278,"lon":139.713,"state":"active","id":null},{"event_id":"698188","title":"歌舞伎町観察ツアー0606","url":"http://peatix.com/event/698188","shortener_url":null,"started_at":"2019-06-06T11:00:00.000+09:00","ended_at":"2019-06-08T23:59:59.000+09:00","limit_number":null,"address":"歌舞伎町","place":"歌舞伎町","lat":0.0,"lon":0.0,"state":"active","id":null},{"event_id":"698203","title":"歌舞伎町観察ツアー0607","url":"http://peatix.com/event/698203","shortener_url":null,"started_at":"2019-06-07T11:00:00.000+09:00","ended_at":"2019-06-09T23:59:59.000+09:00","limit_number":null,"address":"歌舞伎町","place":"歌舞伎町","lat":0.0,"lon":0.0,"state":"active","id":null},{"event_id":"686765","title":"【未経験者/初心者向け】2.5時間でIoT×音声認識の実働プロトタイプをつくる！日本初上陸の最新ツールNoodlハンズオンセミナー","url":"http://noodl-hands-on190619.peatix.com","shortener_url":null,"started_at":"2019-06-19T10:30:00.000+09:00","ended_at":"2019-06-21T23:59:59.000+09:00","limit_number":null,"address":"東京都豊島区南池袋1丁目19-12 山の手ビル東館6F","place":"いいオフィス池袋","lat":35.7278,"lon":139.713,"state":"active","id":null},{"event_id":"106496","title":"【就活生も参加可能】第３回若者PAL学生アイデアソン　～日本型就活の「不」編～","url":"https://atnd.org/events/106496","shortener_url":"https://bit.ly/2Wmmrpm","started_at":"2019-06-12T07:00:00.000+09:00","ended_at":"2019-06-12T10:00:00.000+09:00","limit_number":20,"address":"〒104-0031東京都中央区京橋1-5-8","place":"三栄ビル　地下1階　004","lat":35.6781,"lon":139.771,"state":"closed","id":null},{"event_id":"106493","title":"第２回若者PAL学生アイデアソン　～ITハッカソンの別のモデル編～","url":"https://atnd.org/events/106493","shortener_url":"https://bit.ly/2WehC0Y","started_at":"2019-06-11T01:00:00.000+09:00","ended_at":"2019-06-11T04:00:00.000+09:00","limit_number":20,"address":"〒104-8001 東京都中央区銀座8-4-17","place":"リクルートGINZA8ビル　11Ｆ　115","lat":35.6686,"lon":139.759,"state":"closed","id":null},{"event_id":"106492","title":"第１回若者PAL学生アイデアソン　～サークル(部活)運営における「不」編～","url":"https://atnd.org/events/106492","shortener_url":"https://bit.ly/2I9Jh9K","started_at":"2019-06-06T01:00:00.000+09:00","ended_at":"2019-06-06T04:00:00.000+09:00","limit_number":20,"address":"〒104-0031東京都中央区京橋1-5-8","place":"三栄ビル　地下1階　004","lat":35.6781,"lon":139.771,"state":"closed","id":null},{"event_id":"695802","title":"これから必須になる\"人を巻き込む\"仲間の作り方","url":"http://digkagawa01.peatix.com","shortener_url":null,"started_at":"2019-06-12T10:00:00.000+09:00","ended_at":"2019-06-14T23:59:59.000+09:00","limit_number":null,"address":"高松市鍛冶屋町6−11","place":"co-ba takamatsu","lat":0.0,"lon":0.0,"state":"active","id":null},{"event_id":"651503","title":"ケンハラクマ特別講座「アシュタンガヨガ初心者指導者養成コース全１２時間」2日間　6/20.27　※認定証発行","url":"http://peatix.com/event/651503","shortener_url":null,"started_at":"2019-06-20T02:00:00.000+09:00","ended_at":"2019-06-22T23:59:59.000+09:00","limit_number":null,"address":"新宿区西新宿1丁目22−2 新宿サンエービル4F","place":"【YMCメディカルトレーナーズスクール新宿校】新宿のヨガ/ヨガ資格取得","lat":35.6888,"lon":139.696,"state":"active","id":null},{"event_id":"688069","title":"6/30（日）宇川直宏×黒瀬陽平×津田大介【ゲンロンカフェ at VOLVO STUDIO AOYAMA #19】「アート・アヴァンギャルドの現在」 #ボルボスタジオ青山 @DOMMUNE @kaichoo @tsuda","url":"http://peatix.com/event/688069","shortener_url":null,"started_at":"2019-06-30T10:00:00.000+09:00","ended_at":"2019-07-02T23:59:59.000+09:00","limit_number":null,"address":"東京都港区北青山3-3-11","place":"ボルボ スタジオ 青山","lat":35.668,"lon":139.715,"state":"active","id":null},{"event_id":"133815","title":"Oculus Quest ゆるゆるハッカソン #01","url":"https://questloverstokyo.connpass.com/event/133815/","shortener_url":"https://bit.ly/2Wfdpu5","started_at":"2019-06-29T00:00:00.000+09:00","ended_at":"2019-06-29T12:30:00.000+09:00","limit_number":40,"address":"東京都港区六本木6-10-1(六本木ヒルズ森タワー18F)","place":"株式会社メルカリ","lat":35.6587,"lon":139.732,"state":"active","id":null},{"event_id":"133804","title":"Kamakura Mok Mok Hack 46","url":"https://kamkura-mokmok.connpass.com/event/133804/","shortener_url":null,"started_at":"2019-06-08T02:00:00.000+09:00","ended_at":"2019-06-08T04:00:00.000+09:00","limit_number":7,"address":"神奈川県 鎌倉市由比ガ浜1丁目12-8","place":"HOUSE YUIGAHAMA","lat":35.3202,"lon":139.55,"state":"active","id":null},{"event_id":"132978","title":"【大阪】XRジャム2019：スポンサー・見学者専用ページ【AR/MR/VRハッカソン】","url":"https://osaka-driven-dev.connpass.com/event/132978/","shortener_url":"https://bit.ly/2Iansqo","started_at":"2019-06-15T00:30:00.000+09:00","ended_at":"2019-06-16T09:30:00.000+09:00","limit_number":8,"address":"大阪市住之江区南港北2-1-10 ATCビルITM棟 6階","place":"ソフト産業プラザ TEQS","lat":34.6379,"lon":135.411,"state":"active","id":null},{"event_id":"134019","title":"スクラム道関西 オープン・ジャム","url":"https://scrumdo-kansai.connpass.com/event/134019/","shortener_url":null,"started_at":"2019-06-10T10:30:00.000+09:00","ended_at":"2019-06-10T12:30:00.000+09:00","limit_number":25,"address":"大阪府大阪市北区末広町3-7","place":"TAM COWORKING OSAKA","lat":34.7019,"lon":135.51,"state":"active","id":null},{"event_id":"133787","title":"Daikanyama-3m","url":"https://connpass.com/event/133787/","shortener_url":null,"started_at":"2019-06-09T01:00:00.000+09:00","ended_at":"2019-06-09T04:15:00.000+09:00","limit_number":7,"address":"東京都目黒区上目黒1-9","place":"カフェ 東京音楽大学 中目黒・代官山キャンパス","lat":35.647,"lon":139.7,"state":"active","id":null},{"event_id":"702434","title":"しちょんぴの会 2部 トーク＆カラオケ大会","url":"http://chichonpi692.peatix.com","shortener_url":null,"started_at":"2019-06-09T11:00:00.000+09:00","ended_at":"2019-06-11T23:59:59.000+09:00","limit_number":null,"address":"杉並区永福3丁目34−14 B1","place":"西永福JAM","lat":35.6783,"lon":139.635,"state":"active","id":null},{"event_id":"702433","title":"しちょんぴの会 1部 ホラー映画鑑賞会","url":"http://chichonpi691.peatix.com","shortener_url":null,"started_at":"2019-06-09T08:30:00.000+09:00","ended_at":"2019-06-11T23:59:59.000+09:00","limit_number":null,"address":"杉並区永福3丁目34−14 B1","place":"西永福JAM","lat":35.6783,"lon":139.635,"state":"active","id":null},{"event_id":"134066","title":"H.T.C第1回アイデアソン","url":"https://haltechclub.connpass.com/event/134066/","shortener_url":"https://bit.ly/2WlEJXu","started_at":"2019-06-07T09:30:00.000+09:00","ended_at":"2019-06-07T14:00:00.000+09:00","limit_number":null,"address":"大阪市北区梅田3-3-1","place":"HAL大阪 163教室","lat":34.6997,"lon":135.493,"state":"active","id":null},{"event_id":"134067","title":"【大阪】XRジャムフォローアップ 体験会/質問会 2019/06/06","url":"https://osaka-driven-dev.connpass.com/event/134067/","shortener_url":null,"started_at":"2019-06-06T06:30:00.000+09:00","ended_at":"2019-06-06T09:30:00.000+09:00","limit_number":8,"address":"大阪市中央区本町4丁目7-7-302","place":"Kiiiya Hommachi 302","lat":34.6849,"lon":135.498,"state":"active","id":null},{"event_id":"703374","title":"JAM the Public 〜官×民×政のネクスト・イノベーション　町田誠（元国交省）×東浦亮典（東急電鉄執行役員）×五十嵐千代（相模原市議）#1「これからの公共空間活用のリアルをキーパーソンが語り尽くす!!」","url":"http://peatix.com/event/703374","shortener_url":null,"started_at":"2019-06-25T09:30:00.000+09:00","ended_at":"2019-06-27T23:59:59.000+09:00","limit_number":null,"address":"千代田区麹町1丁目4−4","place":"LIFULL TABLE","lat":35.6843,"lon":139.743,"state":"active","id":null},{"event_id":"701648","title":"連携フェスティバルスペシャルプログラム Japan Media Arts Festival x Art Hack Day『BA / AA』ー Art Hack Day 以前と以降 ー","url":"http://jmaf-arthackday.peatix.com","shortener_url":"https://bit.ly/2WdVJKn","started_at":"2019-06-09T05:00:00.000+09:00","ended_at":"2019-06-11T23:59:59.000+09:00","limit_number":null,"address":"東京都江東区青海2-3-6","place":"日本科学未来館7階（イノベーションホール）","lat":35.6193,"lon":139.777,"state":"active","id":null},{"event_id":"686865","title":"シリコンバレー・スタートアップ　少人数限定勉強会 (定員5名)","url":"http://rxworkshop1.peatix.com","shortener_url":null,"started_at":"2019-06-10T10:00:00.000+09:00","ended_at":"2019-06-12T23:59:59.000+09:00","limit_number":null,"address":"1丁目8−19 キラリトギンザ11階","place":"BINARYSTAR 株式会社","lat":35.6744,"lon":139.769,"state":"active","id":null},{"event_id":"697160","title":"TouchDesigner Study Weekend vol.021","url":"http://tdsw021.peatix.com","shortener_url":null,"started_at":"2019-06-05T09:30:00.000+09:00","ended_at":"2019-06-07T23:59:59.000+09:00","limit_number":null,"address":"渋谷区道玄坂1丁目22−7 道玄坂ピアビル2階","place":"FabCafe MTRL（MTRL TOKYO）","lat":35.6561,"lon":139.695,"state":"active","id":null},{"event_id":"132996","title":"ONE JAPAN CREATORS Meet up #1","url":"https://onejapanhackathon.connpass.com/event/132996/","shortener_url":"https://bit.ly/2WqzOVb","started_at":"2019-06-23T04:00:00.000+09:00","ended_at":"2019-06-23T07:00:00.000+09:00","limit_number":40,"address":"神奈川県横浜市西区みなとみらい2-3-3  クイーンズタワーB棟9階","place":"富士通エフサス みなとみらいInnovation \u0026 Future Center","lat":35.4565,"lon":139.634,"state":"active","id":null},{"event_id":"92857","title":"【君もベイジアンになろう！】Bayes勉強会#1","url":"https://soleildatadojo.doorkeeper.jp/events/92857","shortener_url":null,"started_at":"2019-06-19T10:30:00.000+09:00","ended_at":"2019-06-19T12:30:00.000+09:00","limit_number":7,"address":"大阪府大阪市北区西天満二丁目5番3号(堂島深川ビル3階)","place":"SCRIBBLE OSAKA LAB（SOL）（大阪メトロ御堂筋線「淀屋橋」駅から徒歩４分）","lat":null,"lon":null,"state":"active","id":null},{"event_id":"106619","title":"日本Androidの会秋葉原支部ロボット部　第81回勉強会 ~キッズプログラムとアネロビッククッキング~","url":"https://atnd.org/events/106619","shortener_url":null,"started_at":"2019-06-30T04:00:00.000+09:00","ended_at":"2019-06-30T08:00:00.000+09:00","limit_number":15,"address":"足立区花畑四丁目16番8号","place":"花畑地域学習センター　料理室","lat":35.8028,"lon":139.807,"state":"closed","id":null},{"event_id":"134509","title":"【21新卒向け】HACKATHON-「あったらいいな」を創ってみよう-","url":"https://connpass.com/event/134509/","shortener_url":"https://bit.ly/2WnHhjj","started_at":"2019-06-21T01:00:00.000+09:00","ended_at":"2019-06-21T09:00:00.000+09:00","limit_number":3,"address":"東京都新宿区西新宿７丁目５−２５(西新宿プライムスクエア6F)","place":"株式会社セラク 東京本社","lat":35.6975,"lon":139.699,"state":"active","id":null},{"event_id":"134446","title":"【東京】UX JAM Outbound 2","url":"https://uxmilk.connpass.com/event/134446/","shortener_url":null,"started_at":"2019-06-20T10:30:00.000+09:00","ended_at":"2019-06-20T13:00:00.000+09:00","limit_number":53,"address":"東京都中央区日本橋馬喰町2-7-15 (ザ・パークレックス日本橋馬喰町4階)","place":"Tigerspike株式会社","lat":35.6963,"lon":139.783,"state":"active","id":null},{"event_id":"134262","title":"第16回 PCNひろしま こどもプログラミング教室","url":"https://pcn-hiroshima.connpass.com/event/134262/","shortener_url":null,"started_at":"2019-06-30T01:00:00.000+09:00","ended_at":"2019-06-30T03:00:00.000+09:00","limit_number":14,"address":"広島県広島市南区京橋町1−7(広島京橋ビルディング)","place":"fabbit広島駅前","lat":34.3946,"lon":132.473,"state":"active","id":null},{"event_id":"707663","title":"Rooftop Raga - Open Air Roof Dance (FREE TIX)","url":"http://rooftopraga.peatix.com","shortener_url":null,"started_at":"2019-06-14T12:00:00.000+09:00","ended_at":"2019-06-16T23:59:59.000+09:00","limit_number":null,"address":"100 Beach Road, #11-00, Shaw Towers","place":"The Great Escape","lat":1.29671,"lon":103.857,"state":"active","id":null},{"event_id":"134638","title":"sisisinハウス合宿 6/9（日）","url":"https://sisisin.connpass.com/event/134638/","shortener_url":null,"started_at":"2019-06-09T01:00:00.000+09:00","ended_at":"2019-06-09T09:00:00.000+09:00","limit_number":6,"address":"twitterなどで聞いてください","place":"sisisinハウス","lat":null,"lon":null,"state":"active","id":null},{"event_id":"92936","title":"【レベルと目的に応じて３冊の本で学ぶ】DeepLearning勉強会#2","url":"https://soleildatadojo.doorkeeper.jp/events/92936","shortener_url":null,"started_at":"2019-06-20T10:30:00.000+09:00","ended_at":"2019-06-20T12:30:00.000+09:00","limit_number":9,"address":"大阪府大阪市北区西天満二丁目5番3号(堂島深川ビル3階)","place":"SCRIBBLE OSAKA LAB（SOL）（大阪メトロ御堂筋線「淀屋橋」駅から徒歩４分）","lat":null,"lon":null,"state":"active","id":null},{"event_id":"705584","title":"Mary Queen Jam","url":"http://jamatmaryqueen.peatix.com","shortener_url":null,"started_at":"2019-06-15T11:30:00.000+09:00","ended_at":"2019-06-17T23:59:59.000+09:00","limit_number":null,"address":"1 Upper Circular Rd, Singapore 058400","place":"Venue with terrace and unique view on Singapore 5th floor","lat":1.2884,"lon":103.846,"state":"active","id":null},{"event_id":"710201","title":"World Industrial Design Day 2019 Mini-Jam in Tokyo","url":"http://peatix.com/event/710201","shortener_url":null,"started_at":"2019-06-29T02:00:00.000+09:00","ended_at":"2019-07-01T23:59:59.000+09:00","limit_number":null,"address":"道玄坂ピアビル2階, 1 Chome-22−7 Dogenzaka, Shibuya City","place":"FabCafe MTRL（MTRL TOKYO）","lat":35.6561,"lon":139.695,"state":"active","id":null},{"event_id":"708948","title":"【6/12】IoTモノづくり研修 　第9回モノづくりブートキャンプの説明会","url":"http://peatix.com/event/708948","shortener_url":null,"started_at":"2019-06-12T00:00:00.000+09:00","ended_at":"2019-06-14T23:59:59.000+09:00","limit_number":null,"address":"奈良県天理市櫟本町2613番地の1","place":"オンラインミーティングにて接続します。","lat":0.0,"lon":0.0,"state":"active","id":null},{"event_id":"708976","title":"【6/14】IoTモノづくり研修 　第9回モノづくりブートキャンプの説明会","url":"http://peatix.com/event/708976","shortener_url":null,"started_at":"2019-06-14T00:00:00.000+09:00","ended_at":"2019-06-16T23:59:59.000+09:00","limit_number":null,"address":"奈良県天理市櫟本町2613番地の1","place":"オンラインミーティングにて接続します。","lat":0.0,"lon":0.0,"state":"active","id":null},{"event_id":"708988","title":"【6/20】IoTモノづくり研修 　第9回モノづくりブートキャンプの説明会","url":"http://peatix.com/event/708988","shortener_url":null,"started_at":"2019-06-20T00:00:00.000+09:00","ended_at":"2019-06-22T23:59:59.000+09:00","limit_number":null,"address":"奈良県天理市櫟本町2613番地の1","place":"オンラインミーティングにて接続します。","lat":0.0,"lon":0.0,"state":"active","id":null},{"event_id":"708983","title":"【6/19】IoTモノづくり研修 　第9回モノづくりブートキャンプの説明会","url":"http://peatix.com/event/708983","shortener_url":null,"started_at":"2019-06-19T00:00:00.000+09:00","ended_at":"2019-06-21T23:59:59.000+09:00","limit_number":null,"address":"奈良県天理市櫟本町2613番地の1","place":"オンラインミーティングにて接続します。","lat":0.0,"lon":0.0,"state":"active","id":null},{"event_id":"709013","title":"【6/21】IoTモノづくり研修 　第9回モノづくりブートキャンプの説明会","url":"http://peatix.com/event/709013","shortener_url":null,"started_at":"2019-06-21T00:00:00.000+09:00","ended_at":"2019-06-23T23:59:59.000+09:00","limit_number":null,"address":"奈良県天理市櫟本町2613番地の1","place":"オンラインミーティングにて接続します。","lat":0.0,"lon":0.0,"state":"active","id":null},{"event_id":"708969","title":"【6/13】IoTモノづくり研修 　第9回モノづくりブートキャンプの説明会","url":"http://peatix.com/event/708969","shortener_url":null,"started_at":"2019-06-13T00:00:00.000+09:00","ended_at":"2019-06-15T23:59:59.000+09:00","limit_number":null,"address":"奈良県天理市櫟本町2613番地の1","place":"オンラインミーティングにて接続します。","lat":0.0,"lon":0.0,"state":"active","id":null},{"event_id":"701552","title":"当事者talkSpecial「コーヒーで社会を変える！聴覚障害者の挑戦」\u0026コーヒー販売会 by what's!? coffee","url":"http://peatix.com/event/701552","shortener_url":null,"started_at":"2019-06-29T09:30:00.000+09:00","ended_at":"2019-07-01T23:59:59.000+09:00","limit_number":null,"address":"大阪府大阪市中央区道修町1丁目2−11 アルテビル 701","place":"株式会社ウィズ","lat":34.6887,"lon":135.509,"state":"active","id":null},{"event_id":"708396","title":"TALKS ONLY: Google I/O Extended 2019 Kuala Lumpur","url":"http://talks-only-ioxkl19.peatix.com","shortener_url":null,"started_at":"2019-06-16T00:00:00.000+09:00","ended_at":"2019-06-18T23:59:59.000+09:00","limit_number":null,"address":"5, Jalan Universiti, Bandar Sunway, Petaling Jaya","place":"Sunway University","lat":3.06691,"lon":101.604,"state":"active","id":null},{"event_id":"92965","title":"【大阪開催】みんなでKaggleもくもく会#1","url":"https://soleildatadojo.doorkeeper.jp/events/92965","shortener_url":null,"started_at":"2019-06-29T04:00:00.000+09:00","ended_at":"2019-06-29T07:30:00.000+09:00","limit_number":8,"address":"大阪府大阪市北区西天満二丁目5番3号(堂島深川ビル3階)","place":"SCRIBBLE OSAKA LAB（SOL）（大阪メトロ御堂筋線「淀屋橋」駅から徒歩４分）","lat":null,"lon":null,"state":"active","id":null},{"event_id":"106681","title":"indonalo Agen Judi Live Casino Terbaik","url":"https://atnd.org/events/106681","shortener_url":null,"started_at":"2019-06-08T06:00:00.000+09:00","ended_at":"2019-08-15T19:00:00.000+09:00","limit_number":null,"address":"","place":"","lat":null,"lon":null,"state":"closed","id":null},{"event_id":"134883","title":"子どものためのプログラミングクラブ コーダー道場韮崎 #3","url":"https://coderdojo-nirasaki.connpass.com/event/134883/","shortener_url":null,"started_at":"2019-06-23T04:30:00.000+09:00","ended_at":"2019-06-23T06:40:00.000+09:00","limit_number":13,"address":"山梨県韮崎市若宮一丁目2番50号","place":"韮崎市民交流センター","lat":35.7117,"lon":138.45,"state":"active","id":null},{"event_id":"134882","title":"子どものためのプログラミングクラブ コーダー道場北杜 #3","url":"https://coderdojo-hokuto.connpass.com/event/134882/","shortener_url":null,"started_at":"2019-06-23T00:30:00.000+09:00","ended_at":"2019-06-23T02:40:00.000+09:00","limit_number":8,"address":"山梨県北杜市高根町村山北割３２８８","place":"北杜市高根町農村環境改善センター","lat":35.8375,"lon":138.412,"state":"active","id":null},{"event_id":"132428","title":"AngelHack Tokyo 2019","url":"https://eastgate.connpass.com/event/132428/","shortener_url":"https://bit.ly/2Wqot2B","started_at":"2019-06-29T00:00:00.000+09:00","ended_at":"2019-06-30T07:00:00.000+09:00","limit_number":158,"address":"東京都中央区銀座1丁目8−19 (キラリトギンザ11F)","place":"BINARYSTAR","lat":35.6744,"lon":139.769,"state":"active","id":null},{"event_id":"702930","title":"悪臭対策および感染対策に関するアイデアソン","url":"http://mamoru2-190615.peatix.com","shortener_url":"https://bit.ly/2WuI3Lg","started_at":"2019-06-15T04:00:00.000+09:00","ended_at":"2019-06-17T23:59:59.000+09:00","limit_number":null,"address":"大阪府大阪市北区大深町3−1","place":"グランフロント大阪北館７階 ナレッジサロン プレゼンラウンジ","lat":34.7054,"lon":135.494,"state":"active","id":null},{"event_id":"713095","title":"National Blockchain Challenge Hackathon","url":"http://peatix.com/event/713095","shortener_url":"https://bit.ly/2WAyUpb","started_at":"2019-06-14T02:00:00.000+09:00","ended_at":"2019-06-16T23:59:59.000+09:00","limit_number":null,"address":"11 Eunos Road 8","place":"Lifelong Learning Institute","lat":1.31976,"lon":103.892,"state":"active","id":null},{"event_id":"706337","title":"「問いストーリー（エピソード５：2030SDGs）」ハテナソン IN 東京霞ヶ関SENQ","url":"http://peatix.com/event/706337","shortener_url":null,"started_at":"2019-06-21T09:15:00.000+09:00","ended_at":"2019-06-23T23:59:59.000+09:00","limit_number":null,"address":"千代田区4 霞が関一丁目4番1号 日土地ビル2F","place":"SENQ（センク）霞が関","lat":35.6709,"lon":139.75,"state":"active","id":null},{"event_id":"708520","title":"「問いストーリー（エピソード６：新聞ABDでSDGs）」ハテナソン IN 東京霞ヶ関SENQ","url":"http://peatix.com/event/708520","shortener_url":null,"started_at":"2019-06-28T09:15:00.000+09:00","ended_at":"2019-06-30T23:59:59.000+09:00","limit_number":null,"address":"千代田区4 霞が関一丁目4番1号 日土地ビル2F","place":"SENQ（センク）霞が関","lat":35.6709,"lon":139.75,"state":"active","id":null},{"event_id":"702926","title":"アフリカの課題の解決方法をアフリカ×TechでデザインするSDGsワークショップ","url":"http://africaquest-workshop.peatix.com","shortener_url":null,"started_at":"2019-06-22T00:30:00.000+09:00","ended_at":"2019-06-24T23:59:59.000+09:00","limit_number":null,"address":"世田谷区桜丘1丁目1−1","place":"東京農業大学 世田谷キャンパス","lat":35.6412,"lon":139.632,"state":"active","id":null},{"event_id":"692090","title":"TouchDesigner Study Weekend vol.022 @仙台","url":"http://tdsw22.peatix.com","shortener_url":null,"started_at":"2019-06-15T01:00:00.000+09:00","ended_at":"2019-06-17T23:59:59.000+09:00","limit_number":null,"address":"宮城県仙台市若林区新寺3丁目2−1","place":"日本デザイナー芸術学院","lat":38.2549,"lon":140.886,"state":"active","id":null},{"event_id":"697838","title":"Summer Coding Program trial class //【5〜9歳対象】プログラミングサマープログラム無料体験レッスン in 田町（2019年6月）| サタデーキッズジャパン","url":"http://saturdaykidsjapan-tamachi-summer-trials.peatix.com","shortener_url":null,"started_at":"2019-06-14T07:00:00.000+09:00","ended_at":"2019-06-16T23:59:59.000+09:00","limit_number":null,"address":"3 Chome-15-4 Shibaura, Minato City","place":"SHIBAURA HOUSE","lat":35.6422,"lon":139.749,"state":"active","id":null},{"event_id":"704184","title":"TECHSTARS STARTUP WEEKEND ISKANDAR PUTERI @ IPSMART \"CREATE\" 2019","url":"http://startupweekendip2019.peatix.com","shortener_url":null,"started_at":"2019-06-28T10:00:00.000+09:00","ended_at":"2019-06-30T23:59:59.000+09:00","limit_number":null,"address":"Unit 02-02, Lvl 2, Cimb Leadership Academy,, No 3, Jalan Medini Utara 1, Medini Iskandar, Iskandar Puteri","place":"IskandarSpace","lat":1.42636,"lon":103.634,"state":"active","id":null},{"event_id":"135109","title":"H.T.C第2回LT会","url":"https://haltechclub.connpass.com/event/135109/","shortener_url":null,"started_at":"2019-06-14T09:30:00.000+09:00","ended_at":"2019-06-14T10:30:00.000+09:00","limit_number":null,"address":"大阪市北区梅田3-3-1","place":"HAL大阪 163教室","lat":34.6997,"lon":135.493,"state":"active","id":null},{"event_id":"135101","title":"H.T.C第2回LT大会","url":"https://haltechclub.connpass.com/event/135101/","shortener_url":null,"started_at":"2019-06-14T09:30:00.000+09:00","ended_at":"2019-06-14T10:30:00.000+09:00","limit_number":null,"address":"大阪市北区梅田3-3-1","place":"HAL大阪 163教室","lat":34.6997,"lon":135.493,"state":"active","id":null},{"event_id":"93037","title":"『Python, Machine Learning \u0026 Raspberry PI』もくもく会#26","url":"https://soleildatadojo.doorkeeper.jp/events/93037","shortener_url":null,"started_at":"2019-06-27T10:30:00.000+09:00","ended_at":"2019-06-27T12:30:00.000+09:00","limit_number":8,"address":"大阪府大阪市北区西天満二丁目5番3号(堂島深川ビル3階)","place":"SCRIBBLE OSAKA LAB（SOL）（大阪メトロ御堂筋線「淀屋橋」駅から徒歩４分）","lat":null,"lon":null,"state":"active","id":null},{"event_id":"668550","title":"【残席僅か！】日本の移動をハックせよ！タクシーアイデアソン","url":"http://taxiideathon2019.peatix.com","shortener_url":"https://bit.ly/2WznNrH","started_at":"2019-06-30T05:00:00.000+09:00","ended_at":"2019-07-02T23:59:59.000+09:00","limit_number":null,"address":"〒103-0023 東京都中央区日本橋本町1-4-3","place":"日本橋ムロホンビル1　５階","lat":0.0,"lon":0.0,"state":"active","id":null},{"event_id":"708387","title":"Whims Poker Camp #5","url":"http://whims-camp-5.peatix.com","shortener_url":"https://bit.ly/2WBfK2P","started_at":"2019-06-29T07:30:00.000+09:00","ended_at":"2019-07-01T23:59:59.000+09:00","limit_number":null,"address":"大阪府大阪市西成区千本南1-18-10","place":"大阪","lat":34.6298,"lon":135.491,"state":"active","id":null},{"event_id":"707277","title":"【参加無料・ビッグデータ、AI担当者必見！】 データ流通への参入障壁を下げる『サービス』のカタチを考えるWS Blooming of The Datatrading 5th","url":"http://every-sense190621.peatix.com","shortener_url":null,"started_at":"2019-06-21T05:00:00.000+09:00","ended_at":"2019-06-23T23:59:59.000+09:00","limit_number":null,"address":"港区北青山2丁目8−44","place":"TEPIA 先端技術館","lat":35.673,"lon":139.717,"state":"active","id":null},{"event_id":"715006","title":"紗ら+【本日のマスター】ドローンバード古橋大地の「地図バー〜ドローンナイト」","url":"http://sarasara20190628.peatix.com","shortener_url":null,"started_at":"2019-06-28T10:00:00.000+09:00","ended_at":"2019-06-30T23:59:59.000+09:00","limit_number":null,"address":"調布市深大寺元町1丁目11","place":"紗ら＋（さらさら）","lat":35.6625,"lon":139.548,"state":"active","id":null},{"event_id":"709441","title":"伝える人になろう講座 ーーシリア難民の子どもたちを知る夜　故郷とは何かを考える","url":"http://201906tsutaeruhito12.peatix.com","shortener_url":null,"started_at":"2019-06-14T10:30:00.000+09:00","ended_at":"2019-06-16T23:59:59.000+09:00","limit_number":null,"address":"渋谷区恵比寿西1丁目17−2","place":"amu （あむ）","lat":35.6483,"lon":139.707,"state":"active","id":null},{"event_id":"697370","title":"【ノンプログラマー向け】UXに役立つ！2時間で実働プロトタイプをつくってみよう！北欧発ツールNoodl使用（最強文房具のお土産アリ）","url":"http://noodl-hands-on190625.peatix.com","shortener_url":"https://bit.ly/2Flh7Yy","started_at":"2019-06-25T10:30:00.000+09:00","ended_at":"2019-06-27T23:59:59.000+09:00","limit_number":null,"address":"東京都渋谷区渋谷2-21-1","place":"渋谷ヒカリエ8階 8/（ハチ）Creative Lounge MOV","lat":35.6591,"lon":139.704,"state":"active","id":null},{"event_id":"694496","title":"Thursday Gathering #60 (2019/6/20)","url":"http://thursdaygathering-20190620.peatix.com","shortener_url":null,"started_at":"2019-06-20T07:00:00.000+09:00","ended_at":"2019-06-22T23:59:59.000+09:00","limit_number":null,"address":"港区虎ノ門1丁目23−3 虎ノ門ヒルズ森タワー2階","place":"虎ノ門ヒルズカフェ","lat":35.667,"lon":139.749,"state":"active","id":null},{"event_id":"703948","title":"IPSMART \"CREATE\" 2019 - Startup Festival","url":"http://ipsmart2019.peatix.com","shortener_url":null,"started_at":"2019-06-26T01:00:00.000+09:00","ended_at":"2019-06-28T23:59:59.000+09:00","limit_number":null,"address":"Lot 3, 1, Lebuhraya Sultan Iskandar, Lebuh Medini Utara, Medini, Nusajaya","place":"CIMB Leadership Academy","lat":1.42639,"lon":103.634,"state":"active","id":null},{"event_id":"715113","title":"VR スタートアップ・トレンド","url":"http://vrtrends.peatix.com","shortener_url":null,"started_at":"2019-06-20T10:00:00.000+09:00","ended_at":"2019-06-22T23:59:59.000+09:00","limit_number":null,"address":"港区南青山2丁目26−37","place":"株式会社ビジネスバンクグループ","lat":35.67,"lon":139.717,"state":"active","id":null},{"event_id":"135160","title":"sisisinハウス合宿 6/15（土）","url":"https://sisisin.connpass.com/event/135160/","shortener_url":null,"started_at":"2019-06-15T01:00:00.000+09:00","ended_at":"2019-06-15T09:00:00.000+09:00","limit_number":6,"address":"twitterなどで聞いてください","place":"sisisinハウス","lat":null,"lon":null,"state":"active","id":null},{"event_id":"134864","title":"ONE JAPANハッカソン 地域課題【事前】ワークショップ","url":"https://onejapanhackathon.connpass.com/event/134864/","shortener_url":"https://bit.ly/2WCWDVO","started_at":"2019-06-29T04:00:00.000+09:00","ended_at":"2019-06-29T08:00:00.000+09:00","limit_number":60,"address":"神奈川県横浜市西区みなとみらい2-3-3クイーンズタワーB棟9階","place":"富士通エフサス みなとみらい Innovation \u0026 Future Center ","lat":35.4565,"lon":139.634,"state":"active","id":null},{"event_id":"718315","title":"世界に挑戦する全ての人へ　グローバル企業が集結　AngelHack Tokyo Hackathon開催！！","url":"http://ahtokyo2019.peatix.com","shortener_url":"https://bit.ly/2Wx4hfL","started_at":"2019-06-29T00:00:00.000+09:00","ended_at":"2019-07-01T23:59:59.000+09:00","limit_number":null,"address":"東京都中央区銀座1-8−19 キラリトギンザ11F","place":"バイナリスター ","lat":35.6743,"lon":139.769,"state":"active","id":null},{"event_id":"711862","title":"suki JAM 004 -love- 6/26（水）","url":"http://sukijam004.peatix.com","shortener_url":null,"started_at":"2019-06-26T11:00:00.000+09:00","ended_at":"2019-06-28T23:59:59.000+09:00","limit_number":null,"address":"港区北青山2丁目12−35 タートルストーン青山ビルBF1","place":"PR BAR 青山","lat":35.6702,"lon":139.714,"state":"active","id":null},{"event_id":"711854","title":"suki JAM 003 -summer- 6/20（木）","url":"http://sukijam003.peatix.com","shortener_url":null,"started_at":"2019-06-20T11:00:00.000+09:00","ended_at":"2019-06-22T23:59:59.000+09:00","limit_number":null,"address":"港区北青山2丁目12−35 タートルストーン青山ビルBF1","place":"PR BAR 青山","lat":0.0,"lon":0.0,"state":"active","id":null},{"event_id":"712146","title":"ウエアラブルでDataを集める・使う・稼ぐ〜第2回Healthcare A.I.deathon","url":"http://healthcareaideathonjun2019.peatix.com","shortener_url":null,"started_at":"2019-06-24T09:15:00.000+09:00","ended_at":"2019-06-26T23:59:59.000+09:00","limit_number":null,"address":"東京都港区海岸1丁目","place":"浜松町駅周辺（お申込みの方へご連絡いたします）","lat":0.0,"lon":0.0,"state":"active","id":null},{"event_id":"714156","title":"【理系人事勉強会vol.6】理系新卒採用セミナー〜理系新卒市場動向と成功事例に学ぶ〜","url":"http://peatix.com/event/714156","shortener_url":null,"started_at":"2019-06-20T10:00:00.000+09:00","ended_at":"2019-06-22T23:59:59.000+09:00","limit_number":null,"address":"中央区1 日本橋大伝馬町1丁目7 日本橋ノースプレイス3F","place":"株式会社POL","lat":35.6893,"lon":139.778,"state":"active","id":null},{"event_id":"688196","title":"6/17（月）『街と暮らしの課題を解決する仕事』ほしい未来をつくる仕事の説明会","url":"http://greenzkyujin20190617.peatix.com","shortener_url":null,"started_at":"2019-06-17T10:30:00.000+09:00","ended_at":"2019-06-19T23:59:59.000+09:00","limit_number":null,"address":"東京都渋谷区渋谷3-26-16 第五叶ビル 6F","place":"co-ba library","lat":35.6542,"lon":139.706,"state":"active","id":null},{"event_id":"93205","title":"履修証明プログラム「AIITシニアスタートアッププログラム」説明会（6/25開催）","url":"https://aiit.doorkeeper.jp/events/93205","shortener_url":null,"started_at":"2019-06-25T10:00:00.000+09:00","ended_at":"2019-06-25T11:00:00.000+09:00","limit_number":30,"address":"品川区東大井1‐10‐40","place":"産業技術大学院大学 東棟2階269","lat":null,"lon":null,"state":"active","id":null},{"event_id":"711359","title":"広域秋葉原アイディアソンVol.3「千代田区都市計画マスタープランをハックする」","url":"http://akibaideathon3.peatix.com","shortener_url":"https://bit.ly/2IMoYzv","started_at":"2019-06-28T09:30:00.000+09:00","ended_at":"2019-06-30T23:59:59.000+09:00","limit_number":null,"address":"千代田区外神田6丁目11−14","place":"アーツ千代田３３３１","lat":35.7042,"lon":139.771,"state":"active","id":null},{"event_id":"719959","title":"【朝日新聞×学生団体ACROSS×未来技術】SDGsが学べるボードゲームを用いたワークショップ","url":"http://peatix.com/event/719959","shortener_url":null,"started_at":"2019-06-15T05:00:00.000+09:00","ended_at":"2019-06-17T23:59:59.000+09:00","limit_number":null,"address":"中央区築地5丁目3−2","place":"朝日新聞 東京本社","lat":35.6643,"lon":139.767,"state":"active","id":null},{"event_id":"720052","title":"【SNSにも使える】AfterEffectsでモーショングラフィックス動画をつくろう！","url":"http://peatix.com/event/720052","shortener_url":null,"started_at":"2019-06-19T10:00:00.000+09:00","ended_at":"2019-06-21T23:59:59.000+09:00","limit_number":null,"address":"東京都台東区台東1-29-4","place":"ブルックリン会議室","lat":0.0,"lon":0.0,"state":"active","id":null},{"event_id":"709221","title":"不動産オーナー・不動産事業者向け「民泊新法施行から1年、一棟系の民泊事業成功の秘訣を語る」","url":"http://peatix.com/event/709221","shortener_url":null,"started_at":"2019-06-25T08:00:00.000+09:00","ended_at":"2019-06-27T23:59:59.000+09:00","limit_number":null,"address":"渋谷区神泉町10−3","place":"TurnTable Hostel（ターンテーブル ホステル）","lat":35.6554,"lon":139.693,"state":"active","id":null},{"event_id":"715888","title":"【UNDPのイベントで大好評！】SDGsが学べるボードゲームを用いたワークショップ　～SDGsの考え方から日々の課題のヒントを得よう～","url":"http://peatix.com/event/715888","shortener_url":null,"started_at":"2019-06-20T10:30:00.000+09:00","ended_at":"2019-06-22T23:59:59.000+09:00","limit_number":null,"address":"新宿区西新宿7丁目5−25 プライムスクエアビル6F","place":"株式会社セラク 本社","lat":35.6975,"lon":139.699,"state":"active","id":null},{"event_id":"135201","title":"スクラム道関西 オープン・ジャム (テーマ:デイリースクラム)","url":"https://scrumdo-kansai.connpass.com/event/135201/","shortener_url":null,"started_at":"2019-06-27T10:30:00.000+09:00","ended_at":"2019-06-27T12:30:00.000+09:00","limit_number":20,"address":"大阪市淀川区西中島5丁目14-10 (新大阪トヨタビル4階)","place":"株式会社リアズ","lat":34.7312,"lon":135.499,"state":"active","id":null},{"event_id":"698525","title":"ウイニングイレブン2019（スマホ）対戦会 NTTドコモPresents","url":"http://tokushima2.peatix.com","shortener_url":null,"started_at":"2019-06-29T07:00:00.000+09:00","ended_at":"2019-07-01T23:59:59.000+09:00","limit_number":null,"address":"徳島市万代町5丁目71−4","place":"NORTHSHORE 徳島","lat":34.0641,"lon":134.566,"state":"active","id":null},{"event_id":"93332","title":"「AIITシニアスタートアッププログラム」講演会（6月22日開催）","url":"https://aiit.doorkeeper.jp/events/93332","shortener_url":null,"started_at":"2019-06-22T04:00:00.000+09:00","ended_at":"2019-06-22T06:45:00.000+09:00","limit_number":100,"address":"東京都千代田区丸の内2-1-1明治安田生命ビルTOKYO創業ステーション1F","place":"Startup Hub Tokyo（ｽﾀｰﾄｱｯﾌﾟﾊﾌﾞﾄｳｷｮｳ）","lat":null,"lon":null,"state":"active","id":null},{"event_id":"722252","title":"滝の上の家庭菜園と季節のジャム ｜南伊豆くらし図鑑","url":"http://peatix.com/event/722252","shortener_url":null,"started_at":"2019-06-22T04:00:00.000+09:00","ended_at":"2019-06-24T23:59:59.000+09:00","limit_number":null,"address":"静岡県賀茂郡南伊豆町伊浜","place":"静岡県賀茂郡南伊豆町","lat":0.0,"lon":0.0,"state":"active","id":null},{"event_id":"704257","title":"6月の瓶詰部  梅しごと@まめくらし研究所","url":"http://binumeshigotomamekurashi.peatix.com","shortener_url":null,"started_at":"2019-06-29T02:30:00.000+09:00","ended_at":"2019-07-01T23:59:59.000+09:00","limit_number":null,"address":"東京都杉並区高円寺4-2-24","place":"まめくらし研究所","lat":0.0,"lon":0.0,"state":"active","id":null},{"event_id":"723702","title":"Tech Talk with In-house Counsel (Limited Public Tix)","url":"http://techtalk2.peatix.com","shortener_url":null,"started_at":"2019-06-26T10:30:00.000+09:00","ended_at":"2019-06-28T23:59:59.000+09:00","limit_number":null,"address":"7-2, Jalan 22A/70A, Wisma CKL,, Desa Sri Hartamas","place":"Drum Asia Jamming Studio","lat":3.16301,"lon":101.652,"state":"active","id":null},{"event_id":"106857","title":"「AIITシニアスタートアッププログラム」講演会","url":"https://atnd.org/events/106857","shortener_url":null,"started_at":"2019-06-22T04:00:00.000+09:00","ended_at":"2019-06-22T07:00:00.000+09:00","limit_number":null,"address":"千代田区丸の内2-1-1 明治安田生命ビルTOKYO創業ステーション1F","place":"Startup Hub Tokyo（ｽﾀｰﾄｱｯﾌﾟﾊﾌﾞﾄｳｷｮｳ）","lat":35.6795,"lon":139.762,"state":"closed","id":null},{"event_id":"725318","title":"【6/26】IoTモノづくり研修 　第9回モノづくりブートキャンプの説明会","url":"http://peatix.com/event/725318","shortener_url":null,"started_at":"2019-06-26T00:00:00.000+09:00","ended_at":"2019-06-28T23:59:59.000+09:00","limit_number":null,"address":"奈良県天理市櫟本町2613番地の1","place":"オンラインミーティングにて接続します。","lat":0.0,"lon":0.0,"state":"active","id":null},{"event_id":"725329","title":"【6/28】IoTモノづくり研修 　第9回モノづくりブートキャンプの説明会","url":"http://peatix.com/event/725329","shortener_url":null,"started_at":"2019-06-28T00:00:00.000+09:00","ended_at":"2019-06-30T23:59:59.000+09:00","limit_number":null,"address":"奈良県天理市櫟本町2613番地の1","place":"オンラインミーティングにて接続します。","lat":0.0,"lon":0.0,"state":"active","id":null},{"event_id":"725324","title":"【6/27】IoTモノづくり研修 　第9回モノづくりブートキャンプの説明会","url":"http://peatix.com/event/725324","shortener_url":null,"started_at":"2019-06-27T00:00:00.000+09:00","ended_at":"2019-06-29T23:59:59.000+09:00","limit_number":null,"address":"奈良県天理市櫟本町2613番地の1","place":"オンラインミーティングにて接続します。","lat":0.0,"lon":0.0,"state":"active","id":null},{"event_id":"723684","title":"【最終説明会】自分らしいライフとキャリアを考える、1週間のデンマーク旅　説明会【Web参加可】","url":"http://peatix.com/event/723684","shortener_url":null,"started_at":"2019-06-23T02:30:00.000+09:00","ended_at":"2019-06-25T23:59:59.000+09:00","limit_number":null,"address":"渋谷区千駄ケ谷5丁目33−8 サウスゲート新宿ビル","place":"H.I.S. 新宿本社営業所","lat":35.6875,"lon":139.703,"state":"active","id":null},{"event_id":"720460","title":"【最終説明会】自分らしいライフとキャリアを考える、1週間のデンマーク旅　説明会【Web参加可】","url":"http://peatix.com/event/720460","shortener_url":null,"started_at":"2019-06-23T02:30:00.000+09:00","ended_at":"2019-06-25T23:59:59.000+09:00","limit_number":null,"address":"渋谷区千駄ケ谷5丁目33−8 サウスゲート新宿ビル","place":"H.I.S. 新宿本社営業所","lat":0.0,"lon":0.0,"state":"active","id":null},{"event_id":"719652","title":"Fw:東北 Fan Meeting [vol.4] 福島からはじまる「働き方改革」- コトづくりを通して若者が集まる農業へ","url":"http://peatix.com/event/719652","shortener_url":null,"started_at":"2019-06-27T10:00:00.000+09:00","ended_at":"2019-06-29T23:59:59.000+09:00","limit_number":null,"address":"東京都千代田区外神田6丁目11-14","place":"アーツ千代田3331","lat":35.7043,"lon":139.771,"state":"active","id":null},{"event_id":"136456","title":"bokuweb.nes #3","url":"https://bokuweb-nes.connpass.com/event/136456/","shortener_url":null,"started_at":"2019-06-21T05:00:00.000+09:00","ended_at":"2019-06-23T03:30:00.000+09:00","limit_number":null,"address":"群馬県嬬恋村","place":"群馬県嬬恋村","lat":36.5169,"lon":138.53,"state":"active","id":null},{"event_id":"136520","title":"sisisinハウス合宿 6/23（日）","url":"https://sisisin.connpass.com/event/136520/","shortener_url":null,"started_at":"2019-06-23T10:00:00.000+09:00","ended_at":"2019-06-23T18:00:00.000+09:00","limit_number":6,"address":"twitterなどで聞いてください","place":"sisisinハウス","lat":null,"lon":null,"state":"active","id":null},{"event_id":"724021","title":"NTT東日本×レオンテクノロジー〜大手とベンチャー企業それぞれの専門スキルを持った新卒エンジニア採用戦略〜","url":"http://peatix.com/event/724021","shortener_url":null,"started_at":"2019-06-27T10:00:00.000+09:00","ended_at":"2019-06-29T23:59:59.000+09:00","limit_number":null,"address":"東京都中央区日本橋本町3丁目3−3","place":"Clipニホンバシ","lat":35.6886,"lon":139.774,"state":"active","id":null},{"event_id":"710469","title":"これからのキャリアを考えたい女性向けミートアップ！スタートアップでの働き方についてお話しませんか？","url":"http://peatix.com/event/710469","shortener_url":null,"started_at":"2019-06-26T10:30:00.000+09:00","ended_at":"2019-06-28T23:59:59.000+09:00","limit_number":null,"address":"東京都中央区日本橋小伝馬町5-15 大倉ビル5階","place":"株式会社POL サテライトオフィス","lat":35.6911,"lon":139.778,"state":"active","id":null},{"event_id":"136706","title":"[秋葉原] Unityもくもく勉強会×1週間ゲームジャム準備会","url":"https://weeyble-game.connpass.com/event/136706/","shortener_url":"https://bit.ly/2J84zoF","started_at":"2019-06-30T09:30:00.000+09:00","ended_at":"2019-06-30T14:00:00.000+09:00","limit_number":11,"address":"東京都千代田区神田須田町２丁目１９−２３ (野村第３ビル ４階)","place":"コワーキングスペース秋葉原Weeyble","lat":35.6966,"lon":139.772,"state":"active","id":null},{"event_id":"107055","title":"indonalo Agen Ceme Terpercaya","url":"https://atnd.org/events/107055","shortener_url":null,"started_at":"2019-06-21T16:00:00.000+09:00","ended_at":"2019-06-23T23:59:59.000+09:00","limit_number":null,"address":"","place":"","lat":null,"lon":null,"state":"closed","id":null},{"event_id":"700460","title":"ナゴヤ100人カイギ vol.1　ついに名古屋でスタート!!","url":"http://peatix.com/event/700460","shortener_url":null,"started_at":"2019-06-26T09:00:00.000+09:00","ended_at":"2019-06-28T23:59:59.000+09:00","limit_number":null,"address":"名古屋市中村区名駅3-28-12","place":"Open Innovation Biotope \"Cue\"　大名古屋ビルヂング14階　㈱オカムラ","lat":35.172,"lon":136.885,"state":"active","id":null},{"event_id":"137229","title":"sisisinハウス合宿 6/30（日）","url":"https://sisisin.connpass.com/event/137229/","shortener_url":null,"started_at":"2019-06-30T01:00:00.000+09:00","ended_at":"2019-06-30T09:00:00.000+09:00","limit_number":6,"address":"twitterなどで聞いてください","place":"sisisinハウス","lat":null,"lon":null,"state":"active","id":null},{"event_id":"732216","title":"Whims Deep Blue Tournament #5","url":"http://whims-deep-blue-5.peatix.com","shortener_url":null,"started_at":"2019-06-30T03:00:00.000+09:00","ended_at":"2019-07-02T23:59:59.000+09:00","limit_number":null,"address":"大阪府大阪市西成区千本南1-18-10","place":"大阪","lat":34.6298,"lon":135.491,"state":"active","id":null},{"event_id":"663749","title":"【体験型心臓エコーセミナー】実技の不安を解消しませんか？","url":"http://peatix.com/event/663749","shortener_url":null,"started_at":"2019-06-23T00:00:00.000+09:00","ended_at":"2019-06-25T23:59:59.000+09:00","limit_number":null,"address":"台東区台東4丁目8−7 ヒューリック仲御徒町ビル8階","place":"メドフィット【MEDFit】","lat":35.7061,"lon":139.777,"state":"active","id":null},{"event_id":"721245","title":"第二弾【 参加費無料 】6～7月土曜日開催《 めぐらん会 2019初夏 》さくらんぼ狩り","url":"http://megrankai2019-earlysummer.peatix.com","shortener_url":null,"started_at":"2019-06-29T05:00:00.000+09:00","ended_at":"2019-07-01T23:59:59.000+09:00","limit_number":null,"address":"山形村2030番地1","place":"山形村役場","lat":36.1681,"lon":137.879,"state":"active","id":null},{"event_id":"1293902270199988224","title":"Future of Education Hackathon in collaboration with digital.engagiert","url":"https://n3xtcoder.org/events/cd5dn0peq_future-of-education-hackathon-september-17th-18th-2020","shortener_url":null,"started_at":"2019-06-26T07:00:00.000+09:00","ended_at":"2019-06-26T14:59:59.000+09:00","limit_number":null,"address":null,"place":"online","lat":null,"lon":null,"state":"active","id":null},{"event_id":"1296826331100057601","title":"Hackathon - Buscar con Google","url":"https://www.google.com/search","shortener_url":null,"started_at":"2019-06-20T00:00:00.000+09:00","ended_at":"2019-06-20T14:59:59.000+09:00","limit_number":null,"address":null,"place":"online","lat":null,"lon":null,"state":"active","id":null},{"event_id":"1324062865683214336","title":"HERE Map Data Hackathon - Who want team up with... | GeoNet, The Esri Community | GIS and Geospatial Professional Community","url":"https://community.esri.com/thread/262383-here-map-data-hackathon-who-want-team-up-with-me","shortener_url":null,"started_at":"2019-06-26T01:32:00.000+09:00","ended_at":"2020-01-07T01:32:00.000+09:00","limit_number":null,"address":null,"place":"online","lat":null,"lon":null,"state":"active","id":null},{"event_id":"1334557627339169794","title":"r/bigdata - Behind the Scenes at the Scylla Developer Conference and Hackathon","url":"https://www.reddit.com/r/bigdata/comments/k62ar5/behind_the_scenes_at_the_scylla_developer/","shortener_url":null,"started_at":"2019-06-27T00:00:00.000+09:00","ended_at":"2020-12-03T00:00:00.000+09:00","limit_number":null,"address":null,"place":"online","lat":null,"lon":null,"state":"active","id":null},{"event_id":"1336245451595673602","title":"Social Distancing LARP Jam 2: The Second One","url":"https://itch.io/jam/social-distancing-larp-jam-2-the-second-one","shortener_url":"https://bit.ly/3n1kF5Y","started_at":"2019-06-14T05:00:00.000+09:00","ended_at":"2021-02-28T08:48:00.000+09:00","limit_number":null,"address":null,"place":"online","lat":null,"lon":null,"state":"active","id":null},{"event_id":"63843785481","title":"UNSW Founders Information Session","url":"https://www.eventbrite.com.au/e/unsw-founders-information-session-registration-63843785481","shortener_url":null,"started_at":"2019-06-26T03:30:00.000+09:00","ended_at":"2021-12-08T01:40:00.000+09:00","limit_number":null,"address":null,"place":"online","lat":null,"lon":null,"state":"active","id":null},{"event_id":"63532655884","title":"Brooklyn Virtual Street Art and Graffiti Experience","url":"https://www.eventbrite.com/e/brooklyn-virtual-street-art-and-graffiti-experience-tickets-63532655884","shortener_url":null,"started_at":"2019-06-22T15:30:00.000+09:00","ended_at":"2022-01-30T19:00:00.000+09:00","limit_number":null,"address":null,"place":"online","lat":null,"lon":null,"state":"active","id":null},{"event_id":"63532655884","title":"Brooklyn Virtual Street Art Experience","url":"https://www.eventbrite.com/e/brooklyn-virtual-street-art-experience-tickets-63532655884","shortener_url":null,"started_at":"2019-06-22T15:30:00.000+09:00","ended_at":"2022-04-10T20:00:00.000+09:00","limit_number":null,"address":null,"place":"online","lat":null,"lon":null,"state":"active","id":null},{"event_id":"64000051878","title":"Massage Therapy Program Virtual Information Session","url":"https://www.eventbrite.com/e/massage-therapy-program-virtual-information-session-tickets-64000051878","shortener_url":null,"started_at":"2019-06-25T17:00:00.000+09:00","ended_at":"2022-06-15T18:00:00.000+09:00","limit_number":null,"address":null,"place":"online","lat":null,"lon":null,"state":"active","id":null},{"event_id":"62839672151","title":"How to Identify Your Career Potential - Virtual Class","url":"https://www.eventbrite.co.uk/e/how-to-identify-your-career-potential-virtual-class-tickets-62839672151","shortener_url":null,"started_at":"2019-06-13T17:40:00.000+09:00","ended_at":"2022-02-15T21:00:00.000+09:00","limit_number":null,"address":null,"place":"online","lat":null,"lon":null,"state":"active","id":null}]