[{"event_id":"602571","title":"第７回 さぶみっと！ヨクスル in 大阪【2019年7月18日(木)開催】","url":"http://peatix.com/event/602571","shortener_url":null,"started_at":"2019-07-18T19:00:00.000+09:00","ended_at":"2019-07-21T08:59:59.000+09:00","limit_number":null,"address":"会場未定","place":"会場未定","lat":0.0,"lon":0.0,"state":"active","id":null},{"event_id":"621421","title":"BORN TO YOG teacher training -Advance- 2019-2020","url":"http://btyttadvanced2019-2020.peatix.com","shortener_url":null,"started_at":"2019-07-01T06:00:00.000+09:00","ended_at":"2019-07-03T08:59:59.000+09:00","limit_number":null,"address":"千葉県市原市五井中央西1丁目1番地25","place":"サンプラザ市原その他","lat":0.0,"lon":0.0,"state":"active","id":null},{"event_id":"622716","title":"第４回　さぶみっと！ヨクスル　in　大和高田","url":"http://peatix.com/event/622716","shortener_url":null,"started_at":"2019-07-27T14:00:00.000+09:00","ended_at":"2019-07-30T08:59:59.000+09:00","limit_number":null,"address":"大和高田市片塩町12−5","place":"大和高田市市民交流センター「コスモスプラザ」","lat":34.509,"lon":135.743,"state":"active","id":null},{"event_id":"619991","title":"【教員対象】入場無料　〈第1回〉統計／データサイエンス指導法研究セミナー　＠代々木ゼミナール本部校 代ゼミタワー","url":"http://yozemi-toukei01.peatix.com","shortener_url":null,"started_at":"2019-07-14T13:00:00.000+09:00","ended_at":"2019-07-17T08:59:59.000+09:00","limit_number":null,"address":"渋谷区代々木2丁目25−7","place":"代々木ゼミナール本部校 代ゼミタワー","lat":35.6856,"lon":139.699,"state":"active","id":null},{"event_id":"630383","title":"【オンライン/東京会場同時開催】ウェブ解析士認定講座","url":"http://20190703awac.peatix.com","shortener_url":null,"started_at":"2019-07-03T13:00:00.000+09:00","ended_at":"2019-07-06T08:59:59.000+09:00","limit_number":null,"address":"東京都中央区八重洲1-6-14","place":"KIZUNA会議室　八重洲２F（ISO八重洲ビル　201）","lat":35.6813,"lon":139.771,"state":"active","id":null},{"event_id":"630380","title":"【オンライン/東京会場同時開催】ウェブ解析士認定講座","url":"http://20190706awac.peatix.com","shortener_url":null,"started_at":"2019-07-06T13:00:00.000+09:00","ended_at":"2019-07-09T08:59:59.000+09:00","limit_number":null,"address":"東京都中央区八重洲1-6-14","place":"KIZUNA会議室　八重洲２F（ISO八重洲ビル　201）","lat":35.6813,"lon":139.771,"state":"active","id":null},{"event_id":"631283","title":"【オンライン/東京会場同時開催】上級Google アナリティクス講座〜GAをマスターするとともに、レポートを自動化し業務効率化〜","url":"http://20190731swacga.peatix.com","shortener_url":null,"started_at":"2019-07-31T13:00:00.000+09:00","ended_at":"2019-08-03T08:59:59.000+09:00","limit_number":null,"address":"東京都中央区八重洲1-6-14","place":"KIZUNA会議室　八重洲２F（ISO八重洲ビル　201）","lat":35.6813,"lon":139.771,"state":"active","id":null},{"event_id":"630387","title":"【オンライン/東京会場同時開催】上級ウェブ解析士認定講座","url":"http://20190710swac.peatix.com","shortener_url":null,"started_at":"2019-07-10T13:00:00.000+09:00","ended_at":"2019-07-13T08:59:59.000+09:00","limit_number":null,"address":"東京都中央区八重洲1-6-14","place":"KIZUNA会議室　八重洲２F（ISO八重洲ビル　201）","lat":35.6813,"lon":139.771,"state":"active","id":null},{"event_id":"630389","title":"【オンライン/東京会場同時開催】Google アナリティクス講座〜GAIQ対策付き〜","url":"http://20190713ga.peatix.com","shortener_url":null,"started_at":"2019-07-13T13:00:00.000+09:00","ended_at":"2019-07-16T08:59:59.000+09:00","limit_number":null,"address":"東京都中央区八重洲1-6-14","place":"KIZUNA会議室　八重洲2F（ISO八重洲ビル　201）","lat":35.6813,"lon":139.771,"state":"active","id":null},{"event_id":"631274","title":"【オンライン/東京会場同時開催】上級Google アナリティクス講座〜GAをマスターするとともに、レポートを自動化し業務効率化〜","url":"http://20190727swacga.peatix.com","shortener_url":null,"started_at":"2019-07-27T13:00:00.000+09:00","ended_at":"2019-07-30T08:59:59.000+09:00","limit_number":null,"address":"東京都中央区八重洲1-6-14","place":"KIZUNA会議室　八重洲２F（ISO八重洲ビル　201）","lat":35.6813,"lon":139.771,"state":"active","id":null},{"event_id":"631267","title":"【オンライン/新宿会場同時開催】Google アナリティクス講座〜GAIQ対策付き〜","url":"http://201907017ga.peatix.com","shortener_url":null,"started_at":"2019-07-17T10:00:00.000+09:00","ended_at":"2019-07-20T08:59:59.000+09:00","limit_number":null,"address":"東京都新宿区西新宿7-1-7","place":"新宿ダイカンプラザＡ館６１０号会議室","lat":35.6945,"lon":139.699,"state":"active","id":null},{"event_id":"640833","title":"第７回 さぶみっと！ヨクスル in 大阪【2019年7月25日(木)開催】","url":"http://peatix.com/event/640833","shortener_url":null,"started_at":"2019-07-25T19:00:00.000+09:00","ended_at":"2019-07-28T08:59:59.000+09:00","limit_number":null,"address":"大阪市中央区備後町3丁目6−2","place":"中央会計セミナールーム|本町駅徒歩1分の貸会議室","lat":34.6849,"lon":135.501,"state":"active","id":null},{"event_id":"638616","title":"【edoARTworkshop】青森伝統の技と心を知る 津軽こぎん刺し体験～こぎん刺しで作るカードケース＜ご経験者様限定クラス＞","url":"http://edoart222.peatix.com","shortener_url":null,"started_at":"2019-07-13T10:30:00.000+09:00","ended_at":"2019-07-16T08:59:59.000+09:00","limit_number":null,"address":"〒108-0014 東京都港区芝4丁目7ー6","place":"芝ビルディング704","lat":35.649,"lon":139.752,"state":"active","id":null},{"event_id":"637581","title":"7月13日(土)19:00～★ 六本木 土曜日は新しい飲み友作りにGaitomo国際交流パーティー","url":"http://peatix.com/event/637581","shortener_url":null,"started_at":"2019-07-13T19:00:00.000+09:00","ended_at":"2019-07-16T08:59:59.000+09:00","limit_number":null,"address":"港区六本木3丁目10−5 1階 マリナービル","place":"ＮＥＷ ＰＬＡＮＥＴ","lat":35.6632,"lon":139.733,"state":"active","id":null},{"event_id":"637593","title":"7月14日(日)18:00～★ 青山【シングル限定】優雅なセレブラウンジでGaitomo国際交流パーティー","url":"http://peatix.com/event/637593","shortener_url":null,"started_at":"2019-07-14T18:00:00.000+09:00","ended_at":"2019-07-17T08:59:59.000+09:00","limit_number":null,"address":"東京都港区北青山3-2-5","place":"青山 Aoyama Lounge ","lat":35.6689,"lon":139.715,"state":"active","id":null},{"event_id":"127693","title":"石巻ハッカソンin生駒","url":"https://connpass.com/event/127693/","shortener_url":"https://bit.ly/2XAFIzj","started_at":"2019-07-06T10:00:00.000+09:00","ended_at":"2019-07-07T19:00:00.000+09:00","limit_number":40,"address":"奈良県生駒市元町1丁目6番12号","place":"生駒コミュニティーセンター","lat":34.6922,"lon":135.699,"state":"active","id":null},{"event_id":"644364","title":"【東京　7月6日（土）13:00】響きあうアジア2019『プラータナー：憑依のポートレート』  / 【Tokyo July.6th,2019(Sat)13:00】ASIA IN RESONANCE 2019 ”Pratthana - A Portrait of Possession”","url":"http://pratthana76.peatix.com","shortener_url":null,"started_at":"2019-07-06T13:00:00.000+09:00","ended_at":"2019-07-09T08:59:59.000+09:00","limit_number":null,"address":"東京都豊島区西池袋1-8-1","place":"東京芸術劇場 シアターイースト","lat":35.7297,"lon":139.708,"state":"active","id":null},{"event_id":"644270","title":"【東京　7月4日（木）18:00】響きあうアジア2019『プラータナー：憑依のポートレート』  / 【Tokyo July.4th,2019(Thu)18:00】ASIA IN RESONANCE 2019 ”Pratthana - A Portrait of Possession”","url":"http://pratthana74.peatix.com","shortener_url":null,"started_at":"2019-07-04T18:00:00.000+09:00","ended_at":"2019-07-07T08:59:59.000+09:00","limit_number":null,"address":"東京都豊島区西池袋1-8-1","place":"東京芸術劇場 シアターイースト","lat":35.7297,"lon":139.708,"state":"active","id":null},{"event_id":"644249","title":"【東京　7月1日（月）18:00】響きあうアジア2019『プラータナー：憑依のポートレート』  / 【Tokyo July.1st,2019(Mon)18:00】ASIA IN RESONANCE 2019 ”Pratthana - A Portrait of Possession”","url":"http://pratthana71.peatix.com","shortener_url":null,"started_at":"2019-07-01T18:00:00.000+09:00","ended_at":"2019-07-04T08:59:59.000+09:00","limit_number":null,"address":"東京都豊島区西池袋1-8-1","place":"東京芸術劇場 シアターイースト","lat":35.7297,"lon":139.708,"state":"active","id":null},{"event_id":"644263","title":"【東京　7月3日（水）13:00】響きあうアジア2019『プラータナー：憑依のポートレート』  / 【Tokyo July.3rd,2019(Wed)13:00】ASIA IN RESONANCE 2019 ”Pratthana - A Portrait of Possession”","url":"http://pratthana73.peatix.com","shortener_url":null,"started_at":"2019-07-03T13:00:00.000+09:00","ended_at":"2019-07-06T08:59:59.000+09:00","limit_number":null,"address":"東京都豊島区西池袋1-8-1","place":"東京芸術劇場 シアターイースト","lat":35.7297,"lon":139.708,"state":"active","id":null},{"event_id":"644352","title":"【東京　7月5日（金）18:00】響きあうアジア2019『プラータナー：憑依のポートレート』  / 【Tokyo July.5th,2019(Fri)18:00】ASIA IN RESONANCE 2019 ”Pratthana - A Portrait of Possession”","url":"http://pratthana75.peatix.com","shortener_url":null,"started_at":"2019-07-05T18:00:00.000+09:00","ended_at":"2019-07-08T08:59:59.000+09:00","limit_number":null,"address":"東京都豊島区西池袋1-8-1","place":"東京芸術劇場 シアターイースト","lat":35.7297,"lon":139.708,"state":"active","id":null},{"event_id":"644379","title":"【東京　7月7日（日）13:00】響きあうアジア2019『プラータナー：憑依のポートレート』  / 【Tokyo July.7th,2019(Sun)13:00】ASIA IN RESONANCE 2019 ”Pratthana - A Portrait of Possession”","url":"http://pratthana77.peatix.com","shortener_url":null,"started_at":"2019-07-07T13:00:00.000+09:00","ended_at":"2019-07-10T08:59:59.000+09:00","limit_number":null,"address":"東京都豊島区西池袋1-8-1","place":"東京芸術劇場 シアターイースト","lat":35.7297,"lon":139.708,"state":"active","id":null},{"event_id":"649737","title":"7/20(土)~21(日)festivo ホームページ作成（WordPress） Camp@大阪【学生20,000円、一般25,000円】～戦うスキルを身につける15時間！WordPress集中合宿！～","url":"http://peatix.com/event/649737","shortener_url":"https://bit.ly/2IzyDvD","started_at":"2019-07-20T10:30:00.000+09:00","ended_at":"2019-07-23T08:59:59.000+09:00","limit_number":null,"address":"大阪市中央区備後町3-6-2 大雅ビル3F","place":"中央会計セミナールーム","lat":34.6849,"lon":135.501,"state":"active","id":null},{"event_id":"649824","title":"7/27(土)~28(日)festivo ホームページ作成（WordPress） Camp@福岡【学生20,000円、一般25,000円】～戦うスキルを身につける15時間！WordPress集中合宿！～","url":"http://peatix.com/event/649824","shortener_url":"https://bit.ly/2IzyCrz","started_at":"2019-07-27T10:30:00.000+09:00","ended_at":"2019-07-30T08:59:59.000+09:00","limit_number":null,"address":"福岡県福岡市博多区博多駅東1-12-17","place":"スタートアップカフェ Bases福岡・博多店（ベイシズ）","lat":33.5909,"lon":130.423,"state":"active","id":null},{"event_id":"650545","title":"7/13(土)~14(日)festivo ホームページ作成（WordPress） Camp@広島【学生20,000円、一般25,000円】～戦うスキルを身につける15時間！WordPress集中合宿！～","url":"http://peatix.com/event/650545","shortener_url":"https://bit.ly/2XFEHWE","started_at":"2019-07-13T10:30:00.000+09:00","ended_at":"2019-07-16T08:59:59.000+09:00","limit_number":null,"address":"広島市中区広瀬北町3-11 和光広瀬ビル4F","place":"ソアラビジネスポート セミナールーム","lat":34.4033,"lon":132.448,"state":"active","id":null},{"event_id":"650324","title":"はじめてのプロセスワーク (Webオンラインセミナー）","url":"http://peatix.com/event/650324","shortener_url":null,"started_at":"2019-07-09T20:00:00.000+09:00","ended_at":"2019-07-12T08:59:59.000+09:00","limit_number":null,"address":"(主催者所在地)東京都品川区上大崎3-10-64","place":"zoom（オンライン）＊URLは予約者の方にお知らせします","lat":0.0,"lon":0.0,"state":"active","id":null},{"event_id":"651007","title":"7月20日（土）ソロビズ「起業の適性検査 plus」カフェVer.","url":"http://190720cafe.peatix.com","shortener_url":null,"started_at":"2019-07-20T09:00:00.000+09:00","ended_at":"2019-07-23T08:59:59.000+09:00","limit_number":null,"address":"横浜市中区海岸通1-1","place":"波止場会館　３Ｆ小会議室Ｃ（日本大通り駅 徒歩５分）","lat":35.4483,"lon":139.645,"state":"active","id":null},{"event_id":"654411","title":"クリール札幌合宿 supported by オリゴノール 【2019夏、藤澤舞選手の練習メニューを体験しよう】","url":"http://oligonolsummercamp2019.peatix.com","shortener_url":null,"started_at":"2019-07-13T13:00:00.000+09:00","ended_at":"2019-07-16T08:59:59.000+09:00","limit_number":null,"address":"北海道札幌市中央区南8条西5-420","place":"札幌エクセルホテル東急","lat":0.0,"lon":0.0,"state":"active","id":null},{"event_id":"651819","title":"MUSIC HACKDAY Tokyo 2019 ~テクノロジーで音楽表現をアップデートせよ！~","url":"http://musichackdaytokyo2019.peatix.com","shortener_url":"https://bit.ly/2VSrbBV","started_at":"2019-07-13T09:30:00.000+09:00","ended_at":"2019-07-16T08:59:59.000+09:00","limit_number":null,"address":"新宿区新宿4丁目1−6 JR新宿ミライナタワー23階","place":"LINE株式会社","lat":35.6887,"lon":139.702,"state":"active","id":null},{"event_id":"660328","title":"【7/27-7/28】真夏の通訳講習2019","url":"http://jaci-summer2019.peatix.com","shortener_url":null,"started_at":"2019-07-27T10:00:00.000+09:00","ended_at":"2019-07-30T08:59:59.000+09:00","limit_number":null,"address":"東京都千代田区神田神保町1-17 東京堂書店6階","place":"東京堂ホール","lat":0.0,"lon":0.0,"state":"active","id":null},{"event_id":"105815","title":"北海道大学プログラミング合宿 2019","url":"https://atnd.org/events/105815","shortener_url":"https://bit.ly/2VZMO36","started_at":"2019-07-14T13:00:00.000+09:00","ended_at":"2019-07-15T14:30:00.000+09:00","limit_number":35,"address":"札幌市北区北8条西5丁目2-3 札幌公務員受験学院ビル","place":"札幌カフェ レンタルスペース 5F","lat":43.0704,"lon":141.348,"state":"closed","id":null},{"event_id":"662172","title":"【7/20~21】動画がアツい！「YouTubeマネタイズ強化合宿」開催","url":"http://peatix.com/event/662172","shortener_url":null,"started_at":"2019-07-20T12:30:00.000+09:00","ended_at":"2019-07-23T08:59:59.000+09:00","limit_number":null,"address":"千葉県いすみ市深堀1712−1","place":"コワーキングコミュニティhinode","lat":35.2596,"lon":140.398,"state":"active","id":null},{"event_id":"91657","title":"7/20(土)~21(日)festivo はじめてのプログラミング Camp@東京【学生20,000円、一般25,000円】～戦うスキルを身につける15時間！プログラミング概要からPHP/SQL集中合宿！～","url":"https://festivo.doorkeeper.jp/events/91657","shortener_url":"https://bit.ly/2WaFBO5","started_at":"2019-07-20T10:00:00.000+09:00","ended_at":"2019-07-21T19:00:00.000+09:00","limit_number":10,"address":"東京都練馬区豊玉北3-15-17","place":"起業家シェアハウス x-garden セミナールーム","lat":null,"lon":null,"state":"active","id":null},{"event_id":"673755","title":"7/20(土)~21(日)festivo はじめてのプログラミング Camp@東京【学生20,000円、一般25,000円】～戦うスキルを身につける15時間！プログラミング概要からPHP/SQL集中合宿！～","url":"http://peatix.com/event/673755","shortener_url":"https://bit.ly/2W1bYhN","started_at":"2019-07-20T10:00:00.000+09:00","ended_at":"2019-07-23T08:59:59.000+09:00","limit_number":null,"address":"東京都練馬区豊玉北3-15-17","place":"起業家シェアハウス x-garden セミナールーム","lat":35.7329,"lon":139.661,"state":"active","id":null},{"event_id":"668479","title":"Lagu Walk: reimagine the music of Borneo by Orang Orang Drum Theatre","url":"http://orgorgatblab.peatix.com","shortener_url":null,"started_at":"2019-07-08T21:00:00.000+09:00","ended_at":"2019-07-11T08:59:59.000+09:00","limit_number":null,"address":"30a, Jalan Rubber, Kuching","place":"Borneo Laboratory - Creative Residency","lat":1.55139,"lon":110.332,"state":"active","id":null},{"event_id":"674373","title":"Lagu Walk: Reimagine the Music of Borneo by Orang Orang Drum Theatre II","url":"http://peatix.com/event/674373","shortener_url":null,"started_at":"2019-07-09T21:00:00.000+09:00","ended_at":"2019-07-12T08:59:59.000+09:00","limit_number":null,"address":"30a, Jalan Rubber, Kuching","place":"Borneo Laboratory - Creative Residency","lat":1.55139,"lon":110.332,"state":"active","id":null},{"event_id":"660982","title":"AI \u0026 Big data Challenge for Data Engineers (ABCDE) in Bangkok","url":"http://abcdebk.peatix.com","shortener_url":"https://bit.ly/2LOqTIB","started_at":"2019-07-06T11:00:00.000+09:00","ended_at":"2019-07-09T08:59:59.000+09:00","limit_number":null,"address":"1771, 1 Phatthanakan Road, Suan Luang","place":"Thai-Nichi Institute of Technology","lat":13.7379,"lon":100.628,"state":"active","id":null},{"event_id":"91787","title":"【初開催】Startup Weekend Tokyo 生き物 2.0 〜ゲノムで変える未来〜 @デジタルガレージ","url":"https://swtokyo.doorkeeper.jp/events/91787","shortener_url":"https://bit.ly/2LRjNmy","started_at":"2019-07-12T18:30:00.000+09:00","ended_at":"2019-07-14T21:00:00.000+09:00","limit_number":50,"address":"東京都渋谷区恵比寿南3-5-7 デジタルゲートビル 9F ※金曜日の20時以降と、土曜・日曜はビルの1Fドアが閉まっています。もしビルに到着して1Fが閉まっている場合は以下の電話番号にかけてください。開けに行きます。050-5215-5649","place":"株式会社デジタルガレージ 本社 9階 ","lat":null,"lon":null,"state":"active","id":null},{"event_id":"678766","title":"【ピアノ・ウィーク】高木里代子","url":"http://billboardcafe-riyokotakagi.peatix.com","shortener_url":null,"started_at":"2019-07-09T19:30:00.000+09:00","ended_at":"2019-07-12T08:59:59.000+09:00","limit_number":null,"address":"千代田区有楽町1丁目1 3F Midtown Hibiya","place":"Billboard cafe \u0026 dining","lat":35.6736,"lon":139.759,"state":"active","id":null},{"event_id":"683422","title":"“コミュニティビルダー”集中ゼミ 開講！ - 「コミュニティづくり」や「まちづくり」を体感できる 2Days  短期合宿 -","url":"http://peatix.com/event/683422","shortener_url":"https://bit.ly/2WfOuFN","started_at":"2019-07-06T11:00:00.000+09:00","ended_at":"2019-07-09T08:59:59.000+09:00","limit_number":null,"address":"横浜市中区日ノ出町2丁目166先","place":"タイニーズ 横浜日ノ出町 / Tinys Yokohama Hinodecho","lat":35.4433,"lon":139.627,"state":"active","id":null},{"event_id":"90928","title":"［増枠］Startup Weekend Nagoya 未来 @ HATCH","url":"https://swnagoya.doorkeeper.jp/events/90928","shortener_url":null,"started_at":"2019-07-26T18:00:00.000+09:00","ended_at":"2019-07-28T21:00:00.000+09:00","limit_number":115,"address":"愛知県 名古屋市東区東桜 1-13-3 NHK名古屋放送センタービル20階","place":"Collaboration Lounge HatCh (愛知県 名古屋市東区東桜 1-13-3 NHK名古屋放送センタービル20階)","lat":null,"lon":null,"state":"active","id":null},{"event_id":"91300","title":"［無料］良いアイデアの作り方（※SW名古屋プレイベント）","url":"https://swnagoya.doorkeeper.jp/events/91300","shortener_url":null,"started_at":"2019-07-07T13:30:00.000+09:00","ended_at":"2019-07-07T17:00:00.000+09:00","limit_number":50,"address":"愛知県名古屋市東区東桜1-13-3 NHK名古屋放送センタービル20階","place":"Collaboration Lounge HatCh (愛知県 名古屋市東区東桜 1-13-3 NHK名古屋放送センタービル20階)","lat":null,"lon":null,"state":"active","id":null},{"event_id":"676029","title":"【7/13~15】大阪で開催決定！初心者向け「ブログ合宿」","url":"http://blog-beginer20190713.peatix.com","shortener_url":null,"started_at":"2019-07-13T12:00:00.000+09:00","ended_at":"2019-07-16T08:59:59.000+09:00","limit_number":null,"address":"大阪府泉佐野市大木1534","place":"大阪府泉佐野市大木1534","lat":34.3519,"lon":135.369,"state":"active","id":null},{"event_id":"686777","title":"Tsumugi（つむぎ）｜手作り手ごねパン教室  ～ハイジの白パンとレモンカード作り～","url":"http://peatix.com/event/686777","shortener_url":null,"started_at":"2019-07-09T10:00:00.000+09:00","ended_at":"2019-07-12T08:59:59.000+09:00","limit_number":null,"address":"文京区関口1丁目29−6 1F","place":"我楽田工房｜Bono","lat":35.7107,"lon":139.725,"state":"active","id":null},{"event_id":"132723","title":"プリッカソン #8 (プリリズ/プリパラ/プリチャン)","url":"https://prickathon.connpass.com/event/132723/","shortener_url":"https://bit.ly/2YFNEQq","started_at":"2019-07-21T10:00:00.000+09:00","ended_at":"2019-07-21T20:00:00.000+09:00","limit_number":null,"address":"東京都千代田区平河町2-5-3 Nagatacho GRiD ","place":"Nagatacho GRiD Space0","lat":35.6798,"lon":139.74,"state":"active","id":null},{"event_id":"91784","title":"Startup Weekend Niigata Vol.12 in 新発田　テーマは「温故知新」！今回の会場は「お寺」！","url":"https://swniigata.doorkeeper.jp/events/91784","shortener_url":"https://bit.ly/2HD5Pk7","started_at":"2019-07-12T18:00:00.000+09:00","ended_at":"2019-07-14T21:00:00.000+09:00","limit_number":55,"address":"①新潟県新発田市大栄町2丁目7-22、②新潟県新発田市大栄町2丁目4−21、③新潟県新発田市諏訪町2丁目3−25","place":"①長徳寺（1日日）、②顕法寺（２日目）、③三光寺（３日目）","lat":null,"lon":null,"state":"active","id":null},{"event_id":"132602","title":"RubyCoreHackathon201907","url":"https://ruby.connpass.com/event/132602/","shortener_url":"https://bit.ly/2YU23Zn","started_at":"2019-07-14T10:00:00.000+09:00","ended_at":"2019-07-15T17:00:00.000+09:00","limit_number":null,"address":"〒299-1861　千葉県富津市金谷3870","place":"コワーキングスペースまるも","lat":35.1665,"lon":139.824,"state":"active","id":null},{"event_id":"688580","title":"クリール×アラプラス　2019練習会2 夏合宿","url":"http://ala-courir2019-2.peatix.com","shortener_url":null,"started_at":"2019-07-20T10:30:00.000+09:00","ended_at":"2019-07-23T08:59:59.000+09:00","limit_number":null,"address":"〒391-0301 長野県茅野市北山3418−1","place":"霧ケ峰高原〜白樺湖","lat":36.1074,"lon":138.233,"state":"active","id":null},{"event_id":"132980","title":"ROHM OPEN HACK CHALLENGE 2019 ハッカソン@東京","url":"https://mashupawards.connpass.com/event/132980/","shortener_url":"https://bit.ly/2HJdSf5","started_at":"2019-07-06T10:00:00.000+09:00","ended_at":"2019-07-07T19:30:00.000+09:00","limit_number":50,"address":"東京都千代田区神田練塀町3富士ソフト秋葉原ビル12F","place":"DMM.make AKIBA 12階","lat":35.7003,"lon":139.774,"state":"active","id":null},{"event_id":"133003","title":"FUKUOKA Engineers Day 2019 ~Summer~","url":"https://engineers-day.connpass.com/event/133003/","shortener_url":null,"started_at":"2019-07-20T09:30:00.000+09:00","ended_at":"2019-07-20T21:00:00.000+09:00","limit_number":157,"address":"福岡県福岡市博多区博多駅中央街8-1 JRJP博多ビル12F","place":"LINE Fukuoka","lat":33.5882,"lon":130.419,"state":"active","id":null},{"event_id":"686790","title":"STARRY NIGHT JAM vol.42　星語り 夏　七夕スペシャル！　“令和”-万葉の星めぐり-","url":"http://snj42.peatix.com","shortener_url":null,"started_at":"2019-07-07T16:00:00.000+09:00","ended_at":"2019-07-10T08:59:59.000+09:00","limit_number":null,"address":"福岡市中央区 六本松4丁目2−1","place":"福岡市科学館","lat":33.5774,"lon":130.378,"state":"active","id":null},{"event_id":"685242","title":"The ID Industry: So You Think You Can Design?","url":"http://sytycd.peatix.com","shortener_url":null,"started_at":"2019-07-27T16:30:00.000+09:00","ended_at":"2019-07-30T08:59:59.000+09:00","limit_number":null,"address":"93 Stamford Road","place":"National Museum of Singapore","lat":1.29661,"lon":103.849,"state":"active","id":null},{"event_id":"696437","title":"スポーツ栄養講座「アスリートの食事2019・実践編」第１回（2019年7月13日）","url":"http://peatix.com/event/696437","shortener_url":null,"started_at":"2019-07-13T10:00:00.000+09:00","ended_at":"2019-07-16T08:59:59.000+09:00","limit_number":null,"address":"東京都中央区築地3-5-10","place":"日刊スポーツ新聞社","lat":35.6681,"lon":139.774,"state":"active","id":null},{"event_id":"696405","title":"スポーツ栄養講座「アスリートの食事2019・実践編」第１回（2019年7月12日）","url":"http://peatix.com/event/696405","shortener_url":null,"started_at":"2019-07-12T13:00:00.000+09:00","ended_at":"2019-07-15T08:59:59.000+09:00","limit_number":null,"address":"東京都中央区築地3-5-10","place":"日刊スポーツ新聞社","lat":35.6681,"lon":139.774,"state":"active","id":null},{"event_id":"675206","title":"エモHackathon in 100BANCH ナナナナ祭","url":"http://peatix.com/event/675206","shortener_url":"https://bit.ly/2Wd3cOK","started_at":"2019-07-10T13:00:00.000+09:00","ended_at":"2019-07-13T08:59:59.000+09:00","limit_number":null,"address":"渋谷区渋谷3丁目27−1","place":"100BANCH","lat":35.656,"lon":139.705,"state":"active","id":null},{"event_id":"697210","title":"VTuberハッカソン全国ツアー2019【東京大会】","url":"http://vtuberhack2019tokyo.peatix.com","shortener_url":"https://bit.ly/2WeV0xF","started_at":"2019-07-06T09:30:00.000+09:00","ended_at":"2019-07-09T08:59:59.000+09:00","limit_number":null,"address":"品川区上大崎2丁目13−30 8階 oak meguro","place":"株式会社アカツキ","lat":35.6345,"lon":139.718,"state":"active","id":null},{"event_id":"697364","title":"よしもと芸人とアソブ 未来言語でNEW GAME in 100BANCH ナナナナ祭","url":"http://peatix.com/event/697364","shortener_url":null,"started_at":"2019-07-09T19:00:00.000+09:00","ended_at":"2019-07-12T08:59:59.000+09:00","limit_number":null,"address":"渋谷区渋谷3丁目27−1","place":"100BANCH","lat":35.656,"lon":139.705,"state":"active","id":null},{"event_id":"690313","title":"英語力を飛躍的にアップ！「リスニング＆スピーキング徹底強化！」①\"必ず聞き取れる！\" リスニングのための発音トレーニング  ②スピーキング 瞬発力獲得プログラム","url":"http://kaz-english.peatix.com","shortener_url":null,"started_at":"2019-07-29T10:30:00.000+09:00","ended_at":"2019-08-01T08:59:59.000+09:00","limit_number":null,"address":"港区高輪3丁目4−13 第二高輪偕成ビル(レフォルマ高輪) 7F","place":"高輪台スタジオ","lat":35.6348,"lon":139.732,"state":"active","id":null},{"event_id":"700022","title":"Xデザイン学校公開講座+第6回フューチャー・エクスペリエンスフォーラム 「ソーシャルとイノベーション」","url":"http://peatix.com/event/700022","shortener_url":null,"started_at":"2019-07-10T18:30:00.000+09:00","ended_at":"2019-07-13T08:59:59.000+09:00","limit_number":null,"address":"千代田区丸の内1-6-5","place":"ウシオ電機・本社（丸の内北口ビルディング）受付17階（東京駅丸の内北口より徒歩2分）","lat":35.684,"lon":139.767,"state":"active","id":null},{"event_id":"697469","title":"7/9(Tue) International Curry Night party in Shibuya","url":"http://peatix.com/event/697469","shortener_url":null,"started_at":"2019-07-09T19:00:00.000+09:00","ended_at":"2019-07-12T08:59:59.000+09:00","limit_number":null,"address":"渋谷区 猿楽町2−12","place":"Asian Spice King 渋谷・代官山","lat":35.6533,"lon":139.705,"state":"active","id":null},{"event_id":"693164","title":"[次世代スポーツ]フラッグハント夏合宿＠山中湖7/13-14","url":"http://flaghunt2019summer.peatix.com","shortener_url":"https://bit.ly/2WlbxA0","started_at":"2019-07-13T08:00:00.000+09:00","ended_at":"2019-07-15T08:59:59.000+09:00","limit_number":null,"address":"山中湖村平野1915","place":"レークピア岳麓","lat":35.426,"lon":138.901,"state":"active","id":null},{"event_id":"694162","title":"ワークショップから学ぶ！デザインスプリント Vol.6","url":"http://peatix.com/event/694162","shortener_url":null,"started_at":"2019-07-17T19:00:00.000+09:00","ended_at":"2019-07-20T08:59:59.000+09:00","limit_number":null,"address":"東京都中央区築地6-16-1 築地616ビル","place":"株式会社ニューロマジック　7階セミナースペース","lat":35.664,"lon":139.774,"state":"active","id":null},{"event_id":"133220","title":"【開発合宿！】集まれKotlin好き！Kotlin愛好会 vol.13","url":"https://love-kotlin.connpass.com/event/133220/","shortener_url":"https://bit.ly/2Wgsqqw","started_at":"2019-07-06T09:30:00.000+09:00","ended_at":"2019-07-07T14:00:00.000+09:00","limit_number":16,"address":"千葉県香取郡東庄町笹川い６２４","place":"土善旅館","lat":35.845,"lon":140.662,"state":"active","id":null},{"event_id":"133836","title":"UX JAM in NIIGATA w/新潟デルタ【懇親会】","url":"https://ddd-ng.connpass.com/event/133836/","shortener_url":null,"started_at":"2019-07-13T17:30:00.000+09:00","ended_at":"2019-07-13T19:30:00.000+09:00","limit_number":30,"address":"新潟県新潟市中央区古町通六番町９５３番","place":"古町 柳都庵","lat":37.9217,"lon":139.044,"state":"active","id":null},{"event_id":"134034","title":"【新潟】UX JAM in NIIGATA w/新潟デルタ","url":"https://uxmilk.connpass.com/event/134034/","shortener_url":null,"started_at":"2019-07-13T14:00:00.000+09:00","ended_at":"2019-07-13T16:30:00.000+09:00","limit_number":55,"address":"〒951-8055 新潟県新潟市中央区礎町通3ノ町2086","place":"クロスパルにいがた","lat":37.9223,"lon":139.051,"state":"active","id":null},{"event_id":"133211","title":"【気づけば3回目の開発合宿！】集まれSwift好き！Swift愛好会 vol.42","url":"https://love-swift.connpass.com/event/133211/","shortener_url":"https://bit.ly/2WhaQTf","started_at":"2019-07-06T09:30:00.000+09:00","ended_at":"2019-07-07T14:00:00.000+09:00","limit_number":23,"address":"千葉県香取郡東庄町笹川い６２４","place":"土善旅館","lat":35.845,"lon":140.662,"state":"active","id":null},{"event_id":"703625","title":"7月26日(金)19:00～★ 代官山 目的別ブレスレットで出会い率アップのGaitomo国際交流パーティー","url":"http://peatix.com/event/703625","shortener_url":null,"started_at":"2019-07-26T19:00:00.000+09:00","ended_at":"2019-07-29T08:59:59.000+09:00","limit_number":null,"address":"〒150-0034, 20-20 代官山町, 渋谷区","place":"BLU JAM CAFE Daikanyama","lat":35.648,"lon":139.702,"state":"active","id":null},{"event_id":"683355","title":"【仙台】簡単ストレッチヨガ指導者養成コース(全75ポーズ) ケンハラクマサイン入り指導者認定書授与","url":"http://peatix.com/event/683355","shortener_url":null,"started_at":"2019-07-06T09:00:00.000+09:00","ended_at":"2019-07-09T08:59:59.000+09:00","limit_number":null,"address":"仙台市青葉区中央3丁目6−8 JTB仙台ビル6階","place":"【YMCメディカルトレーナーズスクール仙台校】仙台のヨガ/ヨガスクール","lat":38.2598,"lon":140.879,"state":"active","id":null},{"event_id":"133929","title":"ONE JAPAN CREATORS Meet up #2","url":"https://onejapanhackathon.connpass.com/event/133929/","shortener_url":"https://bit.ly/2WghvNF","started_at":"2019-07-14T13:00:00.000+09:00","ended_at":"2019-07-14T16:00:00.000+09:00","limit_number":40,"address":"神奈川県横浜市西区みなとみらい2-3-3  クイーンズタワーB棟9階","place":"富士通エフサス みなとみらいInnovation \u0026 Future Center","lat":35.4565,"lon":139.634,"state":"active","id":null},{"event_id":"700487","title":"‐楽しい畑には、ビジネスが生まれる‐　東京から始める「小さい農業」アイデアソン","url":"http://workshop0702.peatix.com","shortener_url":"https://bit.ly/2WdHUfa","started_at":"2019-07-02T19:00:00.000+09:00","ended_at":"2019-07-05T08:59:59.000+09:00","limit_number":null,"address":"千代田区丸の内2丁目1−1 明治安田生命ビル TOKYO創業ステーション1F","place":"Startup Hub Tokyo・TOKYO創業ステーション","lat":35.6792,"lon":139.762,"state":"active","id":null},{"event_id":"707240","title":"BTY LIVE 2019 in Ichihara vol.4","url":"http://btylive2019ichihara4.peatix.com","shortener_url":null,"started_at":"2019-07-14T12:15:00.000+09:00","ended_at":"2019-07-17T08:59:59.000+09:00","limit_number":null,"address":"市原市五井中央西1丁目1−25","place":"サンプラザ市原","lat":35.5129,"lon":140.089,"state":"active","id":null},{"event_id":"134474","title":"人工知能×◯◯!! アイデアソン体験会","url":"https://connpass.com/event/134474/","shortener_url":"https://bit.ly/2Wy0vYs","started_at":"2019-07-14T01:00:00.000+09:00","ended_at":"2019-07-14T18:00:00.000+09:00","limit_number":20,"address":"沖縄県中頭郡西原町千原1","place":"琉球大学 工学部 1号館 508号室","lat":26.2476,"lon":127.765,"state":"active","id":null},{"event_id":"710388","title":"【アレすご】メドピア取締役COO林氏が語る！業績をV字回復させた組織の力を引き出す方法","url":"http://peatix.com/event/710388","shortener_url":null,"started_at":"2019-07-03T17:00:00.000+09:00","ended_at":"2019-07-06T08:59:59.000+09:00","limit_number":null,"address":"東京都港区南青山3-4-6","place":"株式会社JAM","lat":35.6673,"lon":139.717,"state":"active","id":null},{"event_id":"702113","title":"次のステージで活かす強みを引きだす「自分史の棚卸しワークショップ」 40代から考える人生二毛作#11（フォローアップセッション付き）","url":"http://nimousaku11.peatix.com","shortener_url":null,"started_at":"2019-07-20T10:00:00.000+09:00","ended_at":"2019-07-23T08:59:59.000+09:00","limit_number":null,"address":"東京都港区麻布十番2-9-7","place":"麻布十番Charie'sBar（ディオーネ8ビル6F-B）","lat":35.6549,"lon":139.735,"state":"active","id":null},{"event_id":"134829","title":"熊ゆに Unityもくもく会　2019/7/7（日）","url":"https://kumauni.connpass.com/event/134829/","shortener_url":null,"started_at":"2019-07-07T13:00:00.000+09:00","ended_at":"2019-07-07T17:00:00.000+09:00","limit_number":10,"address":"熊本県熊本市 中央区下通１丁目１２−２７","place":"未来会議室","lat":32.7998,"lon":130.708,"state":"active","id":null},{"event_id":"134946","title":"高専生の採用ノウハウを伝授しナイト！ #1","url":"https://kosen-career.connpass.com/event/134946/","shortener_url":null,"started_at":"2019-07-26T18:45:00.000+09:00","ended_at":"2019-07-26T22:00:00.000+09:00","limit_number":50,"address":"東京都渋谷区代々木1丁目36-4 (全理連ビル 4F)","place":"Repro株式会社","lat":35.6839,"lon":139.701,"state":"active","id":null},{"event_id":"134922","title":"高専卒起業家・CXO交流しナイト！ #1","url":"https://kosen-career.connpass.com/event/134922/","shortener_url":null,"started_at":"2019-07-19T18:45:00.000+09:00","ended_at":"2019-07-19T22:00:00.000+09:00","limit_number":80,"address":"東京都渋谷区代々木1丁目36-4 (全理連ビル 4F)","place":"Repro株式会社","lat":35.6839,"lon":139.701,"state":"active","id":null},{"event_id":"132413","title":"ONE  JAPANハッカソン 第4回","url":"https://onejapanhackathon.connpass.com/event/132413/","shortener_url":"https://bit.ly/2WsT9Ap","started_at":"2019-07-13T09:30:00.000+09:00","ended_at":"2019-07-13T18:00:00.000+09:00","limit_number":80,"address":"川崎市幸区大宮町1310番 ミューザ川崎セントラルタワー5階","place":"K-NIC（ミューザ川崎５F）","lat":35.5311,"lon":139.695,"state":"active","id":null},{"event_id":"134861","title":"Dev-Camp in さいたま 2019/07/21","url":"https://devcamp.connpass.com/event/134861/","shortener_url":null,"started_at":"2019-07-21T13:00:00.000+09:00","ended_at":"2019-07-21T17:00:00.000+09:00","limit_number":null,"address":"さいたま市中央区上落合","place":"ラウンジ","lat":35.8943,"lon":139.626,"state":"active","id":null},{"event_id":"134860","title":"Dev-Camp in さいたま 2019/07/07","url":"https://devcamp.connpass.com/event/134860/","shortener_url":null,"started_at":"2019-07-07T13:00:00.000+09:00","ended_at":"2019-07-07T17:00:00.000+09:00","limit_number":null,"address":"さいたま市中央区上落合","place":"ラウンジ","lat":35.8943,"lon":139.626,"state":"active","id":null},{"event_id":"92785","title":"アイデアソン by Asia Open Data Hackathon","url":"https://hackcamp.doorkeeper.jp/events/92785","shortener_url":"https://bit.ly/2Wpin2E","started_at":"2019-07-03T18:00:00.000+09:00","ended_at":"2019-07-03T21:30:00.000+09:00","limit_number":30,"address":"東京都千代田区霞が関一丁目4番1号 日土地ビル2F","place":"SENQ霞ヶ関","lat":null,"lon":null,"state":"active","id":null},{"event_id":"92787","title":"ハッカソン by Asia Open Data Hackathon","url":"https://hackcamp.doorkeeper.jp/events/92787","shortener_url":"https://bit.ly/2WqgiUc","started_at":"2019-07-06T10:00:00.000+09:00","ended_at":"2019-07-07T18:00:00.000+09:00","limit_number":30,"address":"〒100-8141 東京都千代田区永田町2丁目10−3","place":"三菱総合研究所","lat":null,"lon":null,"state":"active","id":null},{"event_id":"712129","title":"ゆる～くモノづくり（電子工作）はじめNight #6","url":"http://yurumono06.peatix.com","shortener_url":null,"started_at":"2019-07-12T19:00:00.000+09:00","ended_at":"2019-07-15T08:59:59.000+09:00","limit_number":null,"address":"大阪市中央区南本町2丁目1−1番地1 本町サザンビル1F","place":"The DECK","lat":34.683,"lon":135.506,"state":"active","id":null},{"event_id":"706145","title":"SDGsについて問う、対話する〜「問いストーリー」ハテナソン IN 横浜","url":"http://peatix.com/event/706145","shortener_url":null,"started_at":"2019-07-11T18:30:00.000+09:00","ended_at":"2019-07-14T08:59:59.000+09:00","limit_number":null,"address":"〒231-0021 横浜市中区日本大通33番地","place":"ライフデザインラボ（神奈川県住宅供給公社1階 kosha33）","lat":35.4452,"lon":139.642,"state":"active","id":null},{"event_id":"134735","title":"【増枠】IM@S Engineer Talks 2019","url":"https://imas.connpass.com/event/134735/","shortener_url":null,"started_at":"2019-07-06T12:00:00.000+09:00","ended_at":"2019-07-06T18:00:00.000+09:00","limit_number":73,"address":"東京都港区六本木4-1-4 (黒崎ビル4F)","place":"株式会社Speee","lat":35.6655,"lon":139.736,"state":"active","id":null},{"event_id":"93022","title":"【大阪開催】7/20(土)~21(日)festivo ホームページ作成（WordPress） Camp【学生20,000円、一般25,000円】～戦うスキルを身につける15時間！WordPress集中合宿！～","url":"https://festivo.doorkeeper.jp/events/93022","shortener_url":"https://bit.ly/2WvPlhN","started_at":"2019-07-20T10:30:00.000+09:00","ended_at":"2019-07-21T18:30:00.000+09:00","limit_number":10,"address":"大阪市中央区備後町3-6-2 大雅ビル3F","place":"中央会計セミナールーム","lat":null,"lon":null,"state":"active","id":null},{"event_id":"93023","title":"【福岡開催】7/27(土)~28(日)festivo ホームページ作成（WordPress） Camp【学生20,000円、一般25,000円】～戦うスキルを身につける15時間！WordPress集中合宿！～","url":"https://festivo.doorkeeper.jp/events/93023","shortener_url":"https://bit.ly/2WvyzQ3","started_at":"2019-07-27T10:30:00.000+09:00","ended_at":"2019-07-28T18:30:00.000+09:00","limit_number":10,"address":"福岡県福岡市博多区博多駅東1-12-17 オフィスニューガイア博多駅前3F","place":"スタートアップカフェ Bases福岡・博多店（ベイシズ）","lat":null,"lon":null,"state":"active","id":null},{"event_id":"704487","title":"【共催セミナー参加費無料】 採用難だからこそ、店舗業務をIT化!  〜仕入れ業務、シフト管理、勤怠管理を効率化〜","url":"http://hachidori-190702.peatix.com","shortener_url":null,"started_at":"2019-07-02T13:30:00.000+09:00","ended_at":"2019-07-05T08:59:59.000+09:00","limit_number":null,"address":"千代田区神田錦町3−17 廣瀬ビルディング7F","place":"hachidori株式会社","lat":35.6919,"lon":139.761,"state":"active","id":null},{"event_id":"622278","title":"DJ MAG JAPAN \u0026 MNN presents「CHAPTER ONE Vol.2」","url":"http://chapterone02.peatix.com","shortener_url":null,"started_at":"2019-07-15T13:00:00.000+09:00","ended_at":"2019-07-18T08:59:59.000+09:00","limit_number":null,"address":"新宿区新宿3丁目24−3 7階","place":"新宿アルタ KeyStudio","lat":35.6927,"lon":139.701,"state":"active","id":null},{"event_id":"714142","title":"「シナリオランド」オフラインイベント　打ち合わせの極意～脚本家がクリエイトする会議術～","url":"http://peatix.com/event/714142","shortener_url":null,"started_at":"2019-07-13T19:00:00.000+09:00","ended_at":"2019-07-16T08:59:59.000+09:00","limit_number":null,"address":"東京都千代田区神田神保町1-105","place":"インプレスグループ　セミナールーム（神保町三井ビルディング23F）","lat":35.6943,"lon":139.76,"state":"active","id":null},{"event_id":"106731","title":"セキュリティさくら分科会イベント〜QUNOGなお話聞いてみよう","url":"https://atnd.org/events/106731","shortener_url":null,"started_at":"2019-07-06T14:00:00.000+09:00","ended_at":"2019-07-06T18:00:00.000+09:00","limit_number":30,"address":"熊本市中央区桜町1−3","place":"市民会館シアーズホーム 会議棟 2F 第7会議室","lat":32.8022,"lon":130.704,"state":"closed","id":null},{"event_id":"711025","title":"第6回石積み学校in檜原村～イノシシに崩された石積み再生～","url":"http://hinohara-ishidumi7.peatix.com","shortener_url":null,"started_at":"2019-07-14T09:30:00.000+09:00","ended_at":"2019-07-17T08:59:59.000+09:00","limit_number":null,"address":"檜原村下元郷44","place":"御根家 One-Ya（おねや）","lat":35.7259,"lon":139.158,"state":"active","id":null},{"event_id":"710765","title":"内海聡の内海塾 in東京第7回「東洋医学の応用と四元素論」7/5(金)","url":"http://wonder190705.peatix.com","shortener_url":null,"started_at":"2019-07-05T19:00:00.000+09:00","ended_at":"2019-07-08T08:59:59.000+09:00","limit_number":null,"address":"千代田区 神田小川町3丁目10 新駿河台ビル10F","place":"ハロー貸会議室神保町","lat":35.6961,"lon":139.761,"state":"active","id":null},{"event_id":"135385","title":"【Incubate School 第4期】〜後編・VC資金調達のためのピッチブック入門編〜","url":"https://incubatefund.connpass.com/event/135385/","shortener_url":null,"started_at":"2019-07-18T17:00:00.000+09:00","ended_at":"2019-07-18T18:00:00.000+09:00","limit_number":40,"address":"港区虎ノ門１丁目２３−３ 虎ノ門ヒルズ森タワー２階　虎ノ門ヒルズカフェ","place":"Venture Cafe Tokyo","lat":35.667,"lon":139.749,"state":"active","id":null},{"event_id":"135384","title":"【Incubate School 第4期】〜前編・VC資金調達のための基礎編〜","url":"https://incubatefund.connpass.com/event/135384/","shortener_url":null,"started_at":"2019-07-11T17:00:00.000+09:00","ended_at":"2019-07-11T18:00:00.000+09:00","limit_number":40,"address":"港区虎ノ門１丁目２３−３ 虎ノ門ヒルズ森タワー２階　虎ノ門ヒルズカフェ","place":"Venture Cafe Tokyo","lat":35.667,"lon":139.749,"state":"active","id":null},{"event_id":"711865","title":"suki JAM 005 -color- 7/5（金）","url":"http://sukijam005.peatix.com","shortener_url":null,"started_at":"2019-07-05T20:00:00.000+09:00","ended_at":"2019-07-08T08:59:59.000+09:00","limit_number":null,"address":"東京都港区赤坂8-10-22","place":"EDITION（青山一丁目駅 or 乃木坂駅）","lat":35.6703,"lon":139.727,"state":"active","id":null},{"event_id":"93190","title":"WikipediaTown函南(UDC2019）","url":"https://0168e91711e4c480d710c70399.doorkeeper.jp/events/93190","shortener_url":null,"started_at":"2019-07-15T09:30:00.000+09:00","ended_at":"2019-07-15T17:00:00.000+09:00","limit_number":20,"address":"静岡県 田方郡函南町上沢字田中107","place":"かんなみ知恵の和館（函南町立図書館）","lat":null,"lon":null,"state":"active","id":null},{"event_id":"721253","title":"MUSIC HACKDAY Tokyo 2019 プレイベント","url":"http://preevent-musichackdaytokyo2019.peatix.com","shortener_url":"https://bit.ly/31A8PFV","started_at":"2019-07-12T19:00:00.000+09:00","ended_at":"2019-07-15T08:59:59.000+09:00","limit_number":null,"address":"渋谷区渋谷2丁目16−1","place":"株式会社レコチョク","lat":35.6598,"lon":139.705,"state":"active","id":null},{"event_id":"716569","title":"SDGsについて問う、対話する〜「問いストーリー」ハテナソン IN 名古屋","url":"http://peatix.com/event/716569","shortener_url":null,"started_at":"2019-07-12T18:15:00.000+09:00","ended_at":"2019-07-15T08:59:59.000+09:00","limit_number":null,"address":"名古屋市中村区名駅4丁目4−38","place":"ウインクあいち 1009室","lat":35.1707,"lon":136.886,"state":"active","id":null},{"event_id":"630554","title":"【Noodl FES】開発メンバー来日！！日本初上陸のツール”Noodl”を使って TOKYO 2020に向けたサービスを創り出せ！！","url":"http://noodl-fes-1day190706.peatix.com","shortener_url":null,"started_at":"2019-07-06T10:00:00.000+09:00","ended_at":"2019-07-09T08:59:59.000+09:00","limit_number":null,"address":"東京都港区港南2-14-14 品川インターシティフロント6階","place":"CO☆PIT","lat":35.6285,"lon":139.742,"state":"active","id":null},{"event_id":"715055","title":"わかやま「the 仕事人」展","url":"http://wakayama-shigotonin.peatix.com","shortener_url":null,"started_at":"2019-07-12T18:30:00.000+09:00","ended_at":"2019-07-15T08:59:59.000+09:00","limit_number":null,"address":"東京都千代田区有楽町2-10-1","place":"認定NPO法人ふるさと回帰支援センター（東京交通会館3階グリーンルーム）","lat":35.6749,"lon":139.764,"state":"active","id":null},{"event_id":"723307","title":"【政策検討WS：経産省若手有志プロジェクト】「マインド・アクティブ社会」を実現する政策を作ろう！＜学生・社会人×公務員＞","url":"http://mind-active-policy.peatix.com","shortener_url":null,"started_at":"2019-07-11T18:30:00.000+09:00","ended_at":"2019-07-14T08:59:59.000+09:00","limit_number":null,"address":"千代田区霞が関1丁目3−1","place":"経済産業省総合庁舎本館","lat":35.6722,"lon":139.751,"state":"active","id":null},{"event_id":"93196","title":"Japan Accessibility Conference - digital information vol.2","url":"https://ja11yc.doorkeeper.jp/events/93196","shortener_url":null,"started_at":"2019-07-20T13:00:00.000+09:00","ended_at":"2019-07-20T18:30:00.000+09:00","limit_number":210,"address":"〒150-0042 東京都渋谷区宇田川町40番1号","place":"Abema Towers（アベマタワーズ）10F セミナールーム","lat":null,"lon":null,"state":"active","id":null},{"event_id":"93195","title":"Startup Weekend コミュニティ・カフェ第2弾 @ヤヨイヒロバ（弥生）","url":"https://swtokyo.doorkeeper.jp/events/93195","shortener_url":null,"started_at":"2019-07-04T19:00:00.000+09:00","ended_at":"2019-07-04T22:00:00.000+09:00","limit_number":40,"address":"東京都千代田区外神田4-14-1 秋葉原UDX 8F (南ウイング)","place":"ヤヨイヒロバ（弥生）","lat":null,"lon":null,"state":"active","id":null},{"event_id":"723639","title":"【8/31~9/1】稼げるWEBデザインを学ぶ！０から始める「サイト制作合宿」","url":"http://site-isumi2019.peatix.com","shortener_url":"https://bit.ly/31FHp17","started_at":"2019-07-01T10:00:00.000+09:00","ended_at":"2019-07-04T08:59:59.000+09:00","limit_number":null,"address":"千葉県いすみ市深堀1712−1","place":"コワーキングコミュニティhinode","lat":35.2596,"lon":140.398,"state":"active","id":null},{"event_id":"718521","title":"【7/13〜14】動画がアツい！「YouTubeマネタイズ強化合宿」開催","url":"http://peatix.com/event/718521","shortener_url":null,"started_at":"2019-07-13T12:30:00.000+09:00","ended_at":"2019-07-16T08:59:59.000+09:00","limit_number":null,"address":"千葉県いすみ市深堀1712−1","place":"コワーキングコミュニティhinode","lat":35.2596,"lon":140.398,"state":"active","id":null},{"event_id":"725168","title":"IchigoJamプログラミング講座＜子ども向け・大人向け＞7月27日","url":"http://peatix.com/event/725168","shortener_url":null,"started_at":"2019-07-27T10:30:00.000+09:00","ended_at":"2019-07-30T08:59:59.000+09:00","limit_number":null,"address":"〒916-0025, 旭町1丁目6-6, 鯖江市","place":"Hana道場 - Hana Open Innovation Dojo -","lat":35.9446,"lon":136.186,"state":"active","id":null},{"event_id":"725368","title":"【7/4】IoTモノづくり研修 　第9回モノづくりブートキャンプの説明会","url":"http://peatix.com/event/725368","shortener_url":null,"started_at":"2019-07-04T09:00:00.000+09:00","ended_at":"2019-07-07T08:59:59.000+09:00","limit_number":null,"address":"奈良県天理市櫟本町2613番地の1","place":"オンラインミーティングにて接続します。","lat":0.0,"lon":0.0,"state":"active","id":null},{"event_id":"725166","title":"IchigoJamプログラミング講座＜子ども向け・大人向け＞7月13日","url":"http://peatix.com/event/725166","shortener_url":null,"started_at":"2019-07-13T10:30:00.000+09:00","ended_at":"2019-07-16T08:59:59.000+09:00","limit_number":null,"address":"〒916-0025, 旭町1丁目6-6, 鯖江市","place":"Hana道場 - Hana Open Innovation Dojo -","lat":35.9446,"lon":136.186,"state":"active","id":null},{"event_id":"725378","title":"【7/5】IoTモノづくり研修 　第9回モノづくりブートキャンプの説明会","url":"http://peatix.com/event/725378","shortener_url":null,"started_at":"2019-07-05T09:00:00.000+09:00","ended_at":"2019-07-08T08:59:59.000+09:00","limit_number":null,"address":"奈良県天理市櫟本町2613番地の1","place":"オンラインミーティングにて接続します。","lat":0.0,"lon":0.0,"state":"active","id":null},{"event_id":"725336","title":"【7/3】IoTモノづくり研修 　第9回モノづくりブートキャンプの説明会","url":"http://peatix.com/event/725336","shortener_url":null,"started_at":"2019-07-03T09:00:00.000+09:00","ended_at":"2019-07-06T08:59:59.000+09:00","limit_number":null,"address":"奈良県天理市櫟本町2613番地の1","place":"オンラインミーティングにて接続します。","lat":0.0,"lon":0.0,"state":"active","id":null},{"event_id":"713747","title":"市民活動・アクティビストのためのプロセスワークonline講座（火曜夜・全6回）","url":"http://processworkforsocialchange.peatix.com","shortener_url":null,"started_at":"2019-07-16T20:00:00.000+09:00","ended_at":"2019-07-19T08:59:59.000+09:00","limit_number":null,"address":"zoom","place":"zoom","lat":0.0,"lon":0.0,"state":"active","id":null},{"event_id":"93570","title":"エネルギー・環境 × テクノロジーを気軽に語り合おう　〜SW Tokyo GreenTech プレイベント 第1弾〜","url":"https://swtokyo.doorkeeper.jp/events/93570","shortener_url":null,"started_at":"2019-07-02T20:00:00.000+09:00","ended_at":"2019-07-02T22:00:00.000+09:00","limit_number":20,"address":"東京都渋谷区円山町5-4 Feel A 渋谷 1410号室","place":"渋谷道玄坂 ビル内のレンタルスペース","lat":null,"lon":null,"state":"active","id":null},{"event_id":"93609","title":"Challenge for your GreenTech Idea!! 〜環境・エネルギー・サステナビリティ×テクノロジーがテーマのアイデアソン〜 SW Tokyo GreenTechプレイベント 第2弾","url":"https://swtokyo.doorkeeper.jp/events/93609","shortener_url":"https://bit.ly/2ISOYsW","started_at":"2019-07-27T10:45:00.000+09:00","ended_at":"2019-07-27T17:00:00.000+09:00","limit_number":30,"address":"東京都中央区日本橋本町3-3-3 Clipニホンバシビル1階","place":"Clipニホンバシ","lat":null,"lon":null,"state":"active","id":null},{"event_id":"718259","title":"U35集中《サルサ合宿 in 鎌倉2019》☆初心者向けのサルサ合宿！","url":"http://salsainkamakura-2019.peatix.com","shortener_url":null,"started_at":"2019-07-13T11:00:00.000+09:00","ended_at":"2019-07-16T08:59:59.000+09:00","limit_number":null,"address":"鎌倉市","place":"kamakura ","lat":0.0,"lon":0.0,"state":"active","id":null},{"event_id":"723312","title":"TOUCHOUT vol.002 (VJ出演者\u0026ワークショップ聴講者募集ページ)","url":"http://touchout002vj.peatix.com","shortener_url":null,"started_at":"2019-07-07T13:30:00.000+09:00","ended_at":"2019-07-10T08:59:59.000+09:00","limit_number":null,"address":"渋谷区道玄坂1丁目22−7 道玄坂ピア 1F","place":"FabCafe Tokyo","lat":35.6561,"lon":139.695,"state":"active","id":null},{"event_id":"93646","title":"【君もベイジアンになろう！】Bayes勉強会#2","url":"https://soleildatadojo.doorkeeper.jp/events/93646","shortener_url":null,"started_at":"2019-07-03T19:30:00.000+09:00","ended_at":"2019-07-03T21:30:00.000+09:00","limit_number":6,"address":"大阪府大阪市北区西天満二丁目5番3号(堂島深川ビル3階)","place":"SCRIBBLE OSAKA LAB（SOL）（大阪メトロ御堂筋線「淀屋橋」駅から徒歩４分）","lat":null,"lon":null,"state":"active","id":null},{"event_id":"723055","title":"VTuberハッカソン2019横須賀大会","url":"http://vth2019yokosuka.peatix.com","shortener_url":"https://bit.ly/2MZEAVA","started_at":"2019-07-27T10:00:00.000+09:00","ended_at":"2019-07-30T08:59:59.000+09:00","limit_number":null,"address":"横須賀市小川町19−5","place":"16 Startups","lat":35.2811,"lon":139.673,"state":"active","id":null},{"event_id":"136276","title":"札幌オープンイノベーション勉強会「札幌発、チャレンジャーとメディアのミートアップコミュニティづくり」","url":"https://sapporo-openinovation.connpass.com/event/136276/","shortener_url":"https://bit.ly/2X3CvwA","started_at":"2019-07-06T14:30:00.000+09:00","ended_at":"2019-07-06T18:00:00.000+09:00","limit_number":50,"address":"札幌市中央区大通西1-1","place":"NHK札幌放送局　第２スタジオ","lat":43.0613,"lon":141.356,"state":"active","id":null},{"event_id":"93673","title":"【レベルと目的に応じて2冊の本で学ぶ】DeepLearning勉強会#2","url":"https://soleildatadojo.doorkeeper.jp/events/93673","shortener_url":null,"started_at":"2019-07-04T19:30:00.000+09:00","ended_at":"2019-07-04T21:30:00.000+09:00","limit_number":8,"address":"大阪府大阪市北区西天満二丁目5番3号(堂島深川ビル3階)","place":"SCRIBBLE OSAKA LAB（SOL）（大阪メトロ御堂筋線「淀屋橋」駅から徒歩４分）","lat":null,"lon":null,"state":"active","id":null},{"event_id":"686789","title":"Tsumugi（つむぎ）｜手ごねパン教室 ～３種ベーグルを作る～","url":"http://peatix.com/event/686789","shortener_url":null,"started_at":"2019-07-16T10:00:00.000+09:00","ended_at":"2019-07-19T08:59:59.000+09:00","limit_number":null,"address":"文京区関口1丁目29−6 1F","place":"我楽田工房｜Bono","lat":35.7107,"lon":139.725,"state":"active","id":null},{"event_id":"728656","title":"津田昌太朗×津田大介「世界の音楽＆アートフェスから考える」『THE WORLD FESTIVAL GUIDE 海外の音楽フェス完全ガイド』（いろは出版）刊行記念","url":"http://peatix.com/event/728656","shortener_url":null,"started_at":"2019-07-14T19:00:00.000+09:00","ended_at":"2019-07-17T08:59:59.000+09:00","limit_number":null,"address":"世田谷区北沢2-5-2 BIG BEN B1F","place":"本屋B\u0026B","lat":0.0,"lon":0.0,"state":"active","id":null},{"event_id":"726086","title":"Game×Blockchainの最新動向とDappsGame体験会キックオフ！@銀座【バイナリースター】月例セミナー #4","url":"http://monthly7.peatix.com","shortener_url":null,"started_at":"2019-07-01T19:00:00.000+09:00","ended_at":"2019-07-04T08:59:59.000+09:00","limit_number":null,"address":"1丁目8−19 キラリトギンザ11階","place":"BINARYSTAR 株式会社","lat":35.6744,"lon":139.769,"state":"active","id":null},{"event_id":"136657","title":"智恵の和勉強会","url":"https://connpass.com/event/136657/","shortener_url":null,"started_at":"2019-07-06T13:00:00.000+09:00","ended_at":"2019-07-06T17:00:00.000+09:00","limit_number":null,"address":"東京都港区港南 2-16-3 品川グランドセントラルタワー","place":"マイクロソフト品川本社","lat":35.6267,"lon":139.74,"state":"active","id":null},{"event_id":"676300","title":"Dapps Game領域とToken流通における法的問題点","url":"http://monthly201907.peatix.com","shortener_url":null,"started_at":"2019-07-31T19:00:00.000+09:00","ended_at":"2019-08-03T08:59:59.000+09:00","limit_number":null,"address":"1丁目8−19 キラリトギンザ11階","place":"BINARYSTAR 株式会社","lat":35.6744,"lon":139.769,"state":"active","id":null},{"event_id":"709905","title":"Comedy Masala presents: JINX YEO (SIN) \u0026 K-VON (USA) | Double Header","url":"http://jinxandkvon.peatix.com","shortener_url":null,"started_at":"2019-07-01T21:00:00.000+09:00","ended_at":"2019-07-04T08:59:59.000+09:00","limit_number":null,"address":"69 Circular Road, Boat Quay, Singapore 049423","place":"HERO'S, 69 Circular Road, Singapore 049423","lat":1.28641,"lon":103.849,"state":"active","id":null},{"event_id":"92933","title":"Rubyビジネス創出展2019","url":"https://ruby-b.doorkeeper.jp/events/92933","shortener_url":null,"started_at":"2019-07-19T11:00:00.000+09:00","ended_at":"2019-07-19T20:30:00.000+09:00","limit_number":null,"address":"大阪府大阪市北区大深町3-1","place":"グランフロント大阪　カンファレンスルーム　タワーC","lat":null,"lon":null,"state":"active","id":null},{"event_id":"107010","title":"【就活生も参加可能】第４回若者PAL学生アイデアソン　～日本型就活の「不」編～","url":"https://atnd.org/events/107010","shortener_url":"https://bit.ly/2J6kaVv","started_at":"2019-07-10T15:00:00.000+09:00","ended_at":"2019-07-10T17:30:00.000+09:00","limit_number":20,"address":"東京都中央区日本橋3-12-2 日本橋朝日ビルヂング3F","place":"日本橋朝日ビルヂング３Ｆ　Ｎ３０５","lat":35.6786,"lon":139.774,"state":"closed","id":null},{"event_id":"725736","title":"滝の上の家庭菜園と季節のジャム ｜南伊豆くらし図鑑","url":"http://peatix.com/event/725736","shortener_url":null,"started_at":"2019-07-02T13:30:00.000+09:00","ended_at":"2019-07-05T08:59:59.000+09:00","limit_number":null,"address":"静岡県賀茂郡南伊豆町伊浜","place":"静岡県賀茂郡南伊豆町","lat":0.0,"lon":0.0,"state":"active","id":null},{"event_id":"727708","title":"JAM the Public 〜官×民×政のネクスト・イノベーション　箕浦龍一（総務省行政評価局）×山﨑清志（ニューヨーク市都市計画局）×尾崎えり子（Trist 代表 株式会社新閃力 代表取締役）×木村智浩（㈱ガイアックス）#2「これからの働き方改革のリアルをキーパーソンが語り尽くす!!」","url":"http://peatix.com/event/727708","shortener_url":null,"started_at":"2019-07-19T14:30:00.000+09:00","ended_at":"2019-07-22T08:59:59.000+09:00","limit_number":null,"address":"千代田区平河町2丁目5−3","place":"Nagatacho GRiD","lat":35.6798,"lon":139.74,"state":"active","id":null},{"event_id":"729781","title":"Meetup with Firebase","url":"http://peatix.com/event/729781","shortener_url":null,"started_at":"2019-07-09T19:30:00.000+09:00","ended_at":"2019-07-12T08:59:59.000+09:00","limit_number":null,"address":"C-L19-08, KL Trillion, 338, Jalan Tun Razak, Kuala Lumpur","place":"iTrain Malaysia","lat":3.16342,"lon":101.718,"state":"active","id":null},{"event_id":"728775","title":"Fw:東北 Fan Meeting [vol.5] 地域にファンを増やすには？－地域に「ハマる」大学生から考える、関係人口の増やし方","url":"http://peatix.com/event/728775","shortener_url":null,"started_at":"2019-07-04T18:30:00.000+09:00","ended_at":"2019-07-07T08:59:59.000+09:00","limit_number":null,"address":"東京都豊島区西巣鴨3-20-1","place":"大正大学 3号館２階 ラーニングコモンズ１","lat":0.0,"lon":0.0,"state":"active","id":null},{"event_id":"136707","title":"[秋葉原] Unityもくもく勉強会×1週間ゲームジャム追込会","url":"https://weeyble-game.connpass.com/event/136707/","shortener_url":"https://bit.ly/2Xbzf1U","started_at":"2019-07-07T13:00:00.000+09:00","ended_at":"2019-07-07T17:30:00.000+09:00","limit_number":11,"address":"東京都千代田区神田須田町２丁目１９−２３ (野村第３ビル ４階)","place":"コワーキングスペース秋葉原Weeyble","lat":35.6966,"lon":139.772,"state":"active","id":null},{"event_id":"93720","title":"★PIIK協力★　Rubyワークショップ　センサーを考えよう！","url":"https://ruby-b.doorkeeper.jp/events/93720","shortener_url":null,"started_at":"2019-07-19T15:00:00.000+09:00","ended_at":"2019-07-19T16:30:00.000+09:00","limit_number":11,"address":"大阪府大阪市北区大深町3-1","place":"グランフロント大阪　カンファレンスルーム　タワーC　（Ｃ０１）","lat":null,"lon":null,"state":"active","id":null},{"event_id":"723623","title":"【中止】東京⇆青森アイディアソン vol.2 〜お江戸の起点・日本橋で青森を叫びながらホタテをほやぐ！編〜","url":"http://peatix.com/event/723623","shortener_url":"https://bit.ly/2XbzdqO","started_at":"2019-07-18T19:00:00.000+09:00","ended_at":"2019-07-21T08:59:59.000+09:00","limit_number":null,"address":"※本イベントは中止となりました、申し訳ございません","place":"※本イベントは中止となりました、申し訳ございません","lat":0.0,"lon":0.0,"state":"active","id":null},{"event_id":"729646","title":"「サスティナブルな社会の創り方」那覇でアイデアソン〜Next Commons Lab 林篤志 / CAMPO 久高友嗣 モデレーター 石垣綾音 / 那覇市議会議員 よしみね努","url":"http://okinawadialog-sustainable-local.peatix.com","shortener_url":"https://bit.ly/2X7wf6R","started_at":"2019-07-02T18:00:00.000+09:00","ended_at":"2019-07-05T08:59:59.000+09:00","limit_number":null,"address":"那覇市久茂地2丁目15−8 フージャース那覇久茂地ビル1F","place":"Okinawa Dialog（おきなわダイアログ）","lat":26.2189,"lon":127.682,"state":"active","id":null},{"event_id":"716545","title":"「工作図鑑」きうちかつ先生の夏休みおもちゃ創作教室／夏の3331こども芸術学校2019","url":"http://3331kodomo2019-event02.peatix.com","shortener_url":null,"started_at":"2019-07-21T11:00:00.000+09:00","ended_at":"2019-07-24T08:59:59.000+09:00","limit_number":null,"address":"千代田区外神田6丁目11−14","place":"アーツ千代田３３３１","lat":35.7042,"lon":139.771,"state":"active","id":null},{"event_id":"726538","title":"【ASIA初 HOLLYWOOD AUCTION】(8月TOKYO100名)","url":"http://peatix.com/event/726538","shortener_url":null,"started_at":"2019-07-27T00:00:00.000+09:00","ended_at":"2019-07-29T08:59:59.000+09:00","limit_number":null,"address":"東京都内ホール","place":"東京A会場   東京B会場","lat":0.0,"lon":0.0,"state":"active","id":null},{"event_id":"133229","title":"セブにいるエンジニア集合！初心者歓迎！ by GAOGAO x FST","url":"https://gaogao.connpass.com/event/133229/","shortener_url":null,"started_at":"2019-07-20T18:00:00.000+09:00","ended_at":"2019-07-20T21:00:00.000+09:00","limit_number":21,"address":"9F HM Tower, W. Geonzon St. Cebu IT Park, Cebu City, Cebu 6000","place":"9F HM Tower","lat":10.3294,"lon":123.906,"state":"active","id":null},{"event_id":"137339","title":"Medicalデー­­­タ分析ハッカソン by Team AI 7/17(水)","url":"https://teamai.connpass.com/event/137339/","shortener_url":"https://bit.ly/2Jc33Sj","started_at":"2019-07-17T19:30:00.000+09:00","ended_at":"2019-07-17T21:30:00.000+09:00","limit_number":15,"address":"","place":"Online","lat":35.6618,"lon":139.696,"state":"active","id":null},{"event_id":"135942","title":"ProtoOut LINE Things ハッカソン","url":"https://protoout.connpass.com/event/135942/","shortener_url":"https://bit.ly/2JgMQLU","started_at":"2019-07-13T10:00:00.000+09:00","ended_at":"2019-07-13T19:00:00.000+09:00","limit_number":33,"address":"東京都千代田区神田小川町3-28-9 (三東ビル1F)","place":"TAM COWORKING TOKYO","lat":35.6955,"lon":139.763,"state":"active","id":null},{"event_id":"136708","title":"[秋葉原] Unityもくもく勉強会×1週間ゲームジャム追込＆打上会","url":"https://weeyble-game.connpass.com/event/136708/","shortener_url":"https://bit.ly/2XeHeeQ","started_at":"2019-07-07T18:00:00.000+09:00","ended_at":"2019-07-07T22:00:00.000+09:00","limit_number":8,"address":"東京都千代田区神田須田町２丁目１９−２３ (野村第３ビル ４階)","place":"コワーキングスペース秋葉原Weeyble","lat":35.6966,"lon":139.772,"state":"active","id":null},{"event_id":"107088","title":"【就活生も参加可能】第６回若者PAL学生アイデアソン　～日本型就活の「不」編～","url":"https://atnd.org/events/107088","shortener_url":"https://bit.ly/2J9sjbN","started_at":"2019-07-23T14:00:00.000+09:00","ended_at":"2019-07-23T16:00:00.000+09:00","limit_number":30,"address":"東京都中央区日本橋3-12-2 日本橋朝日ビルヂング3F","place":"日本橋朝日ビルヂング３Ｆ　Ｎ３０５","lat":35.6786,"lon":139.774,"state":"closed","id":null},{"event_id":"107087","title":"【就活生も参加可能】第５回若者PAL学生アイデアソン　～日本型就活の「不」編～","url":"https://atnd.org/events/107087","shortener_url":"https://bit.ly/2JeZdIf","started_at":"2019-07-17T13:00:00.000+09:00","ended_at":"2019-07-17T15:00:00.000+09:00","limit_number":20,"address":"東京都中央区日本橋3-12-2 日本橋朝日ビルヂング3F","place":"日本橋朝日ビルヂング３Ｆ　Ｎ３０５","lat":35.6786,"lon":139.774,"state":"closed","id":null},{"event_id":"730665","title":"『ことばのNEWTOWN』","url":"http://kotobano-newtown.peatix.com","shortener_url":null,"started_at":"2019-07-14T13:00:00.000+09:00","ended_at":"2019-07-17T08:59:59.000+09:00","limit_number":null,"address":"〒150-8510 東京都渋谷区渋谷2-21-1","place":"渋谷ヒカリエ 8/01/COURT","lat":0.0,"lon":0.0,"state":"active","id":null},{"event_id":"729299","title":"まちノリ☆スタディーツアー2019 〜ランドカーの自動運転を体感せよ〜｜INSPIRE×ヤマハ発動機","url":"http://machinori-studytour-2019.peatix.com","shortener_url":null,"started_at":"2019-07-15T13:00:00.000+09:00","ended_at":"2019-07-18T08:59:59.000+09:00","limit_number":null,"address":"静岡県静岡市清水区日の出町10−80","place":"清水港マリンターミナル内イベント会場「次世代モビリティ見本市」","lat":35.0091,"lon":138.497,"state":"active","id":null},{"event_id":"137428","title":"Kamakura Mok Mok Hack 48","url":"https://kamkura-mokmok.connpass.com/event/137428/","shortener_url":null,"started_at":"2019-07-06T11:00:00.000+09:00","ended_at":"2019-07-06T13:00:00.000+09:00","limit_number":7,"address":"神奈川県 鎌倉市由比ガ浜1丁目12-8","place":"HOUSE YUIGAHAMA","lat":35.3202,"lon":139.55,"state":"active","id":null},{"event_id":"94081","title":"【非構造化データなんかこわくない】３回で学ぶ！OpenCVではじめる画像処理【基礎編】","url":"https://soleildatadojo.doorkeeper.jp/events/94081","shortener_url":null,"started_at":"2019-07-22T19:30:00.000+09:00","ended_at":"2019-08-05T21:30:00.000+09:00","limit_number":8,"address":"大阪府大阪市北区西天満二丁目5番3号(堂島深川ビル3階)","place":"SCRIBBLE OSAKA LAB（SOL）（大阪メトロ御堂筋線「淀屋橋」駅から徒歩４分）","lat":null,"lon":null,"state":"active","id":null},{"event_id":"93721","title":"Startup Weekend 岡山 #3 振り返りイベント@イコットニコット","url":"https://swokayama.doorkeeper.jp/events/93721","shortener_url":null,"started_at":"2019-07-23T19:00:00.000+09:00","ended_at":"2019-07-23T21:00:00.000+09:00","limit_number":90,"address":"〒700-0023 岡山県岡山市北区駅前町1丁目8番18号 イコットニコット2F","place":"ワンダーウォール","lat":null,"lon":null,"state":"active","id":null},{"event_id":"729328","title":"「１８時間で新規事業案を作れ。」ブロックチェーン ビジネス ハッカソン #5【バイナリースター】","url":"http://blockchainbusinesshackathon7.peatix.com","shortener_url":"https://bit.ly/2XhsNqt","started_at":"2019-07-27T09:30:00.000+09:00","ended_at":"2019-07-30T08:59:59.000+09:00","limit_number":null,"address":"1丁目8−19 キラリトギンザ11階","place":"BINARYSTAR 株式会社","lat":35.6744,"lon":139.769,"state":"active","id":null},{"event_id":"729496","title":"マレーシアカフェ 政権交代から1年、社会の変化とペナンでの活動","url":"http://parcic-malaysiacafe-201907.peatix.com","shortener_url":null,"started_at":"2019-07-13T14:00:00.000+09:00","ended_at":"2019-07-16T08:59:59.000+09:00","limit_number":null,"address":"東京都千代田区神田淡路町1-7-11 東洋ビル2F","place":"特定非営利活動法人パルシック","lat":35.6959,"lon":139.767,"state":"active","id":null},{"event_id":"733280","title":"「建設×テクノロジー」vol.1 テクノロジーで建設業界の構造改革に挑戦するUNION TECと業界の未来を考える会 〜70年間変わらなかった建設業の流通構造をITで変える〜","url":"http://peatix.com/event/733280","shortener_url":null,"started_at":"2019-07-10T19:00:00.000+09:00","ended_at":"2019-07-13T08:59:59.000+09:00","limit_number":null,"address":"渋谷区渋谷3丁目9−10 渋谷アサヒビル5階","place":"Inc-line","lat":35.6572,"lon":139.704,"state":"active","id":null},{"event_id":"137629","title":"第17回 PCNひろしま こどもプログラミング教室","url":"https://pcn-hiroshima.connpass.com/event/137629/","shortener_url":null,"started_at":"2019-07-28T10:30:00.000+09:00","ended_at":"2019-07-28T12:30:00.000+09:00","limit_number":14,"address":"オンライン","place":"オンライン","lat":34.3941,"lon":132.459,"state":"active","id":null},{"event_id":"94127","title":"【大阪開催】みんなでKaggleもくもく会#2","url":"https://soleildatadojo.doorkeeper.jp/events/94127","shortener_url":null,"started_at":"2019-07-28T13:00:00.000+09:00","ended_at":"2019-07-28T16:30:00.000+09:00","limit_number":6,"address":"大阪府大阪市北区西天満二丁目5番3号(堂島深川ビル3階)","place":"SCRIBBLE OSAKA LAB（SOL）（大阪メトロ御堂筋線「淀屋橋」駅から徒歩４分）","lat":null,"lon":null,"state":"active","id":null},{"event_id":"137709","title":"ONE JAPANハッカソン 0からはじめるIBM Cloud体験会","url":"https://onejapanhackathon.connpass.com/event/137709/","shortener_url":"https://bit.ly/2Xnda0H","started_at":"2019-07-16T19:00:00.000+09:00","ended_at":"2019-07-16T21:00:00.000+09:00","limit_number":25,"address":"神奈川県横浜市西区みなとみらい2-3-3 クイーンズタワーB棟9階","place":"富士通エフサス みなとみらいInnovation \u0026 Future Center","lat":35.4565,"lon":139.634,"state":"active","id":null},{"event_id":"94153","title":"『Python, Machine Learning \u0026 Raspberry PI』もくもく会#27","url":"https://soleildatadojo.doorkeeper.jp/events/94153","shortener_url":null,"started_at":"2019-07-10T19:30:00.000+09:00","ended_at":"2019-07-10T21:30:00.000+09:00","limit_number":8,"address":"大阪府大阪市北区西天満二丁目5番3号(堂島深川ビル3階)","place":"SCRIBBLE OSAKA LAB（SOL）（大阪メトロ御堂筋線「淀屋橋」駅から徒歩４分）","lat":null,"lon":null,"state":"active","id":null},{"event_id":"733332","title":"＊夏休み企画＊プログラミング体験会～IchigoJamを作ってみよう～7月22日","url":"http://peatix.com/event/733332","shortener_url":null,"started_at":"2019-07-22T13:30:00.000+09:00","ended_at":"2019-07-25T08:59:59.000+09:00","limit_number":null,"address":"〒916-0025, 旭町1丁目6-6, 鯖江市","place":"Hana道場 - Hana Open Innovation Dojo -","lat":35.9446,"lon":136.186,"state":"active","id":null},{"event_id":"733331","title":"＊夏休み企画＊プログラミング体験会～IchigoJamを作ってみよう～7月21日","url":"http://peatix.com/event/733331","shortener_url":null,"started_at":"2019-07-21T13:30:00.000+09:00","ended_at":"2019-07-24T08:59:59.000+09:00","limit_number":null,"address":"〒916-0025, 旭町1丁目6-6, 鯖江市","place":"Hana道場 - Hana Open Innovation Dojo -","lat":35.9446,"lon":136.186,"state":"active","id":null},{"event_id":"734610","title":"わかやま「the仕事人」展","url":"http://peatix.com/event/734610","shortener_url":null,"started_at":"2019-07-12T18:30:00.000+09:00","ended_at":"2019-07-15T08:59:59.000+09:00","limit_number":null,"address":"千代田区有楽町2丁目10−1","place":"東京交通会館","lat":35.675,"lon":139.764,"state":"active","id":null},{"event_id":"730399","title":"PLAY DATE! with da ka:po Late Starters Orchestra","url":"http://playdate201907-dakapolso.peatix.com","shortener_url":null,"started_at":"2019-07-16T20:30:00.000+09:00","ended_at":"2019-07-19T08:59:59.000+09:00","limit_number":null,"address":"496 Upper Bukit Timah Rd, Singapore 678099","place":"Methodist School of Music Lecture Room","lat":0.0,"lon":0.0,"state":"active","id":null},{"event_id":"730346","title":"家業×SDGs  日本の中小企業のサーキュラーエコノミー化を目指して！","url":"http://kagyoinnovationlabo-sdgs.peatix.com","shortener_url":null,"started_at":"2019-07-11T18:00:00.000+09:00","ended_at":"2019-07-14T08:59:59.000+09:00","limit_number":null,"address":"千代田区一ツ橋1丁目1−1 毎日新聞東京本社1階","place":"毎日メディアカフェ","lat":35.6907,"lon":139.758,"state":"active","id":null},{"event_id":"731826","title":"【魔女☆Maison講座】ヘイズ中村『タロット初級講座（ライダーウエイト版）』（第一回）","url":"http://peatix.com/event/731826","shortener_url":null,"started_at":"2019-07-13T11:00:00.000+09:00","ended_at":"2019-07-16T08:59:59.000+09:00","limit_number":null,"address":"千葉県浦安市北栄1-15-10","place":"魔女☆Maison 本店","lat":35.6655,"lon":139.894,"state":"active","id":null},{"event_id":"731518","title":"【参加無料】“極端”な未来シナリオから新規事業・サービスを考えよう ー SXSWから独自の進化を遂げた「BORDER SESSIONS」報告会","url":"http://white-servicedesigntalk001.peatix.com","shortener_url":null,"started_at":"2019-07-11T18:20:00.000+09:00","ended_at":"2019-07-14T08:59:59.000+09:00","limit_number":null,"address":"港区六本木1丁目4−5 アークヒルズ サウスタワー","place":"WeWorkアークヒルズサウス","lat":35.6657,"lon":139.739,"state":"active","id":null},{"event_id":"137785","title":"IHANet meeting 21 @神戸(合宿)","url":"https://ihanet.connpass.com/event/137785/","shortener_url":"https://bit.ly/2Xnf3Kx","started_at":"2019-07-26T18:00:00.000+09:00","ended_at":"2019-07-28T13:00:00.000+09:00","limit_number":12,"address":"神戸市北区道場町生野字 ロクゴ318-2 (神戸セミナーハウス)","place":"神戸セミナーハウス","lat":34.8515,"lon":135.244,"state":"active","id":null},{"event_id":"137752","title":"スクラム道関西 オープン・ジャム","url":"https://scrumdo-kansai.connpass.com/event/137752/","shortener_url":null,"started_at":"2019-07-11T19:30:00.000+09:00","ended_at":"2019-07-11T21:30:00.000+09:00","limit_number":25,"address":"大阪府大阪市北区末広町3-7","place":"TAM COWORKING OSAKA","lat":34.7019,"lon":135.51,"state":"active","id":null},{"event_id":"93979","title":"Jasmy IDEATHON vol.1〜IoT × ブロックチェーンで未来ビジネスを創出するアイデアソン〜","url":"https://jasmy-league.doorkeeper.jp/events/93979","shortener_url":"https://bit.ly/2Xo0h6i","started_at":"2019-07-27T13:00:00.000+09:00","ended_at":"2019-07-27T17:50:00.000+09:00","limit_number":null,"address":"東京都千代田区霞が関一丁目4番1号 日土地ビル2F","place":"SENQ霞ヶ関 ラウンジ","lat":null,"lon":null,"state":"active","id":null},{"event_id":"107190","title":"Games Resmi PKV ","url":"https://atnd.org/events/107190","shortener_url":null,"started_at":"2019-07-02T00:00:00.000+09:00","ended_at":"2020-07-03T00:00:00.000+09:00","limit_number":50,"address":"","place":"regina prischilla","lat":null,"lon":null,"state":"closed","id":null},{"event_id":"732128","title":"おしえて縄文人 モノってなんだっけ?","url":"http://peatix.com/event/732128","shortener_url":null,"started_at":"2019-07-25T19:30:00.000+09:00","ended_at":"2019-07-28T08:59:59.000+09:00","limit_number":null,"address":"東京都中央区京橋3-3-11","place":"kyobashi TORSO　","lat":35.6756,"lon":139.768,"state":"active","id":null},{"event_id":"692993","title":"【満員御礼】ペットロスを知る～その時私はどうなるんだろう～","url":"http://clover-20190710.peatix.com","shortener_url":null,"started_at":"2019-07-10T14:30:00.000+09:00","ended_at":"2019-07-13T08:59:59.000+09:00","limit_number":null,"address":"神奈川県横浜市西区高島2-11-2 スカイメナー横浜909号室","place":"テラス会議室","lat":35.4629,"lon":139.622,"state":"active","id":null},{"event_id":"728186","title":"私たちCTIAとランチ会しませんか？【ブロックチェーン】","url":"http://peatix.com/event/728186","shortener_url":null,"started_at":"2019-07-19T12:30:00.000+09:00","ended_at":"2019-07-22T08:59:59.000+09:00","limit_number":null,"address":"大阪市中央区西心斎橋1丁目15-7心斎橋アサノビル6階","place":" 株式会社CTIA(お待ち合わせ場所)","lat":34.6744,"lon":135.498,"state":"active","id":null},{"event_id":"728173","title":"６、7月限定！私達CTIAとランチ会しませんか？【ブロックチェーン】","url":"http://peatix.com/event/728173","shortener_url":null,"started_at":"2019-07-15T12:30:00.000+09:00","ended_at":"2019-07-18T08:59:59.000+09:00","limit_number":null,"address":"大阪市中央区西心斎橋1丁目15-7心斎橋アサノビル6階","place":" 株式会社CTIA(お待ち合わせ場所)","lat":34.6744,"lon":135.498,"state":"active","id":null},{"event_id":"728157","title":"６、7月限定！私達CTIAとランチ会しませんか？【ブロックチェーン】","url":"http://peatix.com/event/728157","shortener_url":null,"started_at":"2019-07-10T12:30:00.000+09:00","ended_at":"2019-07-13T08:59:59.000+09:00","limit_number":null,"address":"大阪市中央区西心斎橋1丁目15-7心斎橋アサノビル6階","place":"株式会社CTIA(お待ち合わせ場所)","lat":34.6744,"lon":135.498,"state":"active","id":null},{"event_id":"728206","title":"私たちCTIAとランチ会しませんか？【ブロックチェーン】","url":"http://peatix.com/event/728206","shortener_url":null,"started_at":"2019-07-25T12:30:00.000+09:00","ended_at":"2019-07-28T08:59:59.000+09:00","limit_number":null,"address":"大阪市中央区西心斎橋1丁目15-7心斎橋アサノビル6階","place":"株式会社CTIA(お待ち合わせ場所)","lat":34.6744,"lon":135.498,"state":"active","id":null},{"event_id":"728218","title":"私たちCTIAとランチ会しませんか？【ブロックチェーン】","url":"http://peatix.com/event/728218","shortener_url":null,"started_at":"2019-07-29T12:30:00.000+09:00","ended_at":"2019-08-01T08:59:59.000+09:00","limit_number":null,"address":"大阪市中央区西心斎橋1丁目15-7心斎橋アサノビル6階","place":"株式会社CTIA(お待ち合わせ場所)","lat":34.6744,"lon":135.498,"state":"active","id":null},{"event_id":"728175","title":"６、7月限定！私達CTIAとランチ会しませんか？【ブロックチェーン】","url":"http://peatix.com/event/728175","shortener_url":null,"started_at":"2019-07-16T12:30:00.000+09:00","ended_at":"2019-07-19T08:59:59.000+09:00","limit_number":null,"address":"大阪市中央区西心斎橋1丁目15-7心斎橋アサノビル6階","place":"株式会社CTIA(お待ち合わせ場所)","lat":34.6744,"lon":135.498,"state":"active","id":null},{"event_id":"728212","title":"私たちCTIAとランチ会しませんか？【ブロックチェーン】","url":"http://peatix.com/event/728212","shortener_url":null,"started_at":"2019-07-26T12:30:00.000+09:00","ended_at":"2019-07-29T08:59:59.000+09:00","limit_number":null,"address":"大阪市中央区西心斎橋1丁目15-7心斎橋アサノビル6階","place":"株式会社CTIA(お待ち合わせ場所)","lat":34.6744,"lon":135.498,"state":"active","id":null},{"event_id":"728045","title":"６、7月限定！私達CTIAとランチ会しませんか？【ブロックチェーン】","url":"http://peatix.com/event/728045","shortener_url":null,"started_at":"2019-07-04T12:30:00.000+09:00","ended_at":"2019-07-07T08:59:59.000+09:00","limit_number":null,"address":"大阪市中央区西心斎橋1丁目15-7心斎橋アサノビル6階","place":"株式会社CTIA(お待ち合わせ場所)","lat":34.6744,"lon":135.498,"state":"active","id":null},{"event_id":"728201","title":"私たちCTIAとランチ会しませんか？【ブロックチェーン】","url":"http://peatix.com/event/728201","shortener_url":null,"started_at":"2019-07-24T12:30:00.000+09:00","ended_at":"2019-07-27T08:59:59.000+09:00","limit_number":null,"address":"大阪市中央区西心斎橋1丁目15-7心斎橋アサノビル6階","place":"株式会社CTIA(お待ち合わせ場所)","lat":34.6744,"lon":135.498,"state":"active","id":null},{"event_id":"728190","title":"私たちCTIAとランチ会しませんか？【ブロックチェーン】","url":"http://peatix.com/event/728190","shortener_url":null,"started_at":"2019-07-22T12:30:00.000+09:00","ended_at":"2019-07-25T08:59:59.000+09:00","limit_number":null,"address":"大阪市中央区西心斎橋1丁目15-7心斎橋アサノビル6階","place":"株式会社CTIA(お待ち合わせ場所)","lat":34.6744,"lon":135.498,"state":"active","id":null},{"event_id":"728183","title":"私たちCTIAとランチ会しませんか？【ブロックチェーン】","url":"http://peatix.com/event/728183","shortener_url":null,"started_at":"2019-07-18T12:30:00.000+09:00","ended_at":"2019-07-21T08:59:59.000+09:00","limit_number":null,"address":"大阪市中央区西心斎橋1丁目15-7心斎橋アサノビル6階","place":"株式会社CTIA(お待ち合わせ場所)","lat":34.6744,"lon":135.498,"state":"active","id":null},{"event_id":"728229","title":"私たちCTIAとランチ会しませんか？【ブロックチェーン】","url":"http://peatix.com/event/728229","shortener_url":null,"started_at":"2019-07-31T12:30:00.000+09:00","ended_at":"2019-08-03T08:59:59.000+09:00","limit_number":null,"address":"大阪市中央区西心斎橋1丁目15-7心斎橋アサノビル6階","place":"株式会社CTIA(お待ち合わせ場所)","lat":34.6744,"lon":135.498,"state":"active","id":null},{"event_id":"728166","title":"６、7月限定！私達CTIAとランチ会しませんか？【ブロックチェーン】","url":"http://peatix.com/event/728166","shortener_url":null,"started_at":"2019-07-11T12:30:00.000+09:00","ended_at":"2019-07-14T08:59:59.000+09:00","limit_number":null,"address":"大阪市中央区西心斎橋1丁目15-7心斎橋アサノビル6階","place":"株式会社CTIA(お待ち合わせ場所)","lat":34.6744,"lon":135.498,"state":"active","id":null},{"event_id":"728225","title":"私たちCTIAとランチ会しませんか？【ブロックチェーン】","url":"http://peatix.com/event/728225","shortener_url":null,"started_at":"2019-07-30T12:30:00.000+09:00","ended_at":"2019-08-02T08:59:59.000+09:00","limit_number":null,"address":"大阪市中央区西心斎橋1丁目15-7心斎橋アサノビル6階","place":"株式会社CTIA(お待ち合わせ場所)","lat":34.6744,"lon":135.498,"state":"active","id":null},{"event_id":"728136","title":"６、7月限定！私達CTIAとランチ会しませんか？【ブロックチェーン】","url":"http://peatix.com/event/728136","shortener_url":null,"started_at":"2019-07-08T12:30:00.000+09:00","ended_at":"2019-07-11T08:59:59.000+09:00","limit_number":null,"address":"大阪市中央区西心斎橋1丁目15-7心斎橋アサノビル6階","place":"株式会社CTIA(お待ち合わせ場所)","lat":34.6744,"lon":135.498,"state":"active","id":null},{"event_id":"728050","title":"６、7月限定！私達CTIAとランチ会しませんか？【ブロックチェーン】","url":"http://peatix.com/event/728050","shortener_url":null,"started_at":"2019-07-05T12:30:00.000+09:00","ended_at":"2019-07-08T08:59:59.000+09:00","limit_number":null,"address":"大阪市中央区西心斎橋1丁目15-7心斎橋アサノビル6階","place":" 株式会社CTIA(お待ち合わせ場所)","lat":34.6744,"lon":135.498,"state":"active","id":null},{"event_id":"728040","title":"６、7月限定！私達CTIAとランチ会しませんか？【ブロックチェーン】","url":"http://peatix.com/event/728040","shortener_url":null,"started_at":"2019-07-03T12:30:00.000+09:00","ended_at":"2019-07-06T08:59:59.000+09:00","limit_number":null,"address":"大阪市中央区西心斎橋1丁目15-7心斎橋アサノビル6階","place":"株式会社CTIA(お待ち合わせ場所)","lat":34.6744,"lon":135.498,"state":"active","id":null},{"event_id":"728170","title":"６、7月限定！私達CTIAとランチ会しませんか？【ブロックチェーン】","url":"http://peatix.com/event/728170","shortener_url":null,"started_at":"2019-07-12T12:30:00.000+09:00","ended_at":"2019-07-15T08:59:59.000+09:00","limit_number":null,"address":"大阪市中央区西心斎橋1丁目15-7心斎橋アサノビル6階","place":"株式会社CTIA(お待ち合わせ場所)","lat":34.6744,"lon":135.498,"state":"active","id":null},{"event_id":"728148","title":"６、7月限定！私達CTIAとランチ会しませんか？【ブロックチェーン】","url":"http://peatix.com/event/728148","shortener_url":null,"started_at":"2019-07-09T12:30:00.000+09:00","ended_at":"2019-07-12T08:59:59.000+09:00","limit_number":null,"address":"大阪市中央区西心斎橋1丁目15-7心斎橋アサノビル6階","place":" 株式会社CTIA(お待ち合わせ場所)","lat":34.6744,"lon":135.498,"state":"active","id":null},{"event_id":"728178","title":"私たちCTIAとランチ会しませんか？【ブロックチェーン】","url":"http://peatix.com/event/728178","shortener_url":null,"started_at":"2019-07-17T12:30:00.000+09:00","ended_at":"2019-07-20T08:59:59.000+09:00","limit_number":null,"address":"大阪市中央区西心斎橋1丁目15-7心斎橋アサノビル6階","place":"株式会社CTIA(お待ち合わせ場所)","lat":34.6744,"lon":135.498,"state":"active","id":null},{"event_id":"726430","title":"わかりやすいと話題の経済書、『父が娘に語る 美しく、深く、壮大で、とんでもなくわかりやすい経済の話。』を読む。７月の「本で遊ぶじかん」","url":"http://sugoibook201907.peatix.com","shortener_url":null,"started_at":"2019-07-17T19:00:00.000+09:00","ended_at":"2019-07-20T08:59:59.000+09:00","limit_number":null,"address":"〒107-0061東京都港区北青山3-6-23 青山ダイハンビル10階","place":"SUGOI","lat":35.6644,"lon":139.711,"state":"active","id":null},{"event_id":"717375","title":"tokyobike x いづみれいな 「手あそびトンタタ -ふしぎな音な〜んだ？-」","url":"http://peatix.com/event/717375","shortener_url":null,"started_at":"2019-07-13T11:00:00.000+09:00","ended_at":"2019-07-16T08:59:59.000+09:00","limit_number":null,"address":"杉並区杉並区高円寺南2−51−4","place":"tokyobike shop 高円寺","lat":35.7023,"lon":139.65,"state":"active","id":null},{"event_id":"718834","title":"参加者皆さんが研究員！居心地ってな〜んだ？?居心地研究所 vol.00","url":"http://igokochilab0728.peatix.com","shortener_url":null,"started_at":"2019-07-28T10:30:00.000+09:00","ended_at":"2019-07-31T08:59:59.000+09:00","limit_number":null,"address":"東京都渋谷区代々木4-50-13","place":"Atlya参宮橋","lat":35.6784,"lon":139.692,"state":"active","id":null},{"event_id":"721270","title":"わたしの創業ストーリー　～創業者のリアルな体験談をききませんか～","url":"http://peatix.com/event/721270","shortener_url":null,"started_at":"2019-07-11T12:30:00.000+09:00","ended_at":"2019-07-14T08:59:59.000+09:00","limit_number":null,"address":"福岡市中央区大名2丁目6−11","place":"福岡市スタートアップカフェ","lat":0.0,"lon":0.0,"state":"active","id":null},{"event_id":"727497","title":"Meet ”Beyond Next Ventures”  ～ 海外へ活動を広げる、研究領域のアクセラレーターに加わりませんか？ ～","url":"http://bnv20190729.peatix.com","shortener_url":null,"started_at":"2019-07-29T19:00:00.000+09:00","ended_at":"2019-08-01T08:59:59.000+09:00","limit_number":null,"address":"東京都中央区日本橋本町1-4-3 日本橋ムロホンビル1","place":"Beyond Next Venturesオフィス 5F コミュニティスペース","lat":0.0,"lon":0.0,"state":"active","id":null},{"event_id":"660485","title":"【親子で学ぼう！】\"音楽の力\"で子どもの可能性を伸ばしてみませんか？","url":"http://peatix.com/event/660485","shortener_url":null,"started_at":"2019-07-14T11:30:00.000+09:00","ended_at":"2019-07-17T08:59:59.000+09:00","limit_number":null,"address":"神奈川県川崎市新丸子町749-6 GSハイム102","place":"武蔵小杉会場【レッスンスタジオ「話芸写」】","lat":35.5804,"lon":139.66,"state":"active","id":null},{"event_id":"727550","title":"7/14.15.16 着付け屋ラクロ　祇園祭で夏の京都を満喫しませんか？","url":"http://yukata0714.peatix.com","shortener_url":null,"started_at":"2019-07-14T12:00:00.000+09:00","ended_at":"2019-07-17T08:59:59.000+09:00","limit_number":null,"address":"京都市中京区常真横町186 ザシェアホテルズラクロ京都","place":"THE SHARE HOTELS RAKURO 京都","lat":35.0172,"lon":135.758,"state":"active","id":null},{"event_id":"665637","title":"※キャンセルのため4枠追加【3歳～6歳向け】ブロックをつかって数をたいけんしてみよう！＠恵比寿","url":"http://mathchannel201907213am.peatix.com","shortener_url":null,"started_at":"2019-07-21T10:00:00.000+09:00","ended_at":"2019-07-24T08:59:59.000+09:00","limit_number":null,"address":"東京都渋谷区恵比寿1-15-4 三木ビル2F","place":"さんすうスクール「SPICA」恵比寿教室","lat":35.6476,"lon":139.712,"state":"active","id":null},{"event_id":"703518","title":"7月6日（土）13：00~16:00　かものはしで一緒にボランティアをしませんか？@恵比寿","url":"http://peatix.com/event/703518","shortener_url":null,"started_at":"2019-07-06T13:00:00.000+09:00","ended_at":"2019-07-09T08:59:59.000+09:00","limit_number":null,"address":"東京都渋谷区広尾5-23-5 長谷部第一ビル402号室","place":"かものはしプロジェクト事務所（恵比寿）","lat":35.6485,"lon":139.718,"state":"active","id":null},{"event_id":"718785","title":"【目黒駅徒歩5分】発言をスピーディーに書き出してまとめるファシリテーションで会議革命しませんか？（８期生募集）","url":"http://1mapmeeting-8.peatix.com","shortener_url":null,"started_at":"2019-07-13T10:00:00.000+09:00","ended_at":"2019-07-16T08:59:59.000+09:00","limit_number":null,"address":"東京都目黒区下目黒1-3-2","place":"ライオンズマンション目黒第3 201号室","lat":35.6341,"lon":139.713,"state":"active","id":null},{"event_id":"679329","title":"【ガイド実務研修（1回目）】千葉市 ガイド希望者向け ～あなただけの千葉市を紹介しませんか？～","url":"http://sharechiba0707pm.peatix.com","shortener_url":null,"started_at":"2019-07-07T13:30:00.000+09:00","ended_at":"2019-07-10T08:59:59.000+09:00","limit_number":null,"address":"千葉県千葉市中央区富士見1-1-1","place":"ハロー会議室千葉駅前　RoomB","lat":35.6127,"lon":140.116,"state":"active","id":null},{"event_id":"679315","title":"【ホームシェア実務研修（1回目）】千葉市 ホームシェアホスト希望者向け ～新しい出会いと交流を楽しみませんか？～","url":"http://sharechiba0707am.peatix.com","shortener_url":null,"started_at":"2019-07-07T10:00:00.000+09:00","ended_at":"2019-07-10T08:59:59.000+09:00","limit_number":null,"address":"千葉県千葉市中央区富士見1-1-1","place":"ハロー会議室千葉駅前　RoomB","lat":35.6127,"lon":140.116,"state":"active","id":null},{"event_id":"708653","title":"＜シャントエコーを学びませんか？「プローブを握ったことがない方」「ステップアップしたい方」におすすめです！＞","url":"http://peatix.com/event/708653","shortener_url":null,"started_at":"2019-07-28T10:00:00.000+09:00","ended_at":"2019-07-31T08:59:59.000+09:00","limit_number":null,"address":"台東区台東4丁目8−7 ヒューリック仲御徒町ビル8階","place":"メドフィット【MEDFit】","lat":35.7061,"lon":139.777,"state":"active","id":null},{"event_id":"679348","title":"【おもてなし基礎研修】千葉市　ホームシェアホスト・ガイド希望者向け ～2020年に向けて、おもてなしの心を学びませんか？～","url":"http://sharechiba0720.peatix.com","shortener_url":null,"started_at":"2019-07-20T14:00:00.000+09:00","ended_at":"2019-07-23T08:59:59.000+09:00","limit_number":null,"address":"千葉県千葉市中央区富士見1-1-1","place":"ハロー会議室千葉駅前　RoomB","lat":35.6127,"lon":140.116,"state":"active","id":null},{"event_id":"697343","title":"「膝」が痛くて走れないマラソンランナーのための膝痛改善教室(走りません) リンクフィットネス主催 皇居 RUNCUBE","url":"http://peatix.com/event/697343","shortener_url":null,"started_at":"2019-07-20T11:00:00.000+09:00","ended_at":"2019-07-23T08:59:59.000+09:00","limit_number":null,"address":"東京都千代田区神田錦町3-21","place":"【集合/受付】ランニングステーションRUNCUBE","lat":35.6915,"lon":139.762,"state":"active","id":null},{"event_id":"716372","title":"障害の有無をこえたインクルーシブな社会の考え方 〜みんな違って、みんないい…んだっけ？〜  Talk Studio  [ mix ] 002","url":"http://collable-mix-002.peatix.com","shortener_url":null,"started_at":"2019-07-12T19:00:00.000+09:00","ended_at":"2019-07-15T08:59:59.000+09:00","limit_number":null,"address":"渋谷区恵比寿4丁目6−1 8階 恵比寿MFビル","place":"Peatix Japan株式会社","lat":35.6458,"lon":139.712,"state":"active","id":null},{"event_id":"715299","title":"【満席となりました】★プロの物件選定方法をたった２時間でマスターしてプロの仲間入りをしませんか？","url":"http://peatix.com/event/715299","shortener_url":null,"started_at":"2019-07-20T13:30:00.000+09:00","ended_at":"2019-07-23T08:59:59.000+09:00","limit_number":null,"address":"東京都新宿区大久保2-4-12","place":"弊社セミナールーム","lat":35.7041,"lon":139.708,"state":"active","id":null},{"event_id":"658325","title":"※満員御礼※【ぶっちゃけ途上国支援で飯くってけるんですか？】NPO代表がお答えします。 =NPO/国際協力のリアルトーク＝","url":"http://realseminar0715.peatix.com","shortener_url":null,"started_at":"2019-07-15T15:45:00.000+09:00","ended_at":"2019-07-18T08:59:59.000+09:00","limit_number":null,"address":"新宿区市谷本村町10−5 JICA市ヶ谷ビル","place":"JICA地球ひろば","lat":35.6945,"lon":139.731,"state":"active","id":null},{"event_id":"715298","title":"★プロの物件選定方法をたった２時間でマスターしてプロの仲間入りをしませんか？非公開情報満載！","url":"http://peatix.com/event/715298","shortener_url":null,"started_at":"2019-07-07T10:00:00.000+09:00","ended_at":"2019-07-10T08:59:59.000+09:00","limit_number":null,"address":"東京都新宿区大久保2-4-12","place":"弊社セミナールーム","lat":35.7041,"lon":139.708,"state":"active","id":null},{"event_id":"705542","title":"「実践」と「学び」を通じて、革新的新薬・医療の創出に参加しませんか？仕事と並行できる Blockbuster TOKYO事業創出サポーター【説明会】","url":"http://bbt20190717.peatix.com","shortener_url":null,"started_at":"2019-07-17T19:00:00.000+09:00","ended_at":"2019-07-20T08:59:59.000+09:00","limit_number":null,"address":"東京都中央区日本橋室町1-5-5","place":"日本橋ライフサイエンスハブ（室町ちばぎん三井ビルオフィス棟 8 階）","lat":35.6862,"lon":139.774,"state":"active","id":null},{"event_id":"660113","title":"Excellent Womanセミナー 「タダでハワイに行きたい人は他にいませんか？」～実践FPが教える非常識な０円海外旅行術とは～","url":"http://20190706-excellentwoman.peatix.com","shortener_url":null,"started_at":"2019-07-06T14:00:00.000+09:00","ended_at":"2019-07-09T08:59:59.000+09:00","limit_number":null,"address":"東京都港区芝4-16-2","place":"東京都港区芝4-16-2 カテリーナ三田 E3401 三田サロン（東京オフィス)","lat":35.6477,"lon":139.751,"state":"active","id":null},{"event_id":"731305","title":"H³ 第24回：医療者のためのセキュリティ超入門","url":"http://hhh24.peatix.com","shortener_url":"https://bit.ly/2JkCnii","started_at":"2019-07-18T19:00:00.000+09:00","ended_at":"2019-07-21T08:59:59.000+09:00","limit_number":null,"address":"東京都中央区日本橋本町2-3-11","place":"日本橋ライフサイエンスビルディング 313号室","lat":35.6877,"lon":139.776,"state":"active","id":null},{"event_id":"725697","title":"とよさきかんじ×金井真紀 「虫と和解せよ！　〜元ヤンと虫ぎらいが本を作るまで〜」 『手すりの虫観察ガイド: 公園・緑地で見つかる四季の虫』（文一総合出版）刊行記念","url":"http://peatix.com/event/725697","shortener_url":null,"started_at":"2019-07-14T15:00:00.000+09:00","ended_at":"2019-07-17T08:59:59.000+09:00","limit_number":null,"address":"世田谷区北沢2-5-2 BIG BEN B1F","place":"本屋B\u0026B","lat":0.0,"lon":0.0,"state":"active","id":null},{"event_id":"698727","title":"＃ななえもん神戸　ＳＮＳで人生を変えろ！","url":"http://nanaemon-koube.peatix.com","shortener_url":null,"started_at":"2019-07-14T13:00:00.000+09:00","ended_at":"2019-07-17T08:59:59.000+09:00","limit_number":null,"address":"神戸市中央区雲井通5丁目3−1 サンパル6F","place":"起業プラザひょうご 三宮 コワーキング","lat":34.6956,"lon":135.197,"state":"active","id":null},{"event_id":"713624","title":"【無料】図解のための「システム思考」ワークショップ体験会 #グラレコ世界改変 ( #スケッチノート朝活 シリーズ)","url":"http://peatix.com/event/713624","shortener_url":null,"started_at":"2019-07-07T09:00:00.000+09:00","ended_at":"2019-07-10T08:59:59.000+09:00","limit_number":null,"address":"渋谷区道玄坂2丁目10−7 2F 新大宗ビル1号館","place":"BOOK LAB TOKYO - 書店とコーヒースタンド 渋谷店","lat":35.6583,"lon":139.697,"state":"active","id":null},{"event_id":"710903","title":"【東京体験版7月】初心者歓迎！他では絶対教えてくれない！楽しく学ぶユーザー視点のUIデザイン","url":"http://peatix.com/event/710903","shortener_url":null,"started_at":"2019-07-12T19:00:00.000+09:00","ended_at":"2019-07-15T08:59:59.000+09:00","limit_number":null,"address":"千代田区神田鍛冶町3丁目2−2","place":"エッサム神田ホール1号館","lat":35.6935,"lon":139.771,"state":"active","id":null},{"event_id":"732968","title":"【東京7月開催】03：ユーザーのニーズとリテラシーを基準に考える〜UIデザイン","url":"http://peatix.com/event/732968","shortener_url":null,"started_at":"2019-07-15T13:00:00.000+09:00","ended_at":"2019-07-18T08:59:59.000+09:00","limit_number":null,"address":"千代田区内神田3丁目24−5","place":"エッサム神田ホール２号館","lat":35.6925,"lon":139.769,"state":"active","id":null},{"event_id":"732972","title":"02【東京7月開催】UIデザインの常識を改める「認知学から学ぶUIの基本」","url":"http://peatix.com/event/732972","shortener_url":null,"started_at":"2019-07-14T16:00:00.000+09:00","ended_at":"2019-07-17T08:59:59.000+09:00","limit_number":null,"address":"千代田区内神田3丁目24−5","place":"エッサム神田ホール２号館","lat":35.6925,"lon":139.769,"state":"active","id":null},{"event_id":"732970","title":"【東京7月開催】04：直感的で快適なWEB環境を作る｢スマホ用UIデザイン｣","url":"http://peatix.com/event/732970","shortener_url":null,"started_at":"2019-07-15T16:45:00.000+09:00","ended_at":"2019-07-18T08:59:59.000+09:00","limit_number":null,"address":"千代田区内神田3丁目24−5","place":"エッサム神田ホール２号館","lat":35.6925,"lon":139.769,"state":"active","id":null},{"event_id":"732971","title":"01【東京7月開催】ユーザー視点のUIデザインへのヒント「街中のサイン表示」","url":"http://peatix.com/event/732971","shortener_url":null,"started_at":"2019-07-14T13:00:00.000+09:00","ended_at":"2019-07-17T08:59:59.000+09:00","limit_number":null,"address":"千代田区内神田3丁目24−5","place":"エッサム神田ホール２号館","lat":35.6925,"lon":139.769,"state":"active","id":null},{"event_id":"133712","title":"VMware DevOps Meetup #2","url":"https://vmware.connpass.com/event/133712/","shortener_url":null,"started_at":"2019-07-05T19:00:00.000+09:00","ended_at":"2019-07-05T21:30:00.000+09:00","limit_number":206,"address":"東京都中央区銀座7丁目16番12号(G-7ビルディング)","place":"富士通クラウドテクノロジーズセミナールーム","lat":35.6666,"lon":139.766,"state":"active","id":null},{"event_id":"138162","title":"ONE JAPAN Hackathon はじめての機械学習プラットフォームハンズオン","url":"https://onejapanhackathon.connpass.com/event/138162/","shortener_url":"https://bit.ly/2JqBUuV","started_at":"2019-07-17T19:00:00.000+09:00","ended_at":"2019-07-17T21:00:00.000+09:00","limit_number":20,"address":"東京都港区白金1-17-3 NBF プラチナタワー10F","place":"ABEJA Office","lat":35.6446,"lon":139.735,"state":"active","id":null},{"event_id":"94347","title":"【君もベイジアンになろう！】Bayes勉強会#3","url":"https://soleildatadojo.doorkeeper.jp/events/94347","shortener_url":null,"started_at":"2019-07-24T19:30:00.000+09:00","ended_at":"2019-07-24T21:30:00.000+09:00","limit_number":6,"address":"大阪府大阪市北区西天満二丁目5番3号(堂島深川ビル3階)","place":"SCRIBBLE OSAKA LAB（SOL）（大阪メトロ御堂筋線「淀屋橋」駅から徒歩４分）","lat":null,"lon":null,"state":"active","id":null},{"event_id":"138252","title":"UX JAM 30 - UX MILK 4th Anniv. ＆ Goodbye Milkman -","url":"https://uxmilk.connpass.com/event/138252/","shortener_url":null,"started_at":"2019-07-22T19:30:00.000+09:00","ended_at":"2019-07-22T22:00:00.000+09:00","limit_number":300,"address":"東京都港区六本木3-2-1(住友不動産六本木グランドタワー24階)","place":"合同会社DMM.com","lat":35.6647,"lon":139.738,"state":"active","id":null},{"event_id":"94410","title":"【レベルと目的に応じて2冊の本で学ぶ】DeepLearning勉強会#4","url":"https://soleildatadojo.doorkeeper.jp/events/94410","shortener_url":null,"started_at":"2019-07-18T19:30:00.000+09:00","ended_at":"2019-07-18T21:30:00.000+09:00","limit_number":6,"address":"大阪府大阪市北区西天満二丁目5番3号(堂島深川ビル3階)","place":"SCRIBBLE OSAKA LAB（SOL）（大阪メトロ御堂筋線「淀屋橋」駅から徒歩４分）","lat":null,"lon":null,"state":"active","id":null},{"event_id":"707590","title":"（満席御礼）【シゴト酒場】営業ってほんとに面白い仕事なんですか？","url":"http://shigoto0714.peatix.com","shortener_url":null,"started_at":"2019-07-14T18:00:00.000+09:00","ended_at":"2019-07-17T08:59:59.000+09:00","limit_number":null,"address":"大阪市北区浮田1丁目1−8","place":"LINDA HOSTEL 106","lat":34.7085,"lon":135.509,"state":"active","id":null},{"event_id":"671753","title":"\"音楽の力\"で、子どもの可能性を伸ばしてみませんか？\u003c1歳半～3歳児対象\u003e","url":"http://peatix.com/event/671753","shortener_url":null,"started_at":"2019-07-28T11:30:00.000+09:00","ended_at":"2019-07-31T08:59:59.000+09:00","limit_number":null,"address":"神奈川県川崎市新丸子町749-6 GSハイム102","place":"武蔵小杉会場【レッスンスタジオ「話芸写」】","lat":35.5804,"lon":139.66,"state":"active","id":null},{"event_id":"739623","title":"第3回シゴトジウム「キミの可能性と その目のキラメキに かけてみたいと思ったんだ採用」","url":"http://shigotosium-003.peatix.com","shortener_url":null,"started_at":"2019-07-30T18:30:00.000+09:00","ended_at":"2019-08-02T08:59:59.000+09:00","limit_number":null,"address":"東京都港区南青山 1-24-3","place":"WeWork Nogizaka","lat":35.6676,"lon":139.726,"state":"active","id":null},{"event_id":"735834","title":"7月25日（木）企業主導型保育施設の共同利用推進セミナー＆マッチング会開催！ 経営者、人事担当者の皆さま、従業員の為に保育施設の情報を集めてみませんか？","url":"http://kigyoshudougata-matching0725.peatix.com","shortener_url":null,"started_at":"2019-07-25T13:45:00.000+09:00","ended_at":"2019-07-28T08:59:59.000+09:00","limit_number":null,"address":"中央区八重洲2丁目7−12 ヒューリック京橋ビル7F","place":"ビジョンセンター東京八重洲南口（貸し会議室）","lat":35.6771,"lon":139.768,"state":"active","id":null},{"event_id":"138532","title":"Kamakura Mok Mok Hack 49","url":"https://kamkura-mokmok.connpass.com/event/138532/","shortener_url":null,"started_at":"2019-07-13T11:00:00.000+09:00","ended_at":"2019-07-13T13:00:00.000+09:00","limit_number":7,"address":"神奈川県 鎌倉市由比ガ浜1丁目12-8","place":"HOUSE YUIGAHAMA","lat":35.3202,"lon":139.55,"state":"active","id":null},{"event_id":"737982","title":"■キャンセルで1席空きが出ました■【#複活 キックオフ説明会in横浜青葉（夜の部）】横浜で複業をはじめませんか？ ～#複活 働き方に彩りを。～","url":"http://fukukatsu-yokohamasetsumeikai0730.peatix.com","shortener_url":null,"started_at":"2019-07-30T19:00:00.000+09:00","ended_at":"2019-08-02T08:59:59.000+09:00","limit_number":null,"address":"横浜市青葉区新石川2丁目1−15","place":"横浜市たまプラーザ地域ケアプラザ","lat":35.5764,"lon":139.558,"state":"active","id":null},{"event_id":"739810","title":"■満員御礼■【#複活 キックオフ説明会in横浜青葉（昼の部）】横浜で複業をはじめませんか？ ～#複活 働き方に彩りを。～","url":"http://fukukatsu-yokohamasetsumeikai0730noon.peatix.com","shortener_url":null,"started_at":"2019-07-30T13:30:00.000+09:00","ended_at":"2019-08-02T08:59:59.000+09:00","limit_number":null,"address":"横浜市青葉区美しが丘1丁目13−10","place":"まちなかbizあおば","lat":35.579,"lon":139.555,"state":"active","id":null},{"event_id":"137826","title":"One Japan Hackathon参加者向けLINE API開発相談会","url":"https://onejapanhackathon.connpass.com/event/137826/","shortener_url":"https://bit.ly/2JpmU0k","started_at":"2019-07-22T19:00:00.000+09:00","ended_at":"2019-07-22T21:00:00.000+09:00","limit_number":40,"address":"東京都新宿区新宿四丁目1番6号 JR新宿ミライナタワー","place":"LINE株式会社 新宿オフィス","lat":35.6888,"lon":139.702,"state":"active","id":null},{"event_id":"107326","title":"PKVPoker Situs Agen Judi Online Pkv Games Apk Terbaik Di Indonesia","url":"https://atnd.org/events/107326","shortener_url":null,"started_at":"2019-07-08T06:30:00.000+09:00","ended_at":"2019-07-10T08:59:59.000+09:00","limit_number":null,"address":"jln.asahan, Medan,Sumatera Utara","place":"PKV Poker","lat":3.59625,"lon":98.6868,"state":"closed","id":null},{"event_id":"107325","title":"Situs Judi Pkv Games Domino Poker Online","url":"https://atnd.org/events/107325","shortener_url":null,"started_at":"2019-07-08T06:30:00.000+09:00","ended_at":"2019-07-10T08:59:59.000+09:00","limit_number":null,"address":"Muara Fajar Barat, Jalan Ikan Parang RT.05/RW.06, 5.906 Jiwa, 4 RW dan 19 RT.","place":"Kota Pekan Baru","lat":0.654592,"lon":101.423,"state":"closed","id":null},{"event_id":"737548","title":"【7/21(日)12:30京都女子部】浴衣でくつろぐ女子会！　夏の思い出を作りませんか？《初めての方大歓迎！！》","url":"http://peatix.com/event/737548","shortener_url":null,"started_at":"2019-07-21T12:30:00.000+09:00","ended_at":"2019-07-24T08:59:59.000+09:00","limit_number":null,"address":"京都市東山区博多町112−5","place":"京都天狼院","lat":35.0017,"lon":135.773,"state":"active","id":null},{"event_id":"138173","title":"ミサワホーム 住宅展示場で貸切開発！","url":"https://onejapanhackathon.connpass.com/event/138173/","shortener_url":null,"started_at":"2019-07-18T10:00:00.000+09:00","ended_at":"2019-07-18T17:00:00.000+09:00","limit_number":null,"address":"","place":"","lat":null,"lon":null,"state":"active","id":null},{"event_id":"107341","title":"POKER88","url":"https://atnd.org/events/107341","shortener_url":null,"started_at":"2019-07-20T21:00:00.000+09:00","ended_at":"2019-07-23T08:59:59.000+09:00","limit_number":null,"address":"","place":"","lat":null,"lon":null,"state":"closed","id":null},{"event_id":"814753","title":"FUSE 37 - ゲーム開発イベント（Game Jam / ハッカソン）","url":"http://fuse37.peatix.com","shortener_url":"https://bit.ly/2JwMHE6","started_at":"2019-07-20T10:00:00.000+09:00","ended_at":"2019-07-23T08:59:59.000+09:00","limit_number":null,"address":"福島県郡山市方八町2-4-15","place":"WiZ 国際情報工科自動車大学校","lat":37.3943,"lon":140.391,"state":"active","id":null},{"event_id":"804318","title":"「ゼロから創る × リーダーシップ」対話の会　  〜　これを自分がやらなくて、誰がやるんだ　〜","url":"http://peatix.com/event/804318","shortener_url":null,"started_at":"2019-07-30T19:00:00.000+09:00","ended_at":"2019-08-02T08:59:59.000+09:00","limit_number":null,"address":"東京都品川区大崎5-10-10大崎CNビル6階","place":"株式会社ウエイクアップ　セミナールーム","lat":0.0,"lon":0.0,"state":"active","id":null},{"event_id":"730780","title":"「診察と手術とAI搭載システムの開発」アイディアソン！~乳がんセンター医師とつくりあげる~","url":"http://biblio-ai.peatix.com","shortener_url":"https://bit.ly/2XHi6Od","started_at":"2019-07-18T19:30:00.000+09:00","ended_at":"2019-07-21T08:59:59.000+09:00","limit_number":null,"address":"横浜市西区みなとみらい3-7-1","place":"WeWorkオーシャンゲートみなとみらい","lat":35.458,"lon":139.634,"state":"active","id":null},{"event_id":"734294","title":"【説明会のお知らせ】“メディアアーティスト/研究者”落合陽一と SDGsを学ぶ、せとうちサマースクール開催！大自然に囲まれながら社会課題を考える、特別な夏休みにしませんか？無人島体験などイベント盛りだくさん！","url":"http://peatix.com/event/734294","shortener_url":null,"started_at":"2019-07-10T19:00:00.000+09:00","ended_at":"2019-07-13T08:59:59.000+09:00","limit_number":null,"address":"東京都渋谷区恵比寿4丁目6番1号 恵比寿MFビル8階","place":"Peatix Japan","lat":0.0,"lon":0.0,"state":"active","id":null},{"event_id":"840298","title":"UIのじかん 〜初心者歓迎UI学習コミュニティ〜　#1「初心者向けUIデザインのお作法」　Powered by Graspy","url":"http://graspy-ui01.peatix.com","shortener_url":null,"started_at":"2019-07-18T19:30:00.000+09:00","ended_at":"2019-07-21T08:59:59.000+09:00","limit_number":null,"address":"東京都 渋谷区 道玄坂1-16-10 渋谷DTビル6階","place":"株式会社ITプロパートナーズ　イベントスペース","lat":35.6566,"lon":139.697,"state":"active","id":null},{"event_id":"138980","title":"日本Androidの会秋葉原支部ロボット部　第82回勉強会 ~ バッジハックとキッズUI~","url":"https://weeyble-creative.connpass.com/event/138980/","shortener_url":null,"started_at":"2019-07-14T13:00:00.000+09:00","ended_at":"2019-07-14T17:00:00.000+09:00","limit_number":8,"address":"東京都千代田区神田須田町２丁目１９−２３ (野村第３ビル ４階)","place":"コワーキングスペース秋葉原Weeyble","lat":35.6966,"lon":139.772,"state":"active","id":null},{"event_id":"94648","title":"『Python, Machine Learning \u0026 Raspberry PI』もくもく会#28","url":"https://soleildatadojo.doorkeeper.jp/events/94648","shortener_url":null,"started_at":"2019-07-25T19:30:00.000+09:00","ended_at":"2019-07-25T21:30:00.000+09:00","limit_number":8,"address":"大阪府大阪市北区西天満二丁目5番3号(堂島深川ビル3階)","place":"SCRIBBLE OSAKA LAB（SOL）（大阪メトロ御堂筋線「淀屋橋」駅から徒歩４分）","lat":null,"lon":null,"state":"active","id":null},{"event_id":"107381","title":"日本Androidの会秋葉原支部ロボット部　第82回勉強会 ~ バッジハックとキッズUI~","url":"https://atnd.org/events/107381","shortener_url":null,"started_at":"2019-07-14T13:00:00.000+09:00","ended_at":"2019-07-14T17:00:00.000+09:00","limit_number":1,"address":"東京都千代田区神田須田町2丁目19−23 (野村第3ビル 4階)","place":"コワーキングスペース秋葉原Weeyble","lat":35.6965,"lon":139.772,"state":"closed","id":null},{"event_id":"139253","title":"sisisinハウス合宿 7/14（日）","url":"https://sisisin.connpass.com/event/139253/","shortener_url":null,"started_at":"2019-07-14T10:00:00.000+09:00","ended_at":"2019-07-14T18:00:00.000+09:00","limit_number":6,"address":"twitterなどで聞いてください","place":"sisisinハウス","lat":null,"lon":null,"state":"active","id":null},{"event_id":"139244","title":"子ども向けプログラミングクラブ コーダー道場甲府#24","url":"https://coderdojokofu.connpass.com/event/139244/","shortener_url":null,"started_at":"2019-07-28T09:20:00.000+09:00","ended_at":"2019-07-28T11:40:00.000+09:00","limit_number":13,"address":"山梨県甲府市北口２丁目８番１号","place":"山梨県立図書館","lat":35.6685,"lon":138.57,"state":"active","id":null},{"event_id":"877568","title":"＜オンラインセミナー＞ペットロスを知る～その時わたしはどうなるんだろう","url":"http://clover-20190723.peatix.com","shortener_url":null,"started_at":"2019-07-23T19:30:00.000+09:00","ended_at":"2019-07-26T08:59:59.000+09:00","limit_number":null,"address":"神奈川県横浜市保土ヶ谷区","place":"clover(オンラインセミナーです。ご自宅から参加できます）","lat":0.0,"lon":0.0,"state":"active","id":null},{"event_id":"873500","title":"スポーツで新たな出会いを見つけませんか？ ゆる〜くアルティメットを楽しむ「ゆるティメット」","url":"http://peatix.com/event/873500","shortener_url":null,"started_at":"2019-07-16T19:30:00.000+09:00","ended_at":"2019-07-19T08:59:59.000+09:00","limit_number":null,"address":"江戸川区瑞江4丁目19−10","place":"江戸川区立下鎌田西小学校","lat":35.6925,"lon":139.893,"state":"active","id":null},{"event_id":"874134","title":"スポーツで新たな出会いを見つけませんか？ ゆる〜くアルティメットを楽しむ「ゆるティメット」","url":"http://peatix.com/event/874134","shortener_url":null,"started_at":"2019-07-23T19:30:00.000+09:00","ended_at":"2019-07-26T08:59:59.000+09:00","limit_number":null,"address":"江戸川区瑞江4丁目19−10","place":"江戸川区立下鎌田西小学校","lat":35.6925,"lon":139.893,"state":"active","id":null},{"event_id":"874214","title":"スポーツで新たな出会いを見つけませんか？ ゆる〜くアルティメットを楽しむ「ゆるティメット」","url":"http://peatix.com/event/874214","shortener_url":null,"started_at":"2019-07-30T19:30:00.000+09:00","ended_at":"2019-08-02T08:59:59.000+09:00","limit_number":null,"address":"江戸川区瑞江4丁目19−10","place":"江戸川区立下鎌田西小学校","lat":35.6925,"lon":139.893,"state":"active","id":null},{"event_id":"756186","title":"【第3回　東京開催　参加無料】世界初の日本茶ペアリングを体験！  お料理とのマリアージュを生み出す日本茶の世界を体験しませんか？ ～日本ティーペアリング協会 体験講座プレイベント開催～","url":"http://teapairing-tokyo2.peatix.com","shortener_url":null,"started_at":"2019-07-21T11:00:00.000+09:00","ended_at":"2019-07-24T08:59:59.000+09:00","limit_number":null,"address":"東京都世田谷区用賀3-14-9用賀マンション1B","place":"東京都世田谷区用賀3-14-9用賀マンション１Ｂ ","lat":35.6281,"lon":139.636,"state":"active","id":null},{"event_id":"139425","title":"AI機能付きSlackAppを構築しよう! by Team AI 7/31(水)","url":"https://teamai.connpass.com/event/139425/","shortener_url":null,"started_at":"2019-07-31T19:30:00.000+09:00","ended_at":"2019-07-31T21:30:00.000+09:00","limit_number":21,"address":"","place":"Online","lat":35.6618,"lon":139.696,"state":"active","id":null},{"event_id":"94700","title":"★日程変更【君もベイジアンになろう！】Bayes勉強会#3","url":"https://soleildatadojo.doorkeeper.jp/events/94700","shortener_url":null,"started_at":"2019-07-20T13:00:00.000+09:00","ended_at":"2019-07-20T15:00:00.000+09:00","limit_number":6,"address":"大阪府大阪市北区西天満二丁目5番3号(堂島深川ビル3階)","place":"SCRIBBLE OSAKA LAB（SOL）（大阪メトロ御堂筋線「淀屋橋」駅から徒歩４分）","lat":null,"lon":null,"state":"active","id":null},{"event_id":"907568","title":"はっとり♡かんなの似顔絵やさんin ガレット\u0026ソックスあるいてる","url":"http://hattori-kanna-aruiteru.peatix.com","shortener_url":null,"started_at":"2019-07-20T12:00:00.000+09:00","ended_at":"2019-07-23T08:59:59.000+09:00","limit_number":null,"address":"杉並区桃井1丁目2−1","place":"ガレット\u0026ソックス aruiteru あるいてる","lat":35.709,"lon":139.614,"state":"active","id":null},{"event_id":"733326","title":"予約リストをあなたの大好きなお客様でいっぱいにしませんか","url":"http://monte-beauty190731.peatix.com","shortener_url":null,"started_at":"2019-07-30T14:00:00.000+09:00","ended_at":"2019-08-02T08:59:59.000+09:00","limit_number":null,"address":"東京都文京区湯島3-46-2","place":"ビアバル ボラッチョ","lat":0.0,"lon":0.0,"state":"active","id":null},{"event_id":"139753","title":"ESPnet Hackathon 2019 @Tokyo Part 1","url":"https://espnet.connpass.com/event/139753/","shortener_url":"https://bit.ly/2XJtrNw","started_at":"2019-07-29T10:00:00.000+09:00","ended_at":"2019-07-29T17:30:00.000+09:00","limit_number":20,"address":"東京都新宿区西新宿2-1-1","place":"株式会社レトリバ","lat":35.6919,"lon":139.694,"state":"active","id":null},{"event_id":"946314","title":"サスティナブルな社会の創り方 vol02 〜「Okinawa + Ocean」でトークセッションとアイデアソン","url":"http://sustainablelocal-okinawa-ocean.peatix.com","shortener_url":"https://bit.ly/2JKGrsz","started_at":"2019-07-31T18:00:00.000+09:00","ended_at":"2019-08-03T08:59:59.000+09:00","limit_number":null,"address":"那覇市久茂地2丁目15−8 フージャース那覇久茂地ビル1F","place":"Okinawa Dialog（おきなわダイアログ）","lat":26.2189,"lon":127.682,"state":"active","id":null},{"event_id":"973370","title":"【満席御礼・7/30(火)】仕事の続きはもくもぐ会＠恵比寿～睡眠オタクのエンジニア＆CTOと話しませんか？～","url":"http://ns-mokumogu.peatix.com","shortener_url":null,"started_at":"2019-07-30T18:30:00.000+09:00","ended_at":"2019-08-02T08:59:59.000+09:00","limit_number":null,"address":"渋谷区恵比寿4丁目6−1 8階 恵比寿MFビル","place":"Peatix Japan株式会社","lat":35.6458,"lon":139.712,"state":"active","id":null},{"event_id":"727707","title":"チャミがしゅーちゃんと遊びたいライブなのに、しゅーちゃんは浴衣が着たいだけなんだが。(仮)","url":"http://natsumatsuri2019.peatix.com","shortener_url":null,"started_at":"2019-07-20T12:00:00.000+09:00","ended_at":"2019-07-23T08:59:59.000+09:00","limit_number":null,"address":"台東区上野桜木1丁目5−6 地下一階 シーダーレジデンス","place":"ライブハウス上野 Untitled","lat":35.7202,"lon":139.771,"state":"active","id":null},{"event_id":"139909","title":"Kamakura Mok Mok Hack 50","url":"https://kamkura-mokmok.connpass.com/event/139909/","shortener_url":null,"started_at":"2019-07-20T11:00:00.000+09:00","ended_at":"2019-07-20T13:00:00.000+09:00","limit_number":7,"address":"神奈川県 鎌倉市由比ガ浜1丁目12-8","place":"HOUSE YUIGAHAMA","lat":35.3202,"lon":139.55,"state":"active","id":null},{"event_id":"139803","title":"ROHM OPEN HACK CHALLENGE 2019 ハンズオン アイディアソン@熊本","url":"https://kumamcn.connpass.com/event/139803/","shortener_url":"https://bit.ly/2XRx2ZQ","started_at":"2019-07-29T19:00:00.000+09:00","ended_at":"2019-07-29T21:00:00.000+09:00","limit_number":15,"address":"熊本市中央区世安町172","place":"びぷれす","lat":32.7895,"lon":130.69,"state":"active","id":null},{"event_id":"140129","title":"満員御礼！！クリエイター・ブランドマーケターMEET UP!!「デジタル時代のフォント　筑紫書体」","url":"https://freelance-jp.connpass.com/event/140129/","shortener_url":null,"started_at":"2019-07-26T19:00:00.000+09:00","ended_at":"2019-07-26T21:30:00.000+09:00","limit_number":8,"address":"福岡市中央区天神２丁目-７-21","place":"GMOペパボ福岡オフィス","lat":33.5901,"lon":130.396,"state":"active","id":null},{"event_id":"140131","title":"sisisinハウス合宿 7/28（日）","url":"https://sisisin.connpass.com/event/140131/","shortener_url":null,"started_at":"2019-07-28T10:00:00.000+09:00","ended_at":"2019-07-28T18:00:00.000+09:00","limit_number":6,"address":"twitterなどで聞いてください","place":"sisisinハウス","lat":null,"lon":null,"state":"active","id":null},{"event_id":"140027","title":"sisisinハウス合宿 7/21（日）","url":"https://sisisin.connpass.com/event/140027/","shortener_url":null,"started_at":"2019-07-21T10:00:00.000+09:00","ended_at":"2019-07-21T18:00:00.000+09:00","limit_number":6,"address":"twitterなどで聞いてください","place":"sisisinハウス","lat":null,"lon":null,"state":"active","id":null},{"event_id":"776330","title":"夏の北海道でブログを始めよう！「ブログ合宿in札幌」を開催","url":"http://blog-sapporo201907.peatix.com","shortener_url":null,"started_at":"2019-07-27T10:00:00.000+09:00","ended_at":"2019-07-30T08:59:59.000+09:00","limit_number":null,"address":"札幌市豊平区豊平2条4丁目1−43","place":"WAYA","lat":43.0534,"lon":141.371,"state":"active","id":null},{"event_id":"140191","title":"Kamakura Mok Mok Hack 51","url":"https://kamkura-mokmok.connpass.com/event/140191/","shortener_url":null,"started_at":"2019-07-27T11:00:00.000+09:00","ended_at":"2019-07-27T13:00:00.000+09:00","limit_number":7,"address":"神奈川県 鎌倉市由比ガ浜1丁目12-8","place":"HOUSE YUIGAHAMA","lat":35.3202,"lon":139.55,"state":"active","id":null},{"event_id":"140362","title":"無料プログラミング・セキュリティー/デジタルブートキャンプDAY1(max22時間）","url":"https://connpass.com/event/140362/","shortener_url":null,"started_at":"2019-07-27T19:00:00.000+09:00","ended_at":"2019-07-28T06:00:00.000+09:00","limit_number":null,"address":"東京都北区神谷2-32-10 5階奥","place":"赤羽ラボ","lat":35.7728,"lon":139.73,"state":"active","id":null},{"event_id":"140365","title":"無料プログラミング・セキュリティー/デジタルブートキャンプDAY2(max22時間）","url":"https://connpass.com/event/140365/","shortener_url":null,"started_at":"2019-07-28T19:00:00.000+09:00","ended_at":"2019-07-29T06:00:00.000+09:00","limit_number":null,"address":"東京都北区神谷2-32-10 5階奥","place":"赤羽ラボ","lat":35.7728,"lon":139.73,"state":"active","id":null},{"event_id":"95083","title":"7/29説明会開催！起業に必要な知識及びスキルを短期間で修得できる「AIITシニアスタートアッププログラム」","url":"https://aiit.doorkeeper.jp/events/95083","shortener_url":null,"started_at":"2019-07-29T19:00:00.000+09:00","ended_at":"2019-07-29T20:00:00.000+09:00","limit_number":30,"address":"品川区東大井1‐10‐40","place":"産業技術大学院大学 東棟2階269","lat":null,"lon":null,"state":"active","id":null},{"event_id":"727306","title":"N.F.C 2030年度のＪ加盟に向けたハッカソン#1","url":"http://neofchackathon.peatix.com","shortener_url":"https://bit.ly/2JXrAuL","started_at":"2019-07-28T15:00:00.000+09:00","ended_at":"2019-07-31T08:59:59.000+09:00","limit_number":null,"address":"渋谷区神南1丁目5−14","place":"ソラハウス","lat":35.665,"lon":139.7,"state":"active","id":null},{"event_id":"977850","title":"AIのじかん　~初心者歓迎AI学習コミュニティ~　#2「求められるAI人材になるための学習ステップ」　Powered by Graspy","url":"http://graspy-ai2.peatix.com","shortener_url":null,"started_at":"2019-07-30T19:30:00.000+09:00","ended_at":"2019-08-02T08:59:59.000+09:00","limit_number":null,"address":"渋谷区道玄坂1-16-10 渋谷DTビル6階","place":"株式会社ITプロパートナーズ","lat":35.6566,"lon":139.697,"state":"active","id":null},{"event_id":"974367","title":"開業時のリーガルリスクマネジメント①【飲食店を中心に】～知りませんでしたでは済まされない！弁護士が教える1時間シリーズVol.２～","url":"http://peatix.com/event/974367","shortener_url":null,"started_at":"2019-07-23T18:30:00.000+09:00","ended_at":"2019-07-26T08:59:59.000+09:00","limit_number":null,"address":"福岡市中央区大名2丁目6−11","place":"福岡市スタートアップカフェ","lat":33.5889,"lon":130.395,"state":"active","id":null},{"event_id":"107689","title":"起業に必要な知識及びスキルを短期間で修得できる「AIITシニアスタートアッププログラム」説明会7/29開催！","url":"https://atnd.org/events/107689","shortener_url":null,"started_at":"2019-07-29T19:00:00.000+09:00","ended_at":"2019-07-29T20:00:00.000+09:00","limit_number":30,"address":"品川区東大井1‐10‐40","place":"産業技術大学院大学　東棟2階269","lat":35.6066,"lon":139.749,"state":"closed","id":null},{"event_id":"107746","title":"Agen Judi AduQ Terpercaya itu99","url":"https://atnd.org/events/107746","shortener_url":null,"started_at":"2019-07-29T04:00:00.000+09:00","ended_at":"2019-07-31T08:59:59.000+09:00","limit_number":null,"address":"","place":"","lat":null,"lon":null,"state":"closed","id":null},{"event_id":"107743","title":"Bonus Casino Terbesar Agen indonalo","url":"https://atnd.org/events/107743","shortener_url":null,"started_at":"2019-07-29T03:00:00.000+09:00","ended_at":"2019-07-31T08:59:59.000+09:00","limit_number":null,"address":"","place":"","lat":null,"lon":null,"state":"closed","id":null},{"event_id":"1296695884739207170","title":"Hackathon²","url":"https://www.dfb-akademie.de/hackathon-2-sts-akademie-eintracht/-/id-11009109","shortener_url":null,"started_at":"2019-07-25T00:00:00.000+09:00","ended_at":"2019-07-25T04:15:00.000+09:00","limit_number":null,"address":null,"place":"online","lat":null,"lon":null,"state":"active","id":null},{"event_id":"1299474796875526145","title":"How We Ran a Student Hackathon Online -- THE Journal","url":"https://thejournal.com/articles/2020/08/27/how-we-ran-a-student-hackathon-online.aspx","shortener_url":null,"started_at":"2019-07-06T09:00:00.000+09:00","ended_at":"2020-08-27T09:00:00.000+09:00","limit_number":null,"address":null,"place":"online","lat":null,"lon":null,"state":"active","id":null},{"event_id":"1315258174035828737","title":"Plant Phenotyping x Engineeringアイデアソン | 国立研究開発法人 国際農林水産業研究センター | JIRCAS","url":"https://www.jircas.go.jp/ja/workshop/2019/e20190826","shortener_url":null,"started_at":"2019-07-12T09:00:00.000+09:00","ended_at":"2019-08-28T04:00:00.000+09:00","limit_number":null,"address":"茨城県つくば市大わし1-1)https://www.jircas.go.jp/ja/access/tsukuba","place":"茨城県つくば市大わし1-1)https://www.jircas.go.jp/ja/access/tsukuba","lat":36.0546,"lon":140.087,"state":"active","id":null}]