[{"event_id":"663526","title":"納浩一直伝！必ずわかるジャズ・スタンダード・セオリー　後期","url":"http://rittor-jazz-base1-second.peatix.com","shortener_url":null,"started_at":"2019-11-21T10:00:00.000+09:00","ended_at":"2019-11-23T23:59:59.000+09:00","limit_number":null,"address":"東京都 千代田区神田駿河台2-1","place":"御茶ノ水Rittor Base（OCCビルB1）","lat":35.6995,"lon":139.762,"state":"active","id":null},{"event_id":"708506","title":"AVTOKYO2019","url":"http://avtokyo2019.peatix.com","shortener_url":null,"started_at":"2019-11-02T05:00:00.000+09:00","ended_at":"2019-11-04T23:59:59.000+09:00","limit_number":null,"address":"渋谷区渋谷区宇田川町13−8 ちとせ会館B1","place":"TK SHIBUYA","lat":35.6609,"lon":139.699,"state":"active","id":null},{"event_id":"94827","title":"Rubyプログラミングキャンプ 2019 in 松江","url":"https://nishiwaki-koberb.doorkeeper.jp/events/94827","shortener_url":"https://bit.ly/2XYGbjt","started_at":"2019-11-09T02:00:00.000+09:00","ended_at":"2019-11-10T07:00:00.000+09:00","limit_number":13,"address":"島根県松江市美保関町美保関558","place":"美保館（島根県松江市）","lat":null,"lon":null,"state":"active","id":null},{"event_id":"1298963","title":"11/9(土)~10(日)festivo はじめてのフレームワーク（Laravel）Camp@東京【学生20,000円、一般25,000円】～早く効率的なWEB開発スキルを手に入れる！フレームワークを学ぶ15時間の集中合宿！～","url":"http://peatix.com/event/1298963","shortener_url":"https://bit.ly/2YMWkEl","started_at":"2019-11-09T01:00:00.000+09:00","ended_at":"2019-11-11T23:59:59.000+09:00","limit_number":null,"address":"東京都練馬区豊玉北3-15-17","place":"起業家シェアハウス x-garden セミナールーム","lat":35.7329,"lon":139.661,"state":"active","id":null},{"event_id":"144785","title":"CITPシンポジウム (2019年度)","url":"https://citp.connpass.com/event/144785/","shortener_url":null,"started_at":"2019-11-29T04:00:00.000+09:00","ended_at":"2019-11-29T08:30:00.000+09:00","limit_number":70,"address":"宮城県石巻市南境新水戸１","place":"石巻専修大学","lat":38.4539,"lon":141.293,"state":"active","id":null},{"event_id":"1310645","title":"VTuberハッカソン全国ツアー2019 会津若松大会","url":"http://vth2019aizu.peatix.com","shortener_url":"https://bit.ly/2NGgpdp","started_at":"2019-11-02T00:30:00.000+09:00","ended_at":"2019-11-04T23:59:59.000+09:00","limit_number":null,"address":"会津若松市白虎町217番地 ハガネレジデンス6F","place":"スペース白虎町","lat":37.5085,"lon":139.933,"state":"active","id":null},{"event_id":"97079","title":"MTDDC Meetup TOKYO 2019(セッションDAY)","url":"https://mt-tokyo.doorkeeper.jp/events/97079","shortener_url":null,"started_at":"2019-11-16T02:30:00.000+09:00","ended_at":"2019-11-16T11:00:00.000+09:00","limit_number":300,"address":"東京都千代田区紀尾井町1-3 東京ガーデンテラス 紀尾井タワー","place":"ヤフー株式会社","lat":null,"lon":null,"state":"active","id":null},{"event_id":"97090","title":"MTDDC Meetup TOKYO 2019(ワークショップDAY)","url":"https://mt-tokyo.doorkeeper.jp/events/97090","shortener_url":null,"started_at":"2019-11-17T04:00:00.000+09:00","ended_at":"2019-11-17T08:00:00.000+09:00","limit_number":20,"address":"東京都渋谷区道玄坂 1-22-7 道玄坂ピア10F","place":"株式会社ロフトワーク","lat":null,"lon":null,"state":"active","id":null},{"event_id":"96026","title":"Startup Weekend Kagawa Vol.2","url":"https://swkagawa.doorkeeper.jp/events/96026","shortener_url":null,"started_at":"2019-11-22T09:30:00.000+09:00","ended_at":"2019-11-24T12:00:00.000+09:00","limit_number":50,"address":"香川県高松市屋島西町1850-1","place":"四国電力総合研修所（駐車場50台）","lat":null,"lon":null,"state":"active","id":null},{"event_id":"1326153","title":"【次世代型リトミック教室】音楽の力で、お子さまの\"表現力\"や\"コミュニケーション力\"を伸ばしてみませんか？","url":"http://peatix.com/event/1326153","shortener_url":null,"started_at":"2019-11-17T02:30:00.000+09:00","ended_at":"2019-11-19T23:59:59.000+09:00","limit_number":null,"address":"神奈川県川崎市新丸子町749-6 GSハイム102","place":"武蔵小杉会場【レッスンスタジオ「話芸写」】","lat":35.5804,"lon":139.66,"state":"active","id":null},{"event_id":"147754","title":"GDG Kyushu DevFest 2019","url":"https://gdg.connpass.com/event/147754/","shortener_url":"https://bit.ly/2O6tBIS","started_at":"2019-11-02T06:00:00.000+09:00","ended_at":"2019-11-04T03:00:00.000+09:00","limit_number":15,"address":"大分県別府市御幸３組","place":"瑞光寺大谷会館","lat":33.3143,"lon":131.475,"state":"active","id":null},{"event_id":"1314228","title":"【増枠しました】〜アフリカ発！STEM教育NPOとSDGsの課題をプログラミングで解決〜 100名の女性とワークショップ「iamtheCODE Hackathon」実施！ 中高生および学校からの参加者を募集","url":"http://iamthecode-waffle.peatix.com","shortener_url":"https://bit.ly/2O6tBZo","started_at":"2019-11-09T00:00:00.000+09:00","ended_at":"2019-11-11T23:59:59.000+09:00","limit_number":null,"address":"東京都港区北青山2-5-8 オラクル青山センター","place":"日本オラクル株式会社本社","lat":0.0,"lon":0.0,"state":"active","id":null},{"event_id":"1314623","title":"出店者募集！どのキッチンであなたの腕を試してみる？ 第2回「KOKOからFOODフェスタ」11/10,17,24開の3日間開催決定!! 気軽に1日店長体験しませんか？","url":"http://peatix.com/event/1314623","shortener_url":null,"started_at":"2019-11-10T01:00:00.000+09:00","ended_at":"2019-11-12T23:59:59.000+09:00","limit_number":null,"address":"世田谷区三軒茶屋2丁目11−24 サンタワーズA 2F","place":"東京飲食店開業支援FORT MARKET 三軒茶屋FOODHALL","lat":35.6415,"lon":139.669,"state":"active","id":null},{"event_id":"1327536","title":"STARRY NIGHT JAM vol.49　特別上映会QUEEN -HEAVEN-","url":"http://snj49.peatix.com","shortener_url":null,"started_at":"2019-11-09T08:30:00.000+09:00","ended_at":"2019-11-11T23:59:59.000+09:00","limit_number":null,"address":"福岡市中央区 六本松4丁目2−1","place":"福岡市科学館","lat":33.5774,"lon":130.378,"state":"active","id":null},{"event_id":"1332164","title":"農山漁村アイデアソン「農村インポッシブル in 長野県栄村」〜突き抜けたアイデアで、新しい農村をつくる〜｜農林水産省×INSPIRE","url":"http://nouson-in-possible-nagano.peatix.com","shortener_url":"https://bit.ly/31GFV6r","started_at":"2019-11-02T04:00:00.000+09:00","ended_at":"2019-11-04T23:59:59.000+09:00","limit_number":null,"address":"長野県栄村","place":"長野県栄村","lat":36.9877,"lon":138.578,"state":"active","id":null},{"event_id":"1332444","title":"【次世代型リトミック教室】音楽の力で、お子さまの\"表現力\"を伸ばしてみませんか？","url":"http://peatix.com/event/1332444","shortener_url":null,"started_at":"2019-11-23T02:00:00.000+09:00","ended_at":"2019-11-25T23:59:59.000+09:00","limit_number":null,"address":"神奈川県川崎市小杉陣屋町1丁目23−7","place":"武蔵小杉【ダンススタジオR】","lat":35.5858,"lon":139.659,"state":"active","id":null},{"event_id":"1332442","title":"音楽の力で、お子さまの\"表現力\"や\"コミュニケーション力\"を伸ばしてみませんか？","url":"http://peatix.com/event/1332442","shortener_url":null,"started_at":"2019-11-16T02:00:00.000+09:00","ended_at":"2019-11-18T23:59:59.000+09:00","limit_number":null,"address":"神奈川県川崎市小杉陣屋町1丁目23−7","place":"武蔵小杉【ダンススタジオR】","lat":35.5858,"lon":139.659,"state":"active","id":null},{"event_id":"1332439","title":"【次世代型リトミック教室】音楽の力で、お子さまの\"表現力\"を伸ばしてみませんか？","url":"http://peatix.com/event/1332439","shortener_url":null,"started_at":"2019-11-24T02:30:00.000+09:00","ended_at":"2019-11-26T23:59:59.000+09:00","limit_number":null,"address":"神奈川県川崎市新丸子町749-6 GSハイム102","place":"武蔵小杉会場【レッスンスタジオ「話芸写」】","lat":35.5804,"lon":139.66,"state":"active","id":null},{"event_id":"97787","title":"Startup Weekend Tokyo アート","url":"https://swtokyo.doorkeeper.jp/events/97787","shortener_url":null,"started_at":"2019-11-22T09:00:00.000+09:00","ended_at":"2019-11-24T12:00:00.000+09:00","limit_number":null,"address":"〒150-0002 東京都渋谷区渋谷2丁目15−1 12F クロスタワービル","place":"BIZREACH","lat":null,"lon":null,"state":"active","id":null},{"event_id":"146303","title":"香川開催！Web×IoT メイカーズチャレンジ 2019-20 【ハンズオン講習\u0026ハッカソン】","url":"https://webiotmakers.connpass.com/event/146303/","shortener_url":"https://bit.ly/2lUsGzE","started_at":"2019-11-02T01:00:00.000+09:00","ended_at":"2019-11-03T10:00:00.000+09:00","limit_number":40,"address":"香川県高松市サンポート2-1 シンボルタワー4・5F","place":"情報通信交流館e-とぴあ・かがわ","lat":34.3525,"lon":134.047,"state":"active","id":null},{"event_id":"98002","title":"【3日間で起業体験】Startup Weekend Yokohama 11　(20191122-24)","url":"https://swyokohama.doorkeeper.jp/events/98002","shortener_url":null,"started_at":"2019-11-22T09:30:00.000+09:00","ended_at":"2019-11-24T12:00:00.000+09:00","limit_number":20,"address":"〒221-0835 神奈川県横浜市神奈川区鶴屋町2-17 相鉄岩崎学園ビル6F 情報科学専門学校","place":"学校法人岩崎学園情報科学専門学校 608教室(6階)","lat":null,"lon":null,"state":"active","id":null},{"event_id":"1330422","title":"【食・農を愛する若者集まれ！】GOBO大合宿２０１９","url":"http://gobo-meetup-201911.peatix.com","shortener_url":null,"started_at":"2019-11-02T05:00:00.000+09:00","ended_at":"2019-11-04T23:59:59.000+09:00","limit_number":null,"address":"千代田区大手町1丁目6−1 大手町ビル 9階","place":"AgVenture Lab","lat":35.6864,"lon":139.765,"state":"active","id":null},{"event_id":"1333581","title":"農山漁村アイデアソン「農村インポッシブル in 静岡県静岡市」〜突き抜けたアイデアで、新しい農村をつくる〜｜農林水産省×INSPIRE","url":"http://nouson-in-possible-shizuoka.peatix.com","shortener_url":"https://bit.ly/2mXC85i","started_at":"2019-11-16T01:00:00.000+09:00","ended_at":"2019-11-18T23:59:59.000+09:00","limit_number":null,"address":"静岡県静岡市","place":"静岡県静岡市","lat":34.9756,"lon":138.383,"state":"active","id":null},{"event_id":"144950","title":"Static Gen Ginza #エンジニア寄せ鍋 11","url":"https://yosenabe.connpass.com/event/144950/","shortener_url":null,"started_at":"2019-11-08T10:00:00.000+09:00","ended_at":"2019-11-08T12:00:00.000+09:00","limit_number":51,"address":"東京都中央区銀座2-15-2","place":"東急銀座２丁目ビル","lat":35.6714,"lon":139.771,"state":"active","id":null},{"event_id":"148181","title":"石川開催！Web×IoT メイカーズチャレンジ 2019-20 【ハンズオン講習 \u0026 ハッカソン】","url":"https://webiotmakers.connpass.com/event/148181/","shortener_url":"https://bit.ly/2nkYM7G","started_at":"2019-11-09T00:30:00.000+09:00","ended_at":"2019-11-10T09:00:00.000+09:00","limit_number":40,"address":"オンライン","place":"オンライン","lat":36.53,"lon":136.627,"state":"active","id":null},{"event_id":"147824","title":"【日程変更】目指せ愛されキャラ！推しキャラハッカソン@ #ヒーローズリーグ 2019 by MA","url":"https://mashupawards.connpass.com/event/147824/","shortener_url":"https://bit.ly/2nUNY0z","started_at":"2019-11-03T01:00:00.000+09:00","ended_at":"2019-11-04T10:00:00.000+09:00","limit_number":30,"address":"宮城県仙台市青葉区上杉１丁目１−２ ドコモ東北ビル","place":"NTTドコモ 東北支社","lat":38.2699,"lon":140.874,"state":"active","id":null},{"event_id":"916096","title":"『ごん  GON, THE LITTLE FOX』公開記念！特別上映会 ＠名古屋　11月5日","url":"http://gon1105.peatix.com","shortener_url":null,"started_at":"2019-11-05T10:00:00.000+09:00","ended_at":"2019-11-07T23:59:59.000+09:00","limit_number":null,"address":"名古屋市千種区星が丘元町16−50 EAST3F 星が丘テラス","place":"TT\" a Little Knowledge Store","lat":35.1605,"lon":136.986,"state":"active","id":null},{"event_id":"147823","title":"ytv x NAISTハッカソン in 奈良@ #ヒーローズリーグ 2019 by MA","url":"https://mashupawards.connpass.com/event/147823/","shortener_url":"https://bit.ly/2mpn5BB","started_at":"2019-11-02T01:00:00.000+09:00","ended_at":"2019-11-03T08:30:00.000+09:00","limit_number":60,"address":"奈良県生駒市高山町8916番地−５","place":"奈良先端科学技術大学院大学","lat":34.7318,"lon":135.735,"state":"active","id":null},{"event_id":"145999","title":"徳島開催！Web×IoT メイカーズチャレンジ 2019-20 【ハンズオン講習 \u0026 ハッカソン】","url":"https://webiotmakers.connpass.com/event/145999/","shortener_url":"https://bit.ly/2nWOfA3","started_at":"2019-11-09T01:00:00.000+09:00","ended_at":"2019-11-10T09:00:00.000+09:00","limit_number":40,"address":"徳島県徳島市南常三島町2丁目1","place":"徳島大学","lat":34.0775,"lon":134.562,"state":"active","id":null},{"event_id":"97798","title":"Startup Weekend Tokyo Music","url":"https://swtokyo.doorkeeper.jp/events/97798","shortener_url":null,"started_at":"2019-11-29T09:00:00.000+09:00","ended_at":"2019-12-01T12:00:00.000+09:00","limit_number":null,"address":"〒141-0033 東京都品川区西品川一丁目1-1 住友不動産大崎ガーデンタワー 9階","place":"金曜：TUNNEL TOKYO(大崎)・土日曜：100BANCH(渋谷)","lat":null,"lon":null,"state":"active","id":null},{"event_id":"1335196","title":"【ホームシェア実務研修（上映会②）】千葉市 ホームシェアホスト希望者向け ～新しい出会いと交流を楽しみませんか？～","url":"http://sharechiba1109.peatix.com","shortener_url":null,"started_at":"2019-11-09T01:00:00.000+09:00","ended_at":"2019-11-11T23:59:59.000+09:00","limit_number":null,"address":"千葉県千葉市中央区千葉港2-1","place":"中央コミュニティセンター10階会議室","lat":35.6067,"lon":140.108,"state":"active","id":null},{"event_id":"1301009","title":"【おもてなし基礎研修】千葉市　ホームシェアホスト・ガイド希望者向け ～2020年に向けて、おもてなしの心を学びませんか？～","url":"http://sharechiba1116.peatix.com","shortener_url":null,"started_at":"2019-11-16T05:00:00.000+09:00","ended_at":"2019-11-18T23:59:59.000+09:00","limit_number":null,"address":"千葉県千葉市中央区富士見1-1-1","place":"ハロー会議室千葉駅前　RoomB","lat":35.6127,"lon":140.116,"state":"active","id":null},{"event_id":"1335181","title":"【ホームシェア実務研修（上映会①）】千葉市 ホームシェアホスト希望者向け ～新しい出会いと交流を楽しみませんか？～","url":"http://sharechiba1107.peatix.com","shortener_url":null,"started_at":"2019-11-07T09:30:00.000+09:00","ended_at":"2019-11-09T23:59:59.000+09:00","limit_number":null,"address":"千葉県千葉市中央区千葉港2-1","place":"中央コミュニティセンター10階会議室","lat":35.6067,"lon":140.108,"state":"active","id":null},{"event_id":"1340299","title":"【満員御礼】股関節痛で走れないランナーのための痛み改善教室(4名限定少人数制開催。走りません) 千葉県柏市 リンクフィットネス主催","url":"http://peatix.com/event/1340299","shortener_url":null,"started_at":"2019-11-24T04:00:00.000+09:00","ended_at":"2019-11-26T23:59:59.000+09:00","limit_number":null,"address":"千葉県柏市柏4-4-5メープル柏201","place":"【集合/受付】千葉県柏市 鍼灸マッサージ院FLAT柏","lat":35.863,"lon":139.974,"state":"active","id":null},{"event_id":"147247","title":"[名古屋] Rakuten Technology Conference 2019","url":"https://rakuten-nagoya.connpass.com/event/147247/","shortener_url":null,"started_at":"2019-11-09T01:30:00.000+09:00","ended_at":"2019-11-09T09:00:00.000+09:00","limit_number":65,"address":"愛知県名古屋市中区栄1-12-17 富士フイルム名古屋ビル 13F","place":"楽天株式会社 名古屋支社","lat":35.1652,"lon":136.897,"state":"active","id":null},{"event_id":"1341743","title":"動画で月5万稼ぐことを目指す「いなフリ2.0～動画編集合宿～」2週間の講座を開催","url":"http://inafree-2weeks-movie.peatix.com","shortener_url":null,"started_at":"2019-11-18T04:00:00.000+09:00","ended_at":"2019-11-20T23:59:59.000+09:00","limit_number":null,"address":"都留市田原2丁目14−8 小宮ビル 2F","place":"コワーキングコミュニティteraco.","lat":35.5414,"lon":138.898,"state":"active","id":null},{"event_id":"147367","title":"アグリハックディ南島原2019","url":"https://minamishimabaracitylab.connpass.com/event/147367/","shortener_url":"https://bit.ly/2MlTotR","started_at":"2019-11-03T04:00:00.000+09:00","ended_at":"2019-11-04T03:00:00.000+09:00","limit_number":40,"address":"","place":"","lat":null,"lon":null,"state":"active","id":null},{"event_id":"147782","title":"ソフトウェア工学産学協創ワークショップ＠湯河原","url":"https://saicollo.connpass.com/event/147782/","shortener_url":null,"started_at":"2019-11-21T04:00:00.000+09:00","ended_at":"2019-11-22T03:00:00.000+09:00","limit_number":34,"address":"神奈川県足柄下郡湯河原町鍛冶屋 572-1","place":"レクトーレ湯河原","lat":35.157,"lon":139.114,"state":"active","id":null},{"event_id":"141927","title":"鳥取開催！Web×IoT メイカーズチャレンジ 2019-20 【ハンズオン講習 \u0026 ハッカソン】","url":"https://webiotmakers.connpass.com/event/141927/","shortener_url":"https://bit.ly/30Xx6Ef","started_at":"2019-11-09T01:00:00.000+09:00","ended_at":"2019-11-10T09:00:00.000+09:00","limit_number":40,"address":"鳥取県鳥取市湖山町南4丁目101番地","place":"鳥取大学 鳥取キャンパス","lat":35.5166,"lon":134.172,"state":"active","id":null},{"event_id":"150415","title":"アウトドア×エンジニア×勉強会＠キャンピィだいとう～空気の澄んだ自然の中で合宿in 大東市～","url":"https://connpass.com/event/150415/","shortener_url":"https://bit.ly/2OtRxGg","started_at":"2019-11-14T04:00:00.000+09:00","ended_at":"2019-11-16T01:00:00.000+09:00","limit_number":10,"address":"大阪府大東市大字龍間1846","place":"キャンピィだいとう","lat":34.7209,"lon":135.657,"state":"active","id":null},{"event_id":"1346195","title":"国際的な子ども向けワークショップ「POP-UP Festival」を体験し、開催してみませんか？","url":"http://asuyomi20191107.peatix.com","shortener_url":null,"started_at":"2019-11-07T10:00:00.000+09:00","ended_at":"2019-11-09T23:59:59.000+09:00","limit_number":null,"address":"東京都大田区新蒲田1-17-25","place":"FUJITSU Knowledge Integration Base PLY（富士通ソリューションスクエア2階）","lat":35.558,"lon":139.713,"state":"active","id":null},{"event_id":"149295","title":"【TUB】スタートアップ向けDesignSprint体験＆制作物レビュー会","url":"https://mht-code.connpass.com/event/149295/","shortener_url":null,"started_at":"2019-11-02T14:00:00.000+09:00","ended_at":"2019-11-02T20:00:00.000+09:00","limit_number":26,"address":"東京都渋谷区神宮前6-15-13(古屋ビル)","place":"Garage Park","lat":35.666,"lon":139.705,"state":"active","id":null},{"event_id":"98898","title":"アクセスに優れた渋谷開催！業界最安級価格で第一線のプロが教えるGoogleアナリティクス/GAIQ集中講座","url":"https://aa4bcf6c84cefde48b81e0f2ea.doorkeeper.jp/events/98898","shortener_url":null,"started_at":"2019-11-09T06:00:00.000+09:00","ended_at":"2019-11-09T08:30:00.000+09:00","limit_number":150,"address":"東京都渋谷区渋谷2-22-3渋谷東口ビル1F/東京都渋谷区渋谷2-17-3 渋谷東宝ビル","place":"TKPガーデンシティ渋谷/TKP渋谷カンファレンスセンター","lat":null,"lon":null,"state":"active","id":null},{"event_id":"98913","title":"11/16(土)~17(日)festivo WordPressオリジナルテーマ制作（WPカスタマイズ） Camp@東京【学生20,000円、一般25,000円（税別）】～WEBサイトのWordPress化を学ぶ15時間！PHPプログラミングステップアップ集中合宿！！～","url":"https://festivo.doorkeeper.jp/events/98913","shortener_url":"https://bit.ly/30Yjd8D","started_at":"2019-11-16T01:00:00.000+09:00","ended_at":"2019-11-17T10:00:00.000+09:00","limit_number":10,"address":"東京都練馬区豊玉北3-15-17","place":"起業家シェアハウス x-garden セミナールーム","lat":null,"lon":null,"state":"active","id":null},{"event_id":"1348356","title":"11/16(土)~17(日)festivo WordPressオリジナルテーマ制作（WPカスタマイズ） Camp@東京【学生20,000円、一般25,000円（税別）】～WEBサイトのWordPress化を学ぶ15時間！PHPプログラミングステップアップ集中合宿！！～","url":"http://peatix.com/event/1348356","shortener_url":"https://bit.ly/35hRyD8","started_at":"2019-11-16T01:00:00.000+09:00","ended_at":"2019-11-18T23:59:59.000+09:00","limit_number":null,"address":"東京都練馬区豊玉北3-15-17","place":"起業家シェアハウス x-garden セミナールーム","lat":35.7329,"lon":139.661,"state":"active","id":null},{"event_id":"1338427","title":"【男性管理職 \u0026 人事ご担当者向け トライアル】女性メンバーの可能性を拓く「メンタースキル」を身につけませんか？","url":"http://mentorskillformen.peatix.com","shortener_url":null,"started_at":"2019-11-15T23:30:00.000+09:00","ended_at":"2019-11-17T23:59:59.000+09:00","limit_number":null,"address":"東京都港区南青山5-11-24","place":"東京都港区南青山5-11-24","lat":35.6622,"lon":139.712,"state":"active","id":null},{"event_id":"150987","title":"SHIMANE GREEN JAM #5","url":"https://sgj.connpass.com/event/150987/","shortener_url":null,"started_at":"2019-11-02T04:00:00.000+09:00","ended_at":"2019-11-02T08:00:00.000+09:00","limit_number":null,"address":"島根県松江市朝日町４７８−１８","place":"松江オープンソースラボ","lat":35.464,"lon":133.062,"state":"active","id":null},{"event_id":"148266","title":"第22回勉強会 AnnoFab ハンズオン","url":"https://machine-learning.connpass.com/event/148266/","shortener_url":null,"started_at":"2019-11-16T04:00:00.000+09:00","ended_at":"2019-11-16T07:30:00.000+09:00","limit_number":85,"address":"名古屋市中村区名駅1-1-4 JRセントラルタワーズ50階","place":"ヤフー名古屋","lat":35.166,"lon":136.91,"state":"active","id":null},{"event_id":"1342145","title":"STARRY NIGHT JAM vol.50　熟睡プラ寝たリウム","url":"http://snj50.peatix.com","shortener_url":null,"started_at":"2019-11-23T07:00:00.000+09:00","ended_at":"2019-11-25T23:59:59.000+09:00","limit_number":null,"address":"福岡市中央区 六本松4丁目2−1","place":"福岡市科学館","lat":33.5774,"lon":130.378,"state":"active","id":null},{"event_id":"1337083","title":"【募集終了】11月6日（水）19:00~22:00　かものはしで一緒にボランティアをしませんか？@恵比寿","url":"http://peatix.com/event/1337083","shortener_url":null,"started_at":"2019-11-06T10:00:00.000+09:00","ended_at":"2019-11-08T23:59:59.000+09:00","limit_number":null,"address":"東京都渋谷区広尾5-23-5 長谷部第一ビル402号室","place":"かものはしプロジェクト事務所（恵比寿）","lat":35.6485,"lon":139.718,"state":"active","id":null},{"event_id":"151124","title":"Kaggle メディカルデータ分析ハッカソン by Team AI 11/2(土)","url":"https://teamai.connpass.com/event/151124/","shortener_url":"https://bit.ly/2M6C1hM","started_at":"2019-11-02T07:00:00.000+09:00","ended_at":"2019-11-02T09:00:00.000+09:00","limit_number":19,"address":"","place":"Online","lat":35.6618,"lon":139.696,"state":"active","id":null},{"event_id":"1341210","title":"志んまち勘亭流書道會《霜月》","url":"http://peatix.com/event/1341210","shortener_url":null,"started_at":"2019-11-16T05:30:00.000+09:00","ended_at":"2019-11-18T23:59:59.000+09:00","limit_number":null,"address":"大阪市西区新町1丁目南","place":"四ツ橋ビル","lat":34.6775,"lon":135.495,"state":"active","id":null},{"event_id":"1349562","title":"クイズハピオネアvol.4（ゲストSoar編集長工藤瑞穂さん）","url":"http://peatix.com/event/1349562","shortener_url":null,"started_at":"2019-11-30T17:00:00.000+09:00","ended_at":"2019-12-02T23:59:59.000+09:00","limit_number":null,"address":"〒653-0041 兵庫県神戸市長田区久保町6丁目1−1 アスタくにづか4番館4F","place":"アートシアターｄＢ神戸","lat":34.6532,"lon":135.147,"state":"active","id":null},{"event_id":"1346464","title":"丹沢で滝と紅葉の撮影を学びませんか？＠神奈川県松田を楽しもう","url":"http://peatix.com/event/1346464","shortener_url":null,"started_at":"2019-11-17T00:45:00.000+09:00","ended_at":"2019-11-19T23:59:59.000+09:00","limit_number":null,"address":"松田町寄3415","place":"寄自然休養村管理センター","lat":35.4018,"lon":139.137,"state":"active","id":null},{"event_id":"151351","title":"熊ゆに Unityもくもく会　2019/11/3（日）","url":"https://kumauni.connpass.com/event/151351/","shortener_url":null,"started_at":"2019-11-03T04:00:00.000+09:00","ended_at":"2019-11-03T07:00:00.000+09:00","limit_number":10,"address":"熊本県熊本市 中央区下通１丁目１２−２７","place":"未来会議室","lat":32.7998,"lon":130.708,"state":"active","id":null},{"event_id":"1350952","title":"Halloween Women's Parkour Jam + Session!","url":"http://womenshalloween.peatix.com","shortener_url":null,"started_at":"2019-11-01T11:00:00.000+09:00","ended_at":"2019-11-03T23:59:59.000+09:00","limit_number":null,"address":"1 Empress Place","place":"Asian Civilisations Museum","lat":1.2875,"lon":103.851,"state":"active","id":null},{"event_id":"151498","title":"AI機能付きSlackAppを構築しよう! by Team AI 11/4（月）","url":"https://teamai.connpass.com/event/151498/","shortener_url":null,"started_at":"2019-11-04T10:30:00.000+09:00","ended_at":"2019-11-04T12:30:00.000+09:00","limit_number":23,"address":"","place":"Online","lat":35.6618,"lon":139.696,"state":"active","id":null},{"event_id":"1351278","title":"茶ッカソン in SHIBUYA QWS 〜お茶の恩返し・長崎編〜","url":"http://chackathoninqws.peatix.com","shortener_url":null,"started_at":"2019-11-02T00:30:00.000+09:00","ended_at":"2019-11-04T23:59:59.000+09:00","limit_number":null,"address":"東京都渋谷区渋谷二丁目24番12号 15F","place":"渋谷QWS","lat":0.0,"lon":0.0,"state":"active","id":null},{"event_id":"1340578","title":"11/4(祝)　おひるねアート@筑紫クリニックファミリーフェスタ in サンレイクかすや","url":"http://1104chikushiohirune.peatix.com","shortener_url":null,"started_at":"2019-11-04T01:00:00.000+09:00","ended_at":"2019-11-06T23:59:59.000+09:00","limit_number":null,"address":"〒811-2309 福岡県糟屋郡粕屋町駕与丁1丁目6-1","place":"サンレイクかすや","lat":33.6098,"lon":130.481,"state":"active","id":null},{"event_id":"1340546","title":"11/4(祝)　ハイハイレースカタカタレース＠筑紫クリニックファミリーフェスタ in サンレイクかすや","url":"http://1104chikushihaikata.peatix.com","shortener_url":null,"started_at":"2019-11-04T01:00:00.000+09:00","ended_at":"2019-11-06T23:59:59.000+09:00","limit_number":null,"address":"〒811-2309 福岡県糟屋郡粕屋町駕与丁1丁目6-1","place":"サンレイクかすや","lat":33.6098,"lon":130.481,"state":"active","id":null},{"event_id":"1331606","title":"【11/1(金)＠東京】「サス学」導入セミナー ～探究型学習始めませんか？～","url":"http://peatix.com/event/1331606","shortener_url":null,"started_at":"2019-11-01T04:30:00.000+09:00","ended_at":"2019-11-03T23:59:59.000+09:00","limit_number":null,"address":"渋谷区代々木2丁目8−3 新宿GSビル8・9階","place":"アットビジネスセンターサテライト新宿南口駅前","lat":35.6884,"lon":139.699,"state":"active","id":null},{"event_id":"1331693","title":"【11/8(金)＠大阪】「サス学」導入セミナー ～探究型学習始めませんか？～","url":"http://peatix.com/event/1331693","shortener_url":null,"started_at":"2019-11-08T04:30:00.000+09:00","ended_at":"2019-11-10T23:59:59.000+09:00","limit_number":null,"address":"大阪市北区梅田1丁目3 大阪駅前第1ビル3F","place":"キャリア・ステーション 大阪駅前本校","lat":34.699,"lon":135.496,"state":"active","id":null},{"event_id":"98811","title":"スタートアップウィークエンド京都  创业周末","url":"https://swkyoto.doorkeeper.jp/events/98811","shortener_url":null,"started_at":"2019-11-22T09:30:00.000+09:00","ended_at":"2019-11-24T12:00:00.000+09:00","limit_number":50,"address":"〒600-8813京都府京都市下京区中堂寺南町134 KISTIC棟2F たまり場","place":"京都リサーチパーク　KISTIC棟２F　たまり場","lat":null,"lon":null,"state":"active","id":null},{"event_id":"109525","title":"【11/8-9】CI\u0026T ハッカソン CHANGE THE WORLD with IoT","url":"https://atnd.org/events/109525","shortener_url":"https://bit.ly/32qOzX0","started_at":"2019-11-08T10:00:00.000+09:00","ended_at":"2019-11-09T10:00:00.000+09:00","limit_number":24,"address":"東京都墨田区江東橋4-26-5 東京トラフィック錦糸町ビル 7階","place":"CI\u0026T株式会社","lat":35.6955,"lon":139.816,"state":"closed","id":null},{"event_id":"1351447","title":"満員御礼【HR×PR JAM !】 Session2〜ブランディングで採用を制す","url":"http://hrpr-jam2.peatix.com","shortener_url":null,"started_at":"2019-11-20T10:30:00.000+09:00","ended_at":"2019-11-22T23:59:59.000+09:00","limit_number":null,"address":"東京都渋谷区道玄坂1-21-1","place":"BAR「AJITO」in VOYAGE GROUPオフィス（渋谷ソラスタ15F）","lat":35.6566,"lon":139.697,"state":"active","id":null},{"event_id":"99170","title":"Japan LawTech 2019 SOAR　～日本初リーガルテック大型ハッカソン～","url":"https://28fb43e3fb430257f1b4c8ff10.doorkeeper.jp/events/99170","shortener_url":"https://bit.ly/32urvXv","started_at":"2019-11-09T00:00:00.000+09:00","ended_at":"2019-11-10T09:00:00.000+09:00","limit_number":60,"address":"東京都新宿区新宿四丁目1番6号 JR新宿ミライナタワー23階","place":"LINE本社（新宿ミライナタワー 23F）","lat":null,"lon":null,"state":"active","id":null},{"event_id":"1347785","title":"中高生が考える EdTechアイデアソン 〜教育を自ら創造しよう！〜","url":"http://edtech-ideathon.peatix.com","shortener_url":"https://bit.ly/2P1tqPo","started_at":"2019-11-04T01:00:00.000+09:00","ended_at":"2019-11-06T23:59:59.000+09:00","limit_number":null,"address":"千代田区平河町2丁目5−1","place":"千代田区立麹町中学校","lat":35.6805,"lon":139.739,"state":"active","id":null},{"event_id":"1347660","title":"記事添削もあり！初心者向け「WEBライティング合宿」開催","url":"http://peatix.com/event/1347660","shortener_url":null,"started_at":"2019-11-30T04:00:00.000+09:00","ended_at":"2019-12-02T23:59:59.000+09:00","limit_number":null,"address":"富津市金谷3870","place":"コワーキングスペース まるも","lat":35.1665,"lon":139.824,"state":"active","id":null},{"event_id":"1353415","title":"べんチョキ先生〜色であそぼう〜","url":"http://peatix.com/event/1353415","shortener_url":null,"started_at":"2019-11-02T02:00:00.000+09:00","ended_at":"2019-11-04T23:59:59.000+09:00","limit_number":null,"address":"東京都葛飾区亀有3-26-1","place":" 絵と言葉のライブラリー ミッカ（リリオ亀有7F）","lat":35.7666,"lon":139.848,"state":"active","id":null},{"event_id":"152140","title":"VTuberハッカソン全国ツアー2019【福岡大会】","url":"https://fukuoka-xr-club.connpass.com/event/152140/","shortener_url":"https://bit.ly/33M6yYw","started_at":"2019-11-16T01:00:00.000+09:00","ended_at":"2019-11-17T12:00:00.000+09:00","limit_number":20,"address":"福岡市中央区天神1丁目15番30号","place":"エンジニアカフェ","lat":33.5932,"lon":130.402,"state":"active","id":null},{"event_id":"99076","title":"【初心者大歓迎！】画像解析AI開発ワークショップ　〜SWY 11 プレイベント〜","url":"https://swyokohama.doorkeeper.jp/events/99076","shortener_url":null,"started_at":"2019-11-04T04:00:00.000+09:00","ended_at":"2019-11-04T07:00:00.000+09:00","limit_number":30,"address":"〒221-0835 横浜市神奈川区鶴屋町2-17","place":"学校法人岩崎学園情報科学専門学校 1F　オープンラボ","lat":null,"lon":null,"state":"active","id":null},{"event_id":"99125","title":"ビジョンの描き方","url":"https://swtokyo.doorkeeper.jp/events/99125","shortener_url":null,"started_at":"2019-11-12T10:00:00.000+09:00","ended_at":"2019-11-12T12:00:00.000+09:00","limit_number":10,"address":"東京都港区南青山6-10-11","place":"Wesley Center #201","lat":null,"lon":null,"state":"active","id":null},{"event_id":"152200","title":"交通系データアイデアソン（レッドハッカソンHIROSHIMA 2019 episode.2）","url":"https://hmcn.connpass.com/event/152200/","shortener_url":"https://bit.ly/31xku74","started_at":"2019-11-30T04:00:00.000+09:00","ended_at":"2019-11-30T10:30:00.000+09:00","limit_number":20,"address":"広島市中区紙屋町1-4-3 (エフケイビル1F)","place":"イノベーション・ハブ・ひろしまCamps","lat":34.3941,"lon":132.459,"state":"active","id":null},{"event_id":"99314","title":"良いピッチの作り方【Startup Weekend Tokyo Musicプレイベント】","url":"https://swtokyo.doorkeeper.jp/events/99314","shortener_url":null,"started_at":"2019-11-07T10:30:00.000+09:00","ended_at":"2019-11-07T12:30:00.000+09:00","limit_number":25,"address":"東京都品川区西品川一丁目1-1 住友不動産大崎ガーデンタワー 9階","place":"Tunnel Tokyo(大崎)","lat":null,"lon":null,"state":"active","id":null},{"event_id":"1342298","title":"学生向けアイデアソン  「Social Good Solutions Ideathon - For EXPO 2025 -」","url":"http://ideathon-expo-workshop.peatix.com","shortener_url":"https://bit.ly/31C3f4q","started_at":"2019-11-30T01:00:00.000+09:00","ended_at":"2019-12-02T23:59:59.000+09:00","limit_number":null,"address":"千代田区神田練塀町3 富士ソフト秋葉原ビル","place":"DMM.make AKIBA","lat":35.7005,"lon":139.774,"state":"active","id":null},{"event_id":"1356602","title":"時間は存在しないなんて信じられる？『時間は存在しない』を読む。１１月の「本で遊ぶじかん」","url":"http://sugoi201911.peatix.com","shortener_url":null,"started_at":"2019-11-20T10:00:00.000+09:00","ended_at":"2019-11-22T23:59:59.000+09:00","limit_number":null,"address":"東京都目黒区青葉台3丁目15-15 BUENA CASA 青葉台302","place":"株式会社SUGOI","lat":0.0,"lon":0.0,"state":"active","id":null},{"event_id":"1358567","title":"11月の瓶詰部  旬の果物でつくるジャムと砂糖漬け","url":"http://bindumemamekurashi20191117.peatix.com","shortener_url":null,"started_at":"2019-11-17T02:30:00.000+09:00","ended_at":"2019-11-19T23:59:59.000+09:00","limit_number":null,"address":"東京都杉並区高円寺北4-2-24 アールリエット高円寺A棟 104","place":"まめくらし研究所","lat":0.0,"lon":0.0,"state":"active","id":null},{"event_id":"1358883","title":"エプソン主催ハッカソン Epson Hack Trek (Epson Connect APIによる、プリンターを利用したハッカソン)","url":"http://epsonhacktrek.peatix.com","shortener_url":"https://bit.ly/2BxTk5p","started_at":"2019-11-16T00:00:00.000+09:00","ended_at":"2019-11-18T23:59:59.000+09:00","limit_number":null,"address":"東京都中央区銀座1-8−19 キラリトギンザ11F","place":"バイナリスター ","lat":35.6743,"lon":139.769,"state":"active","id":null},{"event_id":"1358574","title":"滝の上の家庭菜園と季節のジャム ｜南伊豆くらし図鑑","url":"http://peatix.com/event/1358574","shortener_url":null,"started_at":"2019-11-02T04:30:00.000+09:00","ended_at":"2019-11-04T23:59:59.000+09:00","limit_number":null,"address":"静岡県賀茂郡南伊豆町伊浜","place":"静岡県賀茂郡南伊豆町","lat":0.0,"lon":0.0,"state":"active","id":null},{"event_id":"1357790","title":"子ども達が開発した商品が世の中で流通します☆農家、メーカー、デザイナー、各分野のプロと事業プロジェクトを体験しませんか？","url":"http://peatix.com/event/1357790","shortener_url":null,"started_at":"2019-11-17T01:00:00.000+09:00","ended_at":"2019-11-19T23:59:59.000+09:00","limit_number":null,"address":"泉佐野市鶴原1827","place":"泉佐野市三浦農園・大阪市・八尾市","lat":34.425,"lon":135.339,"state":"active","id":null},{"event_id":"152267","title":"【アイデアソン】ミレニアルズと災害に耐えうるまちのあり方を考えよう！","url":"https://connpass.com/event/152267/","shortener_url":"https://bit.ly/2PcHd5V","started_at":"2019-11-09T04:00:00.000+09:00","ended_at":"2019-11-09T08:30:00.000+09:00","limit_number":71,"address":"東京都中央区日本橋箱崎町19-21","place":"日本アイ・ビー・エム株式会社","lat":35.6788,"lon":139.787,"state":"active","id":null},{"event_id":"152529","title":"【東京】UX JAM' 03","url":"https://uxmilk.connpass.com/event/152529/","shortener_url":null,"started_at":"2019-11-06T10:30:00.000+09:00","ended_at":"2019-11-06T13:00:00.000+09:00","limit_number":220,"address":"東京都千代田区四番町6 東急番町ビル","place":"株式会社オプト","lat":35.6892,"lon":139.736,"state":"active","id":null},{"event_id":"147102","title":"スクラム道関西★大忘年会2019","url":"https://scrumdo-kansai.connpass.com/event/147102/","shortener_url":null,"started_at":"2019-11-30T10:00:00.000+09:00","ended_at":"2019-11-30T12:00:00.000+09:00","limit_number":30,"address":"大阪府大阪市北区曽根崎２－１０－１８","place":"居酒屋 本陣","lat":34.7008,"lon":135.501,"state":"active","id":null},{"event_id":"152526","title":"2019アーバンデータチャレンジ京都 in NDL関西館 アイディアソン","url":"https://udc-kyoto.connpass.com/event/152526/","shortener_url":"https://bit.ly/363ADoq","started_at":"2019-11-09T01:00:00.000+09:00","ended_at":"2019-11-09T08:00:00.000+09:00","limit_number":null,"address":"京都府相楽郡精華町精華台8-1-3","place":"国立国会図書館関西館","lat":34.7434,"lon":135.77,"state":"active","id":null},{"event_id":"99431","title":"デザイン☆ラボ（みしまみらい研究所）#2","url":"https://0168e91711e4c480d710c70399.doorkeeper.jp/events/99431","shortener_url":null,"started_at":"2019-11-21T09:30:00.000+09:00","ended_at":"2019-11-21T12:00:00.000+09:00","limit_number":null,"address":"みしま未来研究所、中央町6-2","place":"","lat":null,"lon":null,"state":"active","id":null},{"event_id":"99444","title":"【11/6（水）・13（水）】初心者向け・２回で学ぶシリーズ①『PythonとJupyterNotebookの基礎』","url":"https://soleildatadojo.doorkeeper.jp/events/99444","shortener_url":null,"started_at":"2019-11-06T10:30:00.000+09:00","ended_at":"2019-11-13T12:30:00.000+09:00","limit_number":8,"address":"大阪府大阪市北区西天満二丁目5番3号(堂島深川ビル3階)","place":"SCRIBBLE OSAKA LAB（SOL）（大阪メトロ御堂筋線「淀屋橋」駅から徒歩４分）","lat":null,"lon":null,"state":"active","id":null},{"event_id":"99445","title":"【11/20（水）・11/27（水）】初心者向け・２回で学ぶシリーズ②『Pandasによるデータ前処理と可視化の基礎』","url":"https://soleildatadojo.doorkeeper.jp/events/99445","shortener_url":null,"started_at":"2019-11-20T10:30:00.000+09:00","ended_at":"2019-11-27T12:30:00.000+09:00","limit_number":8,"address":"大阪府大阪市北区西天満二丁目5番3号(堂島深川ビル3階)","place":"SCRIBBLE OSAKA LAB（SOL）（大阪メトロ御堂筋線「淀屋橋」駅から徒歩４分）","lat":null,"lon":null,"state":"active","id":null},{"event_id":"99450","title":"【レベルと目的に応じて2冊の本で学ぶ】DeepLearning勉強会#11","url":"https://soleildatadojo.doorkeeper.jp/events/99450","shortener_url":null,"started_at":"2019-11-07T10:30:00.000+09:00","ended_at":"2019-11-07T12:30:00.000+09:00","limit_number":10,"address":"大阪府大阪市北区西天満二丁目5番3号(堂島深川ビル3階)","place":"SCRIBBLE OSAKA LAB（SOL）（大阪メトロ御堂筋線「淀屋橋」駅から徒歩４分）","lat":null,"lon":null,"state":"active","id":null},{"event_id":"98806","title":"動くチームの作り方","url":"https://swtokyo.doorkeeper.jp/events/98806","shortener_url":null,"started_at":"2019-11-14T10:00:00.000+09:00","ended_at":"2019-11-14T12:00:00.000+09:00","limit_number":10,"address":"東京都千代田区外神田4-14-1 秋葉原UDX 8F(南ウイング)弥生株式会社","place":"ヤヨイヒロバ","lat":null,"lon":null,"state":"active","id":null},{"event_id":"99549","title":"【大阪開催】みんなでKaggleもくもく会#6","url":"https://soleildatadojo.doorkeeper.jp/events/99549","shortener_url":null,"started_at":"2019-11-11T09:30:00.000+09:00","ended_at":"2019-11-11T12:30:00.000+09:00","limit_number":10,"address":"大阪府大阪市北区西天満二丁目5番3号(堂島深川ビル3階)","place":"SCRIBBLE OSAKA LAB（SOL）（大阪メトロ御堂筋線「淀屋橋」駅から徒歩４分）","lat":null,"lon":null,"state":"active","id":null},{"event_id":"1360532","title":"次世代音楽SNSを創ろう！JAM STUDIO presents コンセプトデザインワークショップ【VERSUSアイディアソン】","url":"http://vs-jamstudio-ideathon.peatix.com","shortener_url":"https://bit.ly/2q382ib","started_at":"2019-11-03T05:00:00.000+09:00","ended_at":"2019-11-05T23:59:59.000+09:00","limit_number":null,"address":"品川区大崎2丁目10−1","place":"ソニーシティ大崎","lat":35.6175,"lon":139.728,"state":"active","id":null},{"event_id":"149990","title":"グリー開発本部 Meetup #6 Jamboard","url":"https://gree.connpass.com/event/149990/","shortener_url":null,"started_at":"2019-11-06T10:30:00.000+09:00","ended_at":"2019-11-06T12:30:00.000+09:00","limit_number":40,"address":"東京都港区六本木6-10-1 六本木ヒルズ森タワー12F","place":"グリー株式会社 Future Lab","lat":35.6605,"lon":139.729,"state":"active","id":null},{"event_id":"152487","title":"AI勉強会～Actionable AI～ vol.3","url":"https://aai.connpass.com/event/152487/","shortener_url":null,"started_at":"2019-11-27T09:30:00.000+09:00","ended_at":"2019-11-27T11:30:00.000+09:00","limit_number":63,"address":"〒108-0075 東京都港区港南1-8-23 Shinagawa HEART 5F","place":"MACNICA 品川オフィス","lat":35.6296,"lon":139.745,"state":"active","id":null},{"event_id":"144378","title":"横須賀開催！Web×IoT メイカーズチャレンジ 2019-20 【ハンズオン講習\u0026ハッカソン】","url":"https://webiotmakers.connpass.com/event/144378/","shortener_url":"https://bit.ly/2MPwtZC","started_at":"2019-11-23T01:30:00.000+09:00","ended_at":"2019-11-24T08:00:00.000+09:00","limit_number":40,"address":"神奈川県横須賀市光の丘３番４号","place":"ＹＲＰセンター2番館","lat":35.2236,"lon":139.674,"state":"active","id":null},{"event_id":"1352259","title":"2019アーバンデータチャレンジ京都 in NDL関西館  アイディアソン","url":"http://ndlk-ideason.peatix.com","shortener_url":"https://bit.ly/36cGzve","started_at":"2019-11-09T01:00:00.000+09:00","ended_at":"2019-11-11T23:59:59.000+09:00","limit_number":null,"address":"精華町精華台8丁目1−3","place":"国立国会図書館 関西館","lat":34.7433,"lon":135.77,"state":"active","id":null},{"event_id":"152937","title":"Kamakura Mok Mok Hack 61 - 鎌倉もくもく会","url":"https://kamkura-mokmok.connpass.com/event/152937/","shortener_url":null,"started_at":"2019-11-02T02:00:00.000+09:00","ended_at":"2019-11-02T04:00:00.000+09:00","limit_number":7,"address":"神奈川県 鎌倉市由比ガ浜1丁目12-8","place":"HOUSE YUIGAHAMA","lat":35.3202,"lon":139.55,"state":"active","id":null},{"event_id":"152635","title":"智恵の和勉強会","url":"https://connpass.com/event/152635/","shortener_url":null,"started_at":"2019-11-02T04:00:00.000+09:00","ended_at":"2019-11-02T08:00:00.000+09:00","limit_number":null,"address":"東京都港区港南 2-16-3 品川グランドセントラルタワー","place":"マイクロソフト品川本社","lat":35.6267,"lon":139.74,"state":"active","id":null},{"event_id":"1364301","title":"ワークショップイベント 「めぞん梅の湯を作ろう！ テーブル作り」with 芋煮会（灯明）","url":"http://maison-umenoy-04.peatix.com","shortener_url":null,"started_at":"2019-11-04T04:00:00.000+09:00","ended_at":"2019-11-06T23:59:59.000+09:00","limit_number":null,"address":"東京都荒川区西尾久2-32","place":"めぞん梅の湯（マスミ美容室 2F,3F ）","lat":35.7482,"lon":139.762,"state":"active","id":null},{"event_id":"1360034","title":"【残席僅か！】アート×地域で実現！ふらっと地域に関わるアイデアソン ～「移住」に代わる言葉を考える～ 連続イベントVol.２","url":"http://flato-ichihara.peatix.com","shortener_url":"https://bit.ly/34fhfTH","started_at":"2019-11-20T10:00:00.000+09:00","ended_at":"2019-11-22T23:59:59.000+09:00","limit_number":null,"address":"中央区日本橋堀留町1丁目3−11","place":"AG\u0026FOOD CENTER (アグリホールディングス本社)","lat":35.6891,"lon":139.779,"state":"active","id":null},{"event_id":"1353378","title":"モダピん家in鎌倉！夜の部:モダBAR","url":"http://peatix.com/event/1353378","shortener_url":null,"started_at":"2019-11-03T08:30:00.000+09:00","ended_at":"2019-11-05T23:59:59.000+09:00","limit_number":null,"address":"〒248-0012 神奈川県鎌倉市御成町5-16","place":"面白法人カヤック(古民家 Share Room) https://www.kayac.com/company/map","lat":0.0,"lon":0.0,"state":"active","id":null},{"event_id":"1342018","title":"【にゃんこまつり】ゆるりんリンパケア体験セミナー　おウチの猫ちゃんも体験！！","url":"http://nyancomatsuri2019-2.peatix.com","shortener_url":null,"started_at":"2019-11-17T05:00:00.000+09:00","ended_at":"2019-11-19T23:59:59.000+09:00","limit_number":null,"address":"横浜市都筑区都筑区中川1丁目4−1","place":"ハウスクエア横浜","lat":35.5619,"lon":139.568,"state":"active","id":null},{"event_id":"1361028","title":"「木」と正面から向き合いませんか　～建築材としての「木」の神秘～ Vol.2","url":"http://peatix.com/event/1361028","shortener_url":null,"started_at":"2019-11-13T10:00:00.000+09:00","ended_at":"2019-11-15T23:59:59.000+09:00","limit_number":null,"address":"新宿区市谷田町1丁目14","place":"DNPプラザ","lat":35.6934,"lon":139.737,"state":"active","id":null},{"event_id":"1362145","title":"服部真二文化・スポーツ財団助成事業 「佐藤允彦＆林正樹」レクチャー＆コンサート ”即興演奏ってなんだ⁉︎”","url":"http://peatix.com/event/1362145","shortener_url":null,"started_at":"2019-11-28T10:00:00.000+09:00","ended_at":"2019-11-30T23:59:59.000+09:00","limit_number":null,"address":"東京都港区2-15-45","place":"慶應義塾大学北館ホール","lat":35.6484,"lon":139.743,"state":"active","id":null},{"event_id":"1355401","title":"わたしの創業ストーリー ～創業者のリアルな体験談を聞きませんか？～ Vol.2 カフェ編","url":"http://peatix.com/event/1355401","shortener_url":null,"started_at":"2019-11-21T04:00:00.000+09:00","ended_at":"2019-11-23T23:59:59.000+09:00","limit_number":null,"address":"福岡市中央区大名2丁目6−11","place":"福岡市スタートアップカフェ","lat":33.5889,"lon":130.395,"state":"active","id":null},{"event_id":"1349478","title":"いま、話題のアイシングクッキー入門講座！　インスタ映えはもちろん、オシャレなクッキーで年末年始のイベントを飾りませんか？","url":"http://prologueicingcookie.peatix.com","shortener_url":null,"started_at":"2019-11-06T10:00:00.000+09:00","ended_at":"2019-11-08T23:59:59.000+09:00","limit_number":null,"address":"京都市中京区西大黒町318","place":"プロローグ","lat":0.0,"lon":0.0,"state":"active","id":null},{"event_id":"1365109","title":"【11月前半のレッスン受付中】プロ講師のオンライン英語レッスンを試してみませんか？　リラックスして受講OK【水道橋駅 徒歩1分】","url":"http://offline201911vipabc01.peatix.com","shortener_url":null,"started_at":"2019-11-01T02:00:00.000+09:00","ended_at":"2019-11-03T23:59:59.000+09:00","limit_number":null,"address":"東京都千代田区神田三崎町2-20-5","place":"VIPABC東京本社　JR水道橋駅徒歩1分　住友不動産水道橋西口ビル7階","lat":35.7016,"lon":139.753,"state":"active","id":null},{"event_id":"1358115","title":"【無料体験会】岡山北長瀬校（金曜日）/2019年11月08日(金))　※チケット選択できない学年は、満員のため申込できませんのでご注意下さい。","url":"http://kitanagasekin-1108.peatix.com","shortener_url":null,"started_at":"2019-11-08T08:00:00.000+09:00","ended_at":"2019-11-10T23:59:59.000+09:00","limit_number":null,"address":"岡山市北区北長瀬表町1丁目1−1","place":"岡山ドーム隣の多目的広場A（南面道路側）","lat":34.6538,"lon":133.892,"state":"active","id":null},{"event_id":"1358112","title":"【無料体験会】岡山北長瀬校（金曜日）/2019年11月01日(金)　※チケット選択できない学年は、満員のため申込できませんのでご注意下さい。","url":"http://kitanagasekin-1101.peatix.com","shortener_url":null,"started_at":"2019-11-01T08:00:00.000+09:00","ended_at":"2019-11-03T23:59:59.000+09:00","limit_number":null,"address":"岡山市北区北長瀬表町1丁目1−1","place":"岡山ドーム隣の多目的広場A（南面道路側）","lat":34.6538,"lon":133.892,"state":"active","id":null},{"event_id":"1358704","title":"【無料】リアルタイムに図解する楽描（らくがき） 体験会 #楽描きワイワイ  （定例：毎月第２日曜日）※今回は都合により土曜日","url":"http://rkgkyy-20191109.peatix.com","shortener_url":null,"started_at":"2019-11-09T00:30:00.000+09:00","ended_at":"2019-11-11T23:59:59.000+09:00","limit_number":null,"address":"千代田区紀尾井町1−2 17F","place":"LODGE","lat":35.6797,"lon":139.737,"state":"active","id":null},{"event_id":"1351223","title":"【中止】【無料】リアルタイムに図解する楽描（らくがき） 体験会 #楽描ワイワイ  （定例：毎月第２日曜日）","url":"http://rkgkyy-20191110.peatix.com","shortener_url":null,"started_at":"2019-11-10T00:30:00.000+09:00","ended_at":"2019-11-12T23:59:59.000+09:00","limit_number":null,"address":"千代田区紀尾井町1−2 17F","place":"LODGE","lat":35.6797,"lon":139.737,"state":"active","id":null},{"event_id":"1355043","title":"【東京11月開催】04：直感的で快適なWEB環境を作る｢スマホ用UIデザイン｣","url":"http://peatix.com/event/1355043","shortener_url":null,"started_at":"2019-11-10T04:00:00.000+09:00","ended_at":"2019-11-12T23:59:59.000+09:00","limit_number":null,"address":"千代田区内神田3丁目24−5","place":"エッサム神田ホール２号館","lat":35.6924,"lon":139.769,"state":"active","id":null},{"event_id":"1355046","title":"【東京11月開催】03：ユーザーのニーズとリテラシーを基準に考える〜UIデザイン","url":"http://peatix.com/event/1355046","shortener_url":null,"started_at":"2019-11-10T08:30:00.000+09:00","ended_at":"2019-11-12T23:59:59.000+09:00","limit_number":null,"address":"千代田区内神田3丁目24−5","place":"エッサム神田ホール２号館","lat":35.6924,"lon":139.769,"state":"active","id":null},{"event_id":"1355042","title":"【東京体験版11月】初心者歓迎！他では絶対教えてくれない！楽しく学ぶユーザー視点のUIデザイン","url":"http://peatix.com/event/1355042","shortener_url":null,"started_at":"2019-11-01T10:00:00.000+09:00","ended_at":"2019-11-03T23:59:59.000+09:00","limit_number":null,"address":"千代田区神田鍛冶町3丁目2−2","place":"エッサム神田ホール1号館","lat":35.6935,"lon":139.771,"state":"active","id":null},{"event_id":"1355557","title":"超・実践型！「ファシリテーションJAM」無料体験セミナー","url":"http://peatix.com/event/1355557","shortener_url":null,"started_at":"2019-11-19T01:00:00.000+09:00","ended_at":"2019-11-21T23:59:59.000+09:00","limit_number":null,"address":"東京都港区赤坂2-14-27","place":"博報堂ラーニングスタジオ（国際新赤坂ビル 東館11F）","lat":35.6722,"lon":139.737,"state":"active","id":null},{"event_id":"1360276","title":"今、企業が考えるSDGs - Global Goals Jam Report -","url":"http://globalgoalsjamreport.peatix.com","shortener_url":null,"started_at":"2019-11-19T07:00:00.000+09:00","ended_at":"2019-11-21T23:59:59.000+09:00","limit_number":null,"address":"渋谷区道玄坂1丁目22−7 道玄坂ピア 1F","place":"FabCafe Tokyo","lat":35.6561,"lon":139.695,"state":"active","id":null},{"event_id":"1357982","title":"浜松市ハッカソン事前説明会「アグリテック特別セミナー」（東京会場）","url":"http://hamamatsuhack2019-t.peatix.com","shortener_url":"https://bit.ly/2JDoE7p","started_at":"2019-11-05T09:30:00.000+09:00","ended_at":"2019-11-07T23:59:59.000+09:00","limit_number":null,"address":"千代田区大手町1丁目6−1 大手町ビル 9階","place":"AgVenture Lab","lat":35.6864,"lon":139.765,"state":"active","id":null},{"event_id":"1366800","title":"Nov 3 - NBT Jam Session - Hosted by Michael Veerapen Trio","url":"http://peatix.com/event/1366800","shortener_url":null,"started_at":"2019-11-03T13:00:00.000+09:00","ended_at":"2019-11-05T23:59:59.000+09:00","limit_number":null,"address":"17, Jalan Mesui, off, Jalan Nagasari, Bukit Bintang, Kuala Lumpur","place":"No Black Tie","lat":3.14868,"lon":101.708,"state":"active","id":null},{"event_id":"1358030","title":"浜松市ハッカソン事前説明会「エッジデバイスにおけるディープラーニング推論ハンズオン」（浜松会場）","url":"http://hamamatsuhack2019-h.peatix.com","shortener_url":"https://bit.ly/2N4E1HV","started_at":"2019-11-19T04:00:00.000+09:00","ended_at":"2019-11-21T23:59:59.000+09:00","limit_number":null,"address":"静岡県浜松市西区舞阪町舞阪2701-9","place":"浜松市舞阪サテライトオフィス","lat":34.6875,"lon":137.608,"state":"active","id":null},{"event_id":"1367425","title":"第2弾 #BOKURAのセミナー『ユースキンのこと、You好きん？～BOKURAのファン創り～』","url":"http://bokura201911.peatix.com","shortener_url":null,"started_at":"2019-11-13T10:00:00.000+09:00","ended_at":"2019-11-15T23:59:59.000+09:00","limit_number":null,"address":"東京都渋谷区渋谷2-14-13 岡崎ビル3階 3C号室","place":"TIME SHARING 渋谷青山通り3F (JR山手線 渋谷駅 徒歩5分)","lat":0.0,"lon":0.0,"state":"active","id":null},{"event_id":"154109","title":"子ども向けプログラミングクラブ コーダー道場甲府#28","url":"https://coderdojokofu.connpass.com/event/154109/","shortener_url":null,"started_at":"2019-11-17T00:20:00.000+09:00","ended_at":"2019-11-17T01:40:00.000+09:00","limit_number":13,"address":"山梨県甲府市北口２丁目８番１号","place":"山梨県立図書館","lat":35.6685,"lon":138.57,"state":"active","id":null},{"event_id":"99050","title":"パラレルキャリアの始め方","url":"https://swtokyo.doorkeeper.jp/events/99050","shortener_url":null,"started_at":"2019-11-18T10:00:00.000+09:00","ended_at":"2019-11-18T12:00:00.000+09:00","limit_number":10,"address":"東京都港区南青山6-10-11","place":"Wesley Center #201","lat":null,"lon":null,"state":"active","id":null},{"event_id":"154107","title":"Kamakura Mok Mok Hack 62 - 鎌倉もくもく会","url":"https://kamkura-mokmok.connpass.com/event/154107/","shortener_url":null,"started_at":"2019-11-09T02:00:00.000+09:00","ended_at":"2019-11-09T04:00:00.000+09:00","limit_number":7,"address":"神奈川県 鎌倉市由比ガ浜1丁目12-8","place":"HOUSE YUIGAHAMA","lat":35.3202,"lon":139.55,"state":"active","id":null},{"event_id":"154105","title":"子どものためのプログラミングクラブ コーダー道場韮崎 #8","url":"https://coderdojo-nirasaki.connpass.com/event/154105/","shortener_url":null,"started_at":"2019-11-24T04:30:00.000+09:00","ended_at":"2019-11-24T06:40:00.000+09:00","limit_number":13,"address":"山梨県韮崎市若宮一丁目2番50号","place":"韮崎市民交流センター","lat":35.7117,"lon":138.45,"state":"active","id":null},{"event_id":"154065","title":"北欧＆東欧のスタートアップ（起業）トレンド","url":"https://hmcn.connpass.com/event/154065/","shortener_url":null,"started_at":"2019-11-26T09:30:00.000+09:00","ended_at":"2019-11-26T11:00:00.000+09:00","limit_number":40,"address":"広島市中区紙屋町1-4-3 (エフケイビル1F)","place":"イノベーション・ハブ・ひろしまCamps","lat":34.3941,"lon":132.459,"state":"active","id":null},{"event_id":"149675","title":"Oracle Big Data Jam Session #1","url":"https://oracle-code-tokyo-dev.connpass.com/event/149675/","shortener_url":null,"started_at":"2019-11-26T09:00:00.000+09:00","ended_at":"2019-11-26T12:00:00.000+09:00","limit_number":60,"address":"東京都港区北青山2-5-8 オラクル青山センター","place":"日本オラクル株式会社 13F","lat":35.6712,"lon":139.719,"state":"active","id":null},{"event_id":"153507","title":"スクラム道関西 オープン・ジャム","url":"https://scrumdo-kansai.connpass.com/event/153507/","shortener_url":null,"started_at":"2019-11-11T10:30:00.000+09:00","ended_at":"2019-11-11T12:30:00.000+09:00","limit_number":25,"address":"大阪府大阪市北区末広町3-7","place":"TAM COWORKING OSAKA","lat":34.7019,"lon":135.51,"state":"active","id":null},{"event_id":"154119","title":"子どものためのプログラミングクラブ コーダー道場北杜 #7","url":"https://coderdojo-hokuto.connpass.com/event/154119/","shortener_url":null,"started_at":"2019-11-23T00:30:00.000+09:00","ended_at":"2019-11-23T02:40:00.000+09:00","limit_number":8,"address":"山梨県北杜市高根町村山北割３２８８","place":"北杜市高根町農村環境改善センター","lat":35.8375,"lon":138.412,"state":"active","id":null},{"event_id":"99518","title":"コミュニティの育て方","url":"https://swtokyo.doorkeeper.jp/events/99518","shortener_url":null,"started_at":"2019-11-20T10:00:00.000+09:00","ended_at":"2019-11-20T12:00:00.000+09:00","limit_number":10,"address":"東京都港区南青山6-10-11","place":"Wesley Center #201","lat":null,"lon":null,"state":"active","id":null},{"event_id":"1358399","title":"「普通ってなんか嫌だ」大学生活をアップデートする社会への力試しを。ハタチのインターンに行ってみよ。〜Action編〜","url":"http://hatachinointern1120.peatix.com","shortener_url":null,"started_at":"2019-11-20T10:00:00.000+09:00","ended_at":"2019-11-22T23:59:59.000+09:00","limit_number":null,"address":"港区海岸1丁目2−20 20階 汐留ビルディング","place":"ロート製薬株式会社 東京支社","lat":35.6568,"lon":139.759,"state":"active","id":null},{"event_id":"100078","title":"『Python, Machine Learning \u0026 Raspberry PI』もくもく会#35","url":"https://soleildatadojo.doorkeeper.jp/events/100078","shortener_url":null,"started_at":"2019-11-12T10:30:00.000+09:00","ended_at":"2019-11-12T12:30:00.000+09:00","limit_number":8,"address":"大阪府大阪市北区西天満二丁目5番3号(堂島深川ビル3階)","place":"SCRIBBLE OSAKA LAB（SOL）（大阪メトロ御堂筋線「淀屋橋」駅から徒歩４分）","lat":null,"lon":null,"state":"active","id":null},{"event_id":"1371071","title":"【無料体験会】岡山北長瀬校（金曜日）/2019年11月15日(金)　※チケット選択できない学年は、満員のため申込できませんのでご注意下さい。","url":"http://kitanagasekin-1115.peatix.com","shortener_url":null,"started_at":"2019-11-15T08:00:00.000+09:00","ended_at":"2019-11-17T23:59:59.000+09:00","limit_number":null,"address":"岡山市北区北長瀬表町1丁目1−1","place":"岡山ドーム隣の多目的広場A（南面道路側）","lat":34.6538,"lon":133.892,"state":"active","id":null},{"event_id":"1371080","title":"【無料体験会】岡山北長瀬校（金曜日）/2019年11月29日(金)　※チケット選択できない学年は、満員のため申込できませんのでご注意下さい。","url":"http://kitanagasekin-1129.peatix.com","shortener_url":null,"started_at":"2019-11-29T08:00:00.000+09:00","ended_at":"2019-12-01T23:59:59.000+09:00","limit_number":null,"address":"岡山市北区北長瀬表町1丁目1−1","place":"岡山ドーム隣の多目的広場A（南面道路側）","lat":34.6538,"lon":133.892,"state":"active","id":null},{"event_id":"1371074","title":"【無料体験会】岡山北長瀬校（金曜日）/2019年11月22日(金)　※チケット選択できない学年は、満員のため申込できませんのでご注意下さい。","url":"http://kitanagasekin-1122.peatix.com","shortener_url":null,"started_at":"2019-11-22T08:00:00.000+09:00","ended_at":"2019-11-24T23:59:59.000+09:00","limit_number":null,"address":"岡山市北区北長瀬表町1丁目1−1","place":"岡山ドーム隣の多目的広場A（南面道路側）","lat":34.6538,"lon":133.892,"state":"active","id":null},{"event_id":"109939","title":"CSS設計を学んで、一日完結型のポートフォリオを作ってみよう！@駒沢大学前","url":"https://atnd.org/events/109939","shortener_url":"https://bit.ly/2JX7AJr","started_at":"2019-11-23T04:00:00.000+09:00","ended_at":"2019-11-23T11:00:00.000+09:00","limit_number":10,"address":"東京都世田谷区駒沢5丁目26−7 コマザワパークサイドテラスノース3F","place":"株式会社ALCHEMY","lat":35.6271,"lon":139.656,"state":"closed","id":null},{"event_id":"1367068","title":"ぽぷろないとvol.10【アップアップガールズ（仮）、われらがプワプワプーワプワ、きゅい～ん'ズ、れいん17、三浜ありさ（MC）】","url":"http://popnrollnight10.peatix.com","shortener_url":null,"started_at":"2019-11-21T09:30:00.000+09:00","ended_at":"2019-11-23T23:59:59.000+09:00","limit_number":null,"address":"港区 南青山6丁目10−12 フェイス南青山","place":"Future SEVEN","lat":35.6593,"lon":139.715,"state":"active","id":null},{"event_id":"1371092","title":"トークイベント「僕らにとってのいい服、いい道具ってなんだろう。」","url":"http://bokuranoiifukuiidogu.peatix.com","shortener_url":null,"started_at":"2019-11-29T10:00:00.000+09:00","ended_at":"2019-12-01T23:59:59.000+09:00","limit_number":null,"address":"名古屋市中区正木1丁目13−14 愛知県製綿センター1A","place":"cont / SHEEP DESIGN Inc.","lat":35.1507,"lon":136.896,"state":"active","id":null},{"event_id":"154541","title":"【参加無料】デジタル業界で働く、自分らしいキャリア形成をしていきたい女性の方必見！大柴ひさみさん登壇","url":"https://memuni.connpass.com/event/154541/","shortener_url":null,"started_at":"2019-11-18T10:00:00.000+09:00","ended_at":"2019-11-18T12:30:00.000+09:00","limit_number":10,"address":"東京都中央区晴海1-8-10 晴海アイランド トリトンスクエアオフィスタワーX 37階","place":"株式会社メンバーズ東京本社","lat":35.6564,"lon":139.782,"state":"active","id":null},{"event_id":"155044","title":"第627回 Kaggle 自然言語データ分析ハッカソン by Team AI 11/30(土)","url":"https://teamai.connpass.com/event/155044/","shortener_url":"https://bit.ly/2Ct9AFe","started_at":"2019-11-30T07:00:00.000+09:00","ended_at":"2019-11-30T09:00:00.000+09:00","limit_number":24,"address":"","place":"Online","lat":35.6618,"lon":139.696,"state":"active","id":null},{"event_id":"155039","title":"第624回 Kaggle 自然言語データ分析ハッカソン by Team AI 11/23(土)","url":"https://teamai.connpass.com/event/155039/","shortener_url":"https://bit.ly/36Pj5fM","started_at":"2019-11-23T07:00:00.000+09:00","ended_at":"2019-11-23T09:00:00.000+09:00","limit_number":18,"address":"","place":"Online","lat":35.6618,"lon":139.696,"state":"active","id":null},{"event_id":"1375567","title":"楠野一郎×西森路代「ここまでされたんだぞ！ 『HiGH\u0026LOW』について話す会、いくぞてめぇら！」","url":"http://peatix.com/event/1375567","shortener_url":null,"started_at":"2019-11-19T11:00:00.000+09:00","ended_at":"2019-11-21T23:59:59.000+09:00","limit_number":null,"address":"世田谷区北沢2-5-2 BIG BEN B1F","place":"本屋B\u0026B","lat":0.0,"lon":0.0,"state":"active","id":null},{"event_id":"1376520","title":"「わたしらしさ」発見ゼミ〜コミュニティビルダーと考える意食住の整え方〜 (豊かな暮らしってなんだ？①物質的・時間的)","url":"http://peatix.com/event/1376520","shortener_url":null,"started_at":"2019-11-28T11:00:00.000+09:00","ended_at":"2019-11-30T23:59:59.000+09:00","limit_number":null,"address":"東京都中央区日本橋茅場町1-5-8","place":"CAFE SALVADOR BUSINESS SALON","lat":35.6806,"lon":139.779,"state":"active","id":null},{"event_id":"1375757","title":"【満席】★体験イベント★ 大人になってからが楽しい!?『アジ旅で世界のテーブルゲームを体験しませんか?』《当日チケット: 1,000円》","url":"http://peatix.com/event/1375757","shortener_url":null,"started_at":"2019-11-24T04:00:00.000+09:00","ended_at":"2019-11-26T23:59:59.000+09:00","limit_number":null,"address":"Japan","place":"特定非営利活動法人シブヤ大学","lat":35.6737,"lon":139.712,"state":"active","id":null},{"event_id":"1376543","title":"「絵がうまくなるかもしれないカードゲーム」のお試しとミニミニワークショップ（ゲームマーケット２０１９秋会場内） #ゲムマ2019秋 #ゲームマーケット #グラレコ養成ギブス #グラレコ","url":"http://ujisakaeru-20191124.peatix.com","shortener_url":null,"started_at":"2019-11-24T03:50:00.000+09:00","ended_at":"2019-11-26T23:59:59.000+09:00","limit_number":null,"address":"江東区青海1丁目2−33","place":"東京ビッグサイト 青海展示棟","lat":35.6281,"lon":139.781,"state":"active","id":null},{"event_id":"1374456","title":"BAKED APPLE JAM　〜焼きリンゴジャムづくり〜","url":"http://peatix.com/event/1374456","shortener_url":null,"started_at":"2019-11-21T01:00:00.000+09:00","ended_at":"2019-11-23T23:59:59.000+09:00","limit_number":null,"address":"沼津市足高220−4","place":"泊まれる公園 INN THE PARK","lat":35.1606,"lon":138.85,"state":"active","id":null},{"event_id":"110024","title":"Togel Online Klix4D","url":"https://atnd.org/events/110024","shortener_url":null,"started_at":"2019-11-10T15:30:00.000+09:00","ended_at":"2020-01-12T17:00:00.000+09:00","limit_number":2,"address":"indonesia","place":"indonesia","lat":-0.789275,"lon":113.921,"state":"closed","id":null},{"event_id":"155524","title":"【大阪】UX JAM in OSAKA 02","url":"https://uxmilk.connpass.com/event/155524/","shortener_url":null,"started_at":"2019-11-26T10:30:00.000+09:00","ended_at":"2019-11-26T13:00:00.000+09:00","limit_number":80,"address":"大阪府大阪市北区大深町3番1号 グランフロント大阪タワーB23階","place":"GMOインターネット株式会社 （大阪）","lat":34.7054,"lon":135.495,"state":"active","id":null},{"event_id":"155486","title":"【全国】UX JAM Online #01","url":"https://uxmilk.connpass.com/event/155486/","shortener_url":null,"started_at":"2019-11-22T12:00:00.000+09:00","ended_at":"2019-11-22T13:30:00.000+09:00","limit_number":400,"address":"","place":"オンライン","lat":null,"lon":null,"state":"active","id":null},{"event_id":"155209","title":"Kamakura Mok Mok Hack 63 - 鎌倉もくもく会","url":"https://kamkura-mokmok.connpass.com/event/155209/","shortener_url":null,"started_at":"2019-11-16T02:00:00.000+09:00","ended_at":"2019-11-16T04:00:00.000+09:00","limit_number":7,"address":"神奈川県 鎌倉市由比ガ浜1丁目12-8","place":"HOUSE YUIGAHAMA","lat":35.3202,"lon":139.55,"state":"active","id":null},{"event_id":"1364835","title":"「14時間で作る新規事業案」ブロックチェーンビジネスアイデアソン#9","url":"http://blockchainbusinessideathon11.peatix.com","shortener_url":"https://bit.ly/370xsOF","started_at":"2019-11-29T10:00:00.000+09:00","ended_at":"2019-12-01T23:59:59.000+09:00","limit_number":null,"address":"中央区1丁目8−19 キラリトギンザ 11階","place":"BINARYSTAR 株式会社","lat":35.6744,"lon":139.769,"state":"active","id":null},{"event_id":"1373213","title":"（学生無料）ブロックチェーン研究教育講座（中級）第4講#1 【ブロックチェーンビジネスアイデアソン】","url":"http://bbc-waseda-brel-bs-blockchaincourse4.peatix.com","shortener_url":"https://bit.ly/34VmvMh","started_at":"2019-11-29T10:00:00.000+09:00","ended_at":"2019-12-01T23:59:59.000+09:00","limit_number":null,"address":"中央区1丁目8−19 キラリトギンザ 11階","place":"BINARYSTAR 株式会社","lat":35.6744,"lon":139.769,"state":"active","id":null},{"event_id":"155765","title":"スクラム道関西 オープン・ジャム","url":"https://scrumdo-kansai.connpass.com/event/155765/","shortener_url":null,"started_at":"2019-11-25T10:30:00.000+09:00","ended_at":"2019-11-25T12:30:00.000+09:00","limit_number":15,"address":"大阪府大阪市北区同心1-11-6","place":"株式会社タンバリン","lat":34.7016,"lon":135.515,"state":"active","id":null},{"event_id":"1369247","title":"新潟で農業・林業を始めませんか？～新規就農・就業チャレンジフェア～","url":"http://challengefair011124.peatix.com","shortener_url":null,"started_at":"2019-11-24T04:00:00.000+09:00","ended_at":"2019-11-26T23:59:59.000+09:00","limit_number":null,"address":"新潟市中央区弁天2-1-6","place":"新潟東映ホテル","lat":37.9147,"lon":139.059,"state":"active","id":null},{"event_id":"155133","title":"Kaggle FinTechデータ分析ハッカソン by Team AI 11/16（土）","url":"https://teamai.connpass.com/event/155133/","shortener_url":"https://bit.ly/2qXa4Rw","started_at":"2019-11-16T07:00:00.000+09:00","ended_at":"2019-11-16T09:00:00.000+09:00","limit_number":15,"address":"","place":"Online","lat":35.6618,"lon":139.696,"state":"active","id":null},{"event_id":"1366979","title":"Japan Searchハッカソン in UDC2019大阪","url":"http://udc2019osaka.peatix.com","shortener_url":null,"started_at":"2019-11-16T01:00:00.000+09:00","ended_at":"2019-11-18T23:59:59.000+09:00","limit_number":null,"address":"大阪府大阪市中央区本町3-4-11","place":"貸し会議室レン太本町A","lat":34.6838,"lon":135.502,"state":"active","id":null},{"event_id":"1367858","title":"H³ 第27回：「医療プロトタイピング超入門」＠日本橋","url":"http://hhh27.peatix.com","shortener_url":"https://bit.ly/37aigyE","started_at":"2019-11-21T10:00:00.000+09:00","ended_at":"2019-11-23T23:59:59.000+09:00","limit_number":null,"address":"東京都中央区日本橋本町2-3-11","place":"日本橋ライフサイエンスビルディング 313号室","lat":35.6877,"lon":139.776,"state":"active","id":null},{"event_id":"1360368","title":"スカイツリーから船に乗って門前仲町のお祭りに行きませんか？繋ぐ!!クルーズ2019  11/23（土）14:00〜　おしなり公園船着場発","url":"http://tsunagu-cruise201911231400.peatix.com","shortener_url":null,"started_at":"2019-11-23T05:00:00.000+09:00","ended_at":"2019-11-25T23:59:59.000+09:00","limit_number":null,"address":"東京都墨田区業平2丁目18−3","place":"おしなり公園船着場","lat":35.7094,"lon":139.812,"state":"active","id":null},{"event_id":"1360373","title":"スカイツリーから船に乗って門前仲町のお祭りに行きませんか？繋ぐ!!クルーズ2019  11/23（土）10:30〜　おしなり公園船着場発","url":"http://tsunagu-cruise201911231030.peatix.com","shortener_url":null,"started_at":"2019-11-23T01:30:00.000+09:00","ended_at":"2019-11-25T23:59:59.000+09:00","limit_number":null,"address":"東京都墨田区業平2丁目18−3","place":"おしなり公園船着場","lat":35.7094,"lon":139.812,"state":"active","id":null},{"event_id":"1363465","title":"スカイツリーから船に乗って門前仲町のお祭りに行きませんか？繋ぐ!!クルーズ2019  11/24（日）12:00〜　おしなり公園船着場発","url":"http://tsunagu-cruise201911241200.peatix.com","shortener_url":null,"started_at":"2019-11-24T03:00:00.000+09:00","ended_at":"2019-11-26T23:59:59.000+09:00","limit_number":null,"address":"東京都墨田区業平2丁目18−3","place":"おしなり公園船着場","lat":35.7094,"lon":139.812,"state":"active","id":null},{"event_id":"1382693","title":"開業時のリーガルリスクマネジメント【美容業を中心に】知りませんでしたでは済まされない！弁護士が教える１時間シリーズＶｏｌ．６","url":"http://peatix.com/event/1382693","shortener_url":null,"started_at":"2019-11-26T09:30:00.000+09:00","ended_at":"2019-11-28T23:59:59.000+09:00","limit_number":null,"address":"福岡市中央区大名2丁目6−11","place":"福岡市スタートアップカフェ","lat":33.5889,"lon":130.395,"state":"active","id":null},{"event_id":"1384213","title":"Nov 25 - NBT Jam Session - Hosted by Lewis Pragasam","url":"http://peatix.com/event/1384213","shortener_url":null,"started_at":"2019-11-25T13:00:00.000+09:00","ended_at":"2019-11-27T23:59:59.000+09:00","limit_number":null,"address":"17, Jalan Mesui, off, Jalan Nagasari, Bukit Bintang, Kuala Lumpur","place":"No Black Tie","lat":3.14868,"lon":101.708,"state":"active","id":null},{"event_id":"1370545","title":"「なぜそんなやり方するのだろう」相手が期待通り動いてくれないことはありませんか？","url":"http://peatix.com/event/1370545","shortener_url":null,"started_at":"2019-11-27T10:00:00.000+09:00","ended_at":"2019-11-29T23:59:59.000+09:00","limit_number":null,"address":"渋谷区桜丘町23−21","place":"渋谷区文化総合センター大和田","lat":35.6555,"lon":139.7,"state":"active","id":null},{"event_id":"151792","title":"mintech revival #2","url":"https://mintech.connpass.com/event/151792/","shortener_url":null,"started_at":"2019-11-30T05:00:00.000+09:00","ended_at":"2019-11-30T09:00:00.000+09:00","limit_number":15,"address":"北海道北見市泉町１丁目２−２２","place":"北見芸術文化ホール第ニ練習室","lat":43.8054,"lon":143.899,"state":"active","id":null},{"event_id":"1386097","title":"Nov 25 - NBT Jam Session - Hosted by Lewis Pragasam","url":"http://peatix.com/event/1386097","shortener_url":null,"started_at":"2019-11-25T13:00:00.000+09:00","ended_at":"2019-11-27T23:59:59.000+09:00","limit_number":null,"address":"17, Jalan Mesui, off, Jalan Nagasari, Bukit Bintang, Kuala Lumpur","place":"No Black Tie","lat":3.14868,"lon":101.708,"state":"active","id":null},{"event_id":"157792","title":"【初心者向け】北千住：社内インフラ構築手伝ってくれませんか","url":"https://soilab.connpass.com/event/157792/","shortener_url":null,"started_at":"2019-11-30T02:00:00.000+09:00","ended_at":"2019-11-30T08:00:00.000+09:00","limit_number":5,"address":"東京都足立区千住1-3-3金田ビル401","place":"創意ラボ(株)千住オフィス","lat":35.747,"lon":139.8,"state":"active","id":null},{"event_id":"110450","title":"Klassenzimmer verwenden WLAN Störsender Block-Telefone","url":"https://atnd.org/events/110450","shortener_url":null,"started_at":"2019-11-28T17:30:00.000+09:00","ended_at":"2019-11-29T17:30:00.000+09:00","limit_number":100,"address":"birminghan","place":"birmingham","lat":33.5186,"lon":-86.8104,"state":"closed","id":null},{"event_id":"1307659733357064197","title":"犬飼君，南谷さん，風呂川さん，正保さん，緒方さん，堀さんがKGアイデアソン2020で優秀賞と企業賞を受賞しました (2020.9.10) | 社会情報学ゼミ","url":"http://soc-research.org/ja/research-topic-54/","shortener_url":null,"started_at":"2019-11-15T09:43:00.000+09:00","ended_at":"2020-09-20T09:43:00.000+09:00","limit_number":null,"address":"奈良県天川村に行ってきました (2018.8.19)","place":"奈良県天川村に行ってきました (2018.8.19)\r","lat":34.242,"lon":135.855,"state":"active","id":null},{"event_id":"1315713721180852225","title":"Zürich","url":"https://climathon.climate-kic.org/zurich","shortener_url":null,"started_at":"2019-11-15T09:00:00.000+09:00","ended_at":"2020-10-15T06:00:00.000+09:00","limit_number":null,"address":null,"place":"online","lat":null,"lon":null,"state":"active","id":null},{"event_id":"1338834731752894466","title":"SHIBUYA スタートアップ100 | 渋谷を世界都市へと進化させる INNOVATION PROGRAM","url":"https://tlc-shibuya-innovation.net/","shortener_url":null,"started_at":"2019-11-14T00:00:00.000+09:00","ended_at":"2020-12-15T00:00:00.000+09:00","limit_number":null,"address":"長野県・信濃町のワーケーションの可能性に関するオンラインパネルディスカッション「ワーケーションの町、信濃町へShort Trip!」など、実名型旅メディア「Stayway」を活用したイベントを開催しました。","place":"長野県・信濃町のワーケーションの可能性に関するオンラインパネルディスカッション「ワーケーションの町、信濃町へShort Trip!」など、実名型旅メディア「Stayway」を活用したイベントを開催しました。","lat":36.8064,"lon":138.207,"state":"active","id":null},{"event_id":"75721524117","title":"EmpowHer Sisterhood: First Friday Conversation","url":"https://www.eventbrite.com/e/empowher-sisterhood-first-friday-conversation-tickets-75721524117","shortener_url":null,"started_at":"2019-11-01T18:00:00.000+09:00","ended_at":"2023-01-06T20:30:00.000+09:00","limit_number":null,"address":null,"place":"online","lat":null,"lon":null,"state":"active","id":null},{"event_id":"75721524117","title":"EmpowHer Sisterhood: Identifying the Cycle of Violence","url":"https://www.eventbrite.com/e/empowher-sisterhood-identifying-the-cycle-of-violence-tickets-75721524117","shortener_url":null,"started_at":"2019-11-01T18:00:00.000+09:00","ended_at":"2022-01-07T21:00:00.000+09:00","limit_number":null,"address":null,"place":"online","lat":null,"lon":null,"state":"active","id":null},{"event_id":"75721524117","title":"EmpowHer Sisterhood: First Friday Event","url":"https://www.eventbrite.com/e/empowher-sisterhood-first-friday-event-tickets-75721524117","shortener_url":null,"started_at":"2019-11-01T18:00:00.000+09:00","ended_at":"2023-01-06T20:30:00.000+09:00","limit_number":null,"address":null,"place":"online","lat":null,"lon":null,"state":"active","id":null},{"event_id":"75721524117","title":"EmpowHer Sisterhood: The Secret to Creating Prosperity in Your Business","url":"https://www.eventbrite.com/e/empowher-sisterhood-the-secret-to-creating-prosperity-in-your-business-tickets-75721524117","shortener_url":null,"started_at":"2019-11-01T18:00:00.000+09:00","ended_at":"2023-01-06T20:30:00.000+09:00","limit_number":null,"address":null,"place":"online","lat":null,"lon":null,"state":"active","id":null},{"event_id":"75721524117","title":"EmpowHer Sisterhood: Flipping the Switch from Imposter to Powerhouse","url":"https://www.eventbrite.com/e/empowher-sisterhood-flipping-the-switch-from-imposter-to-powerhouse-tickets-75721524117","shortener_url":null,"started_at":"2019-11-01T18:00:00.000+09:00","ended_at":"2023-01-06T20:30:00.000+09:00","limit_number":null,"address":null,"place":"online","lat":null,"lon":null,"state":"active","id":null},{"event_id":"75721524117","title":"EmpowHer Sisterhood: First Friday Conversation Series","url":"https://www.eventbrite.com/e/empowher-sisterhood-first-friday-conversation-series-tickets-75721524117","shortener_url":null,"started_at":"2019-11-01T18:00:00.000+09:00","ended_at":"2024-01-05T20:30:00.000+09:00","limit_number":null,"address":null,"place":"online","lat":null,"lon":null,"state":"active","id":null},{"event_id":"75721524117","title":"[EmpowHer Sisterhood]Taking Inventory: How to Know When to Let Go","url":"https://www.eventbrite.com/e/empowher-sisterhoodtaking-inventory-how-to-know-when-to-let-go-tickets-75721524117","shortener_url":null,"started_at":"2019-11-01T18:00:00.000+09:00","ended_at":"2023-01-06T20:30:00.000+09:00","limit_number":null,"address":null,"place":"online","lat":null,"lon":null,"state":"active","id":null},{"event_id":"75721524117","title":"Breaking Down the Steps to Success with Network Executive Elisa Olivares","url":"https://www.eventbrite.com/e/breaking-down-the-steps-to-success-with-network-executive-elisa-olivares-tickets-75721524117","shortener_url":null,"started_at":"2019-11-01T18:00:00.000+09:00","ended_at":"2023-01-06T20:30:00.000+09:00","limit_number":null,"address":null,"place":"online","lat":null,"lon":null,"state":"active","id":null},{"event_id":"75721524117","title":"EmpowHer Sisterhood: HOW TO MOVE THE NEEDLE WHEN YOU KEEP HEARING NO","url":"https://www.eventbrite.com/e/empowher-sisterhood-how-to-move-the-needle-when-you-keep-hearing-no-tickets-75721524117","shortener_url":null,"started_at":"2019-11-01T18:00:00.000+09:00","ended_at":"2023-01-06T20:30:00.000+09:00","limit_number":null,"address":null,"place":"online","lat":null,"lon":null,"state":"active","id":null},{"event_id":"75721524117","title":"EmpowHer Sisterhood: How to Reframe Your Subconscious for Success","url":"https://www.eventbrite.com/e/empowher-sisterhood-how-to-reframe-your-subconscious-for-success-tickets-75721524117","shortener_url":null,"started_at":"2019-11-01T18:00:00.000+09:00","ended_at":"2023-01-06T20:30:00.000+09:00","limit_number":null,"address":null,"place":"online","lat":null,"lon":null,"state":"active","id":null},{"event_id":"75721524117","title":"EmpowHer Sisterhood: Latina Trailblazers in Startup","url":"https://www.eventbrite.com/e/empowher-sisterhood-latina-trailblazers-in-startup-tickets-75721524117","shortener_url":null,"started_at":"2019-11-01T18:00:00.000+09:00","ended_at":"2023-01-06T20:30:00.000+09:00","limit_number":null,"address":null,"place":"online","lat":null,"lon":null,"state":"active","id":null},{"event_id":"75721524117","title":"EmpowHer Sisterhood: The Dance Between Corporate and Entrepreneurship","url":"https://www.eventbrite.com/e/empowher-sisterhood-the-dance-between-corporate-and-entrepreneurship-tickets-75721524117","shortener_url":null,"started_at":"2019-11-01T18:00:00.000+09:00","ended_at":"2023-01-06T20:30:00.000+09:00","limit_number":null,"address":null,"place":"online","lat":null,"lon":null,"state":"active","id":null},{"event_id":"75721524117","title":"EmpowHer Sisterhood: Prioritizing Your Sexual Wellness","url":"https://www.eventbrite.com/e/empowher-sisterhood-prioritizing-your-sexual-wellness-tickets-75721524117","shortener_url":null,"started_at":"2019-11-01T18:00:00.000+09:00","ended_at":"2023-01-06T20:30:00.000+09:00","limit_number":null,"address":null,"place":"online","lat":null,"lon":null,"state":"active","id":null},{"event_id":"75721524117","title":"EmpowHer Sisterhood: How Setting Boundaries Leads to Success","url":"https://www.eventbrite.com/e/empowher-sisterhood-how-setting-boundaries-leads-to-success-tickets-75721524117","shortener_url":null,"started_at":"2019-11-01T18:00:00.000+09:00","ended_at":"2023-01-06T20:30:00.000+09:00","limit_number":null,"address":null,"place":"online","lat":null,"lon":null,"state":"active","id":null},{"event_id":"75721524117","title":"EmpowHer Sisterhood: What No One Tells You About Moving to Hollywood","url":"https://www.eventbrite.com/e/empowher-sisterhood-what-no-one-tells-you-about-moving-to-hollywood-tickets-75721524117","shortener_url":null,"started_at":"2019-11-01T18:00:00.000+09:00","ended_at":"2023-01-06T20:30:00.000+09:00","limit_number":null,"address":null,"place":"online","lat":null,"lon":null,"state":"active","id":null},{"event_id":"75721524117","title":"EmpowHer Sisterhood:SOAR with Purpose: The 4 Keys to Entrepreneurial Succes","url":"https://www.eventbrite.com/e/empowher-sisterhoodsoar-with-purpose-the-4-keys-to-entrepreneurial-succes-tickets-75721524117","shortener_url":null,"started_at":"2019-11-01T18:00:00.000+09:00","ended_at":"2023-01-06T20:30:00.000+09:00","limit_number":null,"address":null,"place":"online","lat":null,"lon":null,"state":"active","id":null},{"event_id":"75721524117","title":"EmpowHer Sisterhood:First Friday Conversation Series","url":"https://www.eventbrite.com/e/empowher-sisterhoodfirst-friday-conversation-series-tickets-75721524117","shortener_url":null,"started_at":"2019-11-01T18:00:00.000+09:00","ended_at":"2023-01-06T20:30:00.000+09:00","limit_number":null,"address":null,"place":"online","lat":null,"lon":null,"state":"active","id":null},{"event_id":"75721524117","title":"EmpowHer Sisterhood: Let's Talk Onboarding","url":"https://www.eventbrite.com/e/empowher-sisterhood-lets-talk-onboarding-tickets-75721524117","shortener_url":null,"started_at":"2019-11-01T18:00:00.000+09:00","ended_at":"2023-01-06T20:30:00.000+09:00","limit_number":null,"address":null,"place":"online","lat":null,"lon":null,"state":"active","id":null},{"event_id":"75721524117","title":"EmpowHer Sisterhood: The Power of Cleansing","url":"https://www.eventbrite.com/e/empowher-sisterhood-the-power-of-cleansing-tickets-75721524117","shortener_url":null,"started_at":"2019-11-01T18:00:00.000+09:00","ended_at":"2023-01-06T20:30:00.000+09:00","limit_number":null,"address":null,"place":"online","lat":null,"lon":null,"state":"active","id":null}]