[{"event_id":"1378463","title":"地元創生アイデアソンイベント「第5回さぶみっと！ヨクスル in 大和高田」当分の間開催延期","url":"http://peatix.com/event/1378463","shortener_url":"https://bit.ly/2Z3TiNM","started_at":"2020-05-16T14:00:00.000+09:00","ended_at":"2020-05-19T08:59:59.000+09:00","limit_number":null,"address":"大和高田市片塩町12−5","place":"大和高田市市民交流センター「コスモスプラザ」","lat":34.509,"lon":135.743,"state":"active","id":null},{"event_id":"102912","title":"【5月開講に延期】《大阪開催》【5/9（土）開講！第9期生募集】データ分析教育講座《5−7月》","url":"https://soleildatadojo.doorkeeper.jp/events/102912","shortener_url":null,"started_at":"2020-05-09T10:00:00.000+09:00","ended_at":"2020-07-25T17:10:00.000+09:00","limit_number":15,"address":"大阪府大阪市北区西天満2−5−3(堂島深川ビル3F)","place":"Scrrible Osaka Lab（大阪メトロ御堂筋線「淀屋橋」駅より徒歩4分／京阪電鉄中之島線「大江橋」駅徒歩2分）","lat":34.6952,"lon":135.502,"state":"active","id":null},{"event_id":"1421130","title":"【ぶっちゃけ途上国支援で飯くってけるんですか？】NPO代表がお答えします。 =NPO/国際協力のリアルトーク＝ in東京","url":"http://realtalk0505.peatix.com","shortener_url":null,"started_at":"2020-05-05T15:45:00.000+09:00","ended_at":"2020-05-08T08:59:59.000+09:00","limit_number":null,"address":"新宿区市谷本村町10−5 JICA市ヶ谷ビル","place":"JICA地球ひろば","lat":35.6945,"lon":139.731,"state":"active","id":null},{"event_id":"1434498","title":"大阪一括5月開催｜他では絶対教えてくれないUIデザインのワザをたっぷり学ぶ《基礎・応用編》","url":"http://peatix.com/event/1434498","shortener_url":null,"started_at":"2020-05-23T09:15:00.000+09:00","ended_at":"2020-05-26T08:59:59.000+09:00","limit_number":null,"address":"大阪市淀川区西中島5-14-10新大阪トヨタビル9F, 14, 府淀川区","place":"アットビジネスセンターPREMIUM新大阪（正面口駅前）","lat":34.7313,"lon":135.499,"state":"active","id":null},{"event_id":"1434511","title":"単体05【大阪5月開催】提案の説得力を高める「ユーザー視点のUI設計＆提案書」","url":"http://peatix.com/event/1434511","shortener_url":null,"started_at":"2020-05-24T14:00:00.000+09:00","ended_at":"2020-05-27T08:59:59.000+09:00","limit_number":null,"address":"大阪市淀川区西中島5-14-10新大阪トヨタビル9F, 14, 府淀川区","place":"アットビジネスセンターPREMIUM新大阪（正面口駅前）","lat":34.7313,"lon":135.499,"state":"active","id":null},{"event_id":"105160","title":"【非構造化データなんかこわくない】2回で学ぶ！OpenCVではじめる画像処理【基礎編】","url":"https://soleildatadojo.doorkeeper.jp/events/105160","shortener_url":null,"started_at":"2020-05-10T14:00:00.000+09:00","ended_at":"2020-05-17T17:00:00.000+09:00","limit_number":12,"address":"大阪府大阪市北区西天満二丁目5番3号(堂島深川ビル3階)","place":"SCRIBBLE OSAKA LAB（SOL）（大阪メトロ御堂筋線「淀屋橋」駅から徒歩４分）","lat":34.6951,"lon":135.502,"state":"active","id":null},{"event_id":"1451236","title":"5/16(土)~17(日) festivo ウェブデザイン Camp@東京 【学生20,000円、一般25,000円(税別)】～2講師体制で戦うスキルを身につける15時間！HTML/CSS/WEBサイトコーディング/Photoshop集中合宿！～","url":"http://peatix.com/event/1451236","shortener_url":"https://bit.ly/33NMRAH","started_at":"2020-05-16T10:30:00.000+09:00","ended_at":"2020-05-19T08:59:59.000+09:00","limit_number":null,"address":"東京都練馬区豊玉北3-15-17","place":"起業家シェアハウス x-garden セミナールーム","lat":35.7329,"lon":139.661,"state":"active","id":null},{"event_id":"172157","title":"増席【Incubate School 第1期】〜後編・VC資金調達のためのピッチブック編〜","url":"https://incubatefund.connpass.com/event/172157/","shortener_url":null,"started_at":"2020-05-19T19:30:00.000+09:00","ended_at":"2020-05-19T21:30:00.000+09:00","limit_number":40,"address":"オンライン","place":"Zoom（参加者の方に個別でご案内させていただきます。）","lat":null,"lon":null,"state":"active","id":null},{"event_id":"172156","title":"増席【Incubate School 第1期】〜前編・VC資金調達のための基礎編〜","url":"https://incubatefund.connpass.com/event/172156/","shortener_url":null,"started_at":"2020-05-12T19:30:00.000+09:00","ended_at":"2020-05-12T21:30:00.000+09:00","limit_number":50,"address":"オンライン","place":"Zoom（参加者の方に個別でご案内させていただきます。）","lat":null,"lon":null,"state":"active","id":null},{"event_id":"105768","title":"［WEB］Startup Weekend 熊本 座談会","url":"https://swkumamoto.doorkeeper.jp/events/105768","shortener_url":null,"started_at":"2020-05-03T22:00:00.000+09:00","ended_at":"2020-05-03T23:00:00.000+09:00","limit_number":10,"address":"Zoom","place":"","lat":null,"lon":null,"state":"active","id":null},{"event_id":"1457032","title":"お家で染料育てませんか？～藍の種・紅花の種・ムラサキの種セット～[栽培方法プリント付]","url":"http://peatix.com/event/1457032","shortener_url":null,"started_at":"2020-05-09T12:00:00.000+09:00","ended_at":"2020-05-12T08:59:59.000+09:00","limit_number":null,"address":"日本","place":"皆さまの家","lat":0.0,"lon":0.0,"state":"active","id":null},{"event_id":"105752","title":"［WEB］Startup Weekend 神戸 座談会","url":"https://swkobe.doorkeeper.jp/events/105752","shortener_url":null,"started_at":"2020-05-02T22:00:00.000+09:00","ended_at":"2020-05-02T23:00:00.000+09:00","limit_number":10,"address":"Zoomを用いて開催いたします","place":"","lat":null,"lon":null,"state":"active","id":null},{"event_id":"105906","title":"［Web］Startup Weekend 福山 座談会","url":"https://swfukuyama.doorkeeper.jp/events/105906","shortener_url":null,"started_at":"2020-05-01T21:30:00.000+09:00","ended_at":"2020-05-01T23:00:00.000+09:00","limit_number":10,"address":"Zoomを用いて開催いたします","place":"","lat":null,"lon":null,"state":"active","id":null},{"event_id":"1462486","title":"5月15日 (金) カフェ会やランチ会など企画して主催しませんか?「カフェ会主催ワークショップ」","url":"http://peatix.com/event/1462486","shortener_url":null,"started_at":"2020-05-15T13:30:00.000+09:00","ended_at":"2020-05-18T08:59:59.000+09:00","limit_number":null,"address":"東京都千代田区神田神保町1丁目4","place":"まんぷくカリー24神保町店","lat":35.6962,"lon":139.76,"state":"active","id":null},{"event_id":"1462512","title":"5月15日 (金) カフェ会やランチ会など企画して主催しませんか?「カフェ会主催ワークショップ」","url":"http://peatix.com/event/1462512","shortener_url":null,"started_at":"2020-05-15T13:30:00.000+09:00","ended_at":"2020-05-18T08:59:59.000+09:00","limit_number":null,"address":"東京都千代田区神田神保町1丁目4","place":"まんぷくカリー24神保町店","lat":35.6962,"lon":139.76,"state":"active","id":null},{"event_id":"1463538","title":"【小学生〜】オンライン合宿『2020年 宇宙の旅』【5/4月・5/5火】","url":"http://onlinecamp2020gw.peatix.com","shortener_url":null,"started_at":"2020-05-04T15:30:00.000+09:00","ended_at":"2020-05-07T08:59:59.000+09:00","limit_number":null,"address":"","place":"xxxonlineeventxxx","lat":0.0,"lon":0.0,"state":"active","id":null},{"event_id":"1463214","title":"【オンライン】『電磁波ストレスマネジメント講座』 むやみに電磁波を心配するのは、もうやめませんか？","url":"http://peatix.com/event/1463214","shortener_url":null,"started_at":"2020-05-23T13:00:00.000+09:00","ended_at":"2020-05-26T08:59:59.000+09:00","limit_number":null,"address":"","place":"xxxonlineeventxxx","lat":0.0,"lon":0.0,"state":"active","id":null},{"event_id":"1465078","title":"【オンライン・無料】なんだ、かんたんでした。SDGs対談①マッキンゼー・国連で働きコペルニクを創業したCEO中村俊裕×su-re.co CEO高間 剛","url":"http://tigermov0501.peatix.com","shortener_url":null,"started_at":"2020-05-01T19:00:00.000+09:00","ended_at":"2020-05-04T08:59:59.000+09:00","limit_number":null,"address":"","place":"xxxonlineeventxxx","lat":0.0,"lon":0.0,"state":"active","id":null},{"event_id":"1465062","title":"満員御礼★3席追加★テレワーク中の今こそ、自分を成長させませんか？自宅にいながらスキルアップ！「職場の人間関係を良好にしたいあなたへ」自然と周囲に人が集まる【とっておきの3つのコツ】伝授＼30名様限定／診断＆アドバイスつきオンラインセミナー","url":"http://peatix.com/event/1465062","shortener_url":null,"started_at":"2020-05-21T19:00:00.000+09:00","ended_at":"2020-05-24T08:59:59.000+09:00","limit_number":null,"address":"","place":"xxxonlineeventxxx","lat":0.0,"lon":0.0,"state":"active","id":null},{"event_id":"105999","title":"Startup Weekend Online vol.1（スタートアップ ウイークエンド愛媛） ","url":"https://swehime.doorkeeper.jp/events/105999","shortener_url":null,"started_at":"2020-05-15T19:05:00.000+09:00","ended_at":"2020-05-17T21:00:00.000+09:00","limit_number":38,"address":"","place":"","lat":null,"lon":null,"state":"active","id":null},{"event_id":"174269","title":"SHIMANE GREEN JAM ONLINE #1","url":"https://sgj.connpass.com/event/174269/","shortener_url":null,"started_at":"2020-05-10T14:00:00.000+09:00","ended_at":"2020-05-10T18:00:00.000+09:00","limit_number":null,"address":"","place":"zoom","lat":null,"lon":null,"state":"active","id":null},{"event_id":"1465838","title":"【構築コンサル費用0円】人事評価をシンプルに始めませんか？／構築コンサルティング費用0で実現する！人事評価制度構築セミナー★オンライン開催★","url":"http://peatix.com/event/1465838","shortener_url":null,"started_at":"2020-05-29T10:00:00.000+09:00","ended_at":"2020-06-01T08:59:59.000+09:00","limit_number":null,"address":"","place":"xxxonlineeventxxx","lat":0.0,"lon":0.0,"state":"active","id":null},{"event_id":"174376","title":"スクラム道関西 オープン・ジャム・オンライン","url":"https://scrumdo-kansai.connpass.com/event/174376/","shortener_url":null,"started_at":"2020-05-04T21:00:00.000+09:00","ended_at":"2020-05-04T23:00:00.000+09:00","limit_number":20,"address":"オンライン","place":"オンライン","lat":null,"lon":null,"state":"active","id":null},{"event_id":"174451","title":"【オンライン限定】Salesforce Saturday 赤坂＃11","url":"https://salesforcesaturday-akasaka.connpass.com/event/174451/","shortener_url":null,"started_at":"2020-05-30T13:00:00.000+09:00","ended_at":"2020-05-30T17:00:00.000+09:00","limit_number":60,"address":"オンライン","place":"Salesforce Saturday Online","lat":null,"lon":null,"state":"active","id":null},{"event_id":"1466062","title":"お家で手帳タイム！イエチッタしませんか？ 5月2日（土）","url":"http://citta20200502.peatix.com","shortener_url":null,"started_at":"2020-05-02T10:00:00.000+09:00","ended_at":"2020-05-05T08:59:59.000+09:00","limit_number":null,"address":"","place":"xxxonlineeventxxx","lat":0.0,"lon":0.0,"state":"active","id":null},{"event_id":"174457","title":"オンラインゲームジャムin島根","url":"https://connpass.com/event/174457/","shortener_url":"https://bit.ly/2Ky3M1k","started_at":"2020-05-02T10:00:00.000+09:00","ended_at":"2020-05-04T18:00:00.000+09:00","limit_number":null,"address":"オンライン","place":"Discord","lat":null,"lon":null,"state":"active","id":null},{"event_id":"1466439","title":"学生と仕事の掛け算vol.3-移住・休学しないでローカルに関わる　「学生兼業」という選択を考えるアイデアソン-","url":"http://gakusei-kengyo-3.peatix.com","shortener_url":"https://bit.ly/2yFVbXF","started_at":"2020-05-05T13:00:00.000+09:00","ended_at":"2020-05-08T08:59:59.000+09:00","limit_number":null,"address":"","place":"xxxonlineeventxxx","lat":0.0,"lon":0.0,"state":"active","id":null},{"event_id":"105753","title":"［WEB］Startup Weekend 大阪 座談会","url":"https://swosaka.doorkeeper.jp/events/105753","shortener_url":null,"started_at":"2020-05-09T22:00:00.000+09:00","ended_at":"2020-05-09T23:00:00.000+09:00","limit_number":10,"address":"Zoom","place":"","lat":null,"lon":null,"state":"active","id":null},{"event_id":"174636","title":"【リモートで開催】第2回アイデアソン＠（よこはま）","url":"https://moku-moku-yokohama.connpass.com/event/174636/","shortener_url":"https://bit.ly/3bzVWA6","started_at":"2020-05-09T10:00:00.000+09:00","ended_at":"2020-05-09T18:00:00.000+09:00","limit_number":9,"address":"神奈川県横浜市西区みなとみらい3丁目71","place":"","lat":35.4582,"lon":139.634,"state":"active","id":null},{"event_id":"1470878","title":"【先着50名】飲んで応援！「オンライン醸造所見学\u0026飲み会」お米のクラフトビールで乾杯しませんか？","url":"http://ienomi-gm7-1.peatix.com","shortener_url":null,"started_at":"2020-05-04T16:00:00.000+09:00","ended_at":"2020-05-07T08:59:59.000+09:00","limit_number":null,"address":"","place":"xxxonlineeventxxx","lat":0.0,"lon":0.0,"state":"active","id":null},{"event_id":"106361","title":"［Web］Startup Weekend 浜松 座談会","url":"https://swhamamatsu.doorkeeper.jp/events/106361","shortener_url":null,"started_at":"2020-05-15T21:30:00.000+09:00","ended_at":"2020-05-15T23:00:00.000+09:00","limit_number":10,"address":"Zoomを用いて開催いたします","place":"","lat":null,"lon":null,"state":"active","id":null},{"event_id":"174797","title":"Humans (Women) Who Go Tokyo もくもく合宿 2020 Day5","url":"https://womenwhogo-tokyo.connpass.com/event/174797/","shortener_url":"https://bit.ly/2xXdZ4S","started_at":"2020-05-06T14:00:00.000+09:00","ended_at":"2020-05-06T17:00:00.000+09:00","limit_number":26,"address":"","place":"オンライン","lat":null,"lon":null,"state":"active","id":null},{"event_id":"1469014","title":"【クリスチャン限定！オンラインクリスチャンアイデアソン】","url":"http://covid19jc01.peatix.com","shortener_url":"https://bit.ly/2VYMDmM","started_at":"2020-05-04T09:30:00.000+09:00","ended_at":"2020-05-07T08:59:59.000+09:00","limit_number":null,"address":"","place":"xxxonlineeventxxx","lat":0.0,"lon":0.0,"state":"active","id":null},{"event_id":"174796","title":"Humans (Women) Who Go Tokyo もくもく合宿 2020 Day4","url":"https://womenwhogo-tokyo.connpass.com/event/174796/","shortener_url":"https://bit.ly/2KBIgc7","started_at":"2020-05-05T14:00:00.000+09:00","ended_at":"2020-05-05T17:00:00.000+09:00","limit_number":26,"address":"","place":"オンライン","lat":null,"lon":null,"state":"active","id":null},{"event_id":"174768","title":"Humans (Women) Who Go Tokyo もくもく合宿 2020 Day3","url":"https://womenwhogo-tokyo.connpass.com/event/174768/","shortener_url":"https://bit.ly/3cW5XYu","started_at":"2020-05-04T14:00:00.000+09:00","ended_at":"2020-05-04T17:00:00.000+09:00","limit_number":27,"address":"","place":"オンライン","lat":null,"lon":null,"state":"active","id":null},{"event_id":"174767","title":"Humans (Women) Who Go Tokyo もくもく合宿 2020 Day2","url":"https://womenwhogo-tokyo.connpass.com/event/174767/","shortener_url":"https://bit.ly/2YnoKbx","started_at":"2020-05-03T14:00:00.000+09:00","ended_at":"2020-05-03T17:00:00.000+09:00","limit_number":26,"address":"","place":"オンライン","lat":null,"lon":null,"state":"active","id":null},{"event_id":"172843","title":"Humans (Women) Who Go Tokyo もくもく合宿 2020 Day1","url":"https://womenwhogo-tokyo.connpass.com/event/172843/","shortener_url":"https://bit.ly/3aPrv84","started_at":"2020-05-02T14:00:00.000+09:00","ended_at":"2020-05-02T17:00:00.000+09:00","limit_number":30,"address":"","place":"オンライン","lat":null,"lon":null,"state":"active","id":null},{"event_id":"174751","title":"CoderDojo伊勢 オンライン勉強会(自宅で参加するプログラミング勉強会)","url":"https://coderdojo-ise.connpass.com/event/174751/","shortener_url":null,"started_at":"2020-05-02T13:30:00.000+09:00","ended_at":"2020-05-02T15:30:00.000+09:00","limit_number":10,"address":"オンライン","place":"各自の自宅など","lat":null,"lon":null,"state":"active","id":null},{"event_id":"1468828","title":"IchigoJamオンライン \"プチ\"ハッカソン（大喜利）＜無料＞","url":"http://putihack20200505.peatix.com","shortener_url":"https://bit.ly/2VFDJM2","started_at":"2020-05-05T14:00:00.000+09:00","ended_at":"2020-05-08T08:59:59.000+09:00","limit_number":null,"address":"","place":"xxxonlineeventxxx","lat":0.0,"lon":0.0,"state":"active","id":null},{"event_id":"1467109","title":"おうちじかん応援企画／無料オンラインイベント～つながる♡マインドフルネス～","url":"http://peatix.com/event/1467109","shortener_url":null,"started_at":"2020-05-02T10:00:00.000+09:00","ended_at":"2020-05-05T08:59:59.000+09:00","limit_number":null,"address":"","place":"xxxonlineeventxxx","lat":0.0,"lon":0.0,"state":"active","id":null},{"event_id":"1462784","title":"【オンライン読書会】あらゆるものはひもでできている？世界は９次元？『超ひも理論をパパに習ってみた』を読む。５月の「本で遊ぶじかん」","url":"http://sugoi2005.peatix.com","shortener_url":null,"started_at":"2020-05-20T19:00:00.000+09:00","ended_at":"2020-05-23T08:59:59.000+09:00","limit_number":null,"address":"","place":"xxxonlineeventxxx","lat":0.0,"lon":0.0,"state":"active","id":null},{"event_id":"1472198","title":"オンライン講座３： UIデザインが 成すべきユーザー 視点の重要性","url":"http://peatix.com/event/1472198","shortener_url":null,"started_at":"2020-05-06T15:00:00.000+09:00","ended_at":"2020-05-09T08:59:59.000+09:00","limit_number":null,"address":"","place":"xxxonlineeventxxx","lat":0.0,"lon":0.0,"state":"active","id":null},{"event_id":"1472204","title":"オンライン講座5：スマホサイトを快適にするナビゲーション性能","url":"http://peatix.com/event/1472204","shortener_url":null,"started_at":"2020-05-06T20:00:00.000+09:00","ended_at":"2020-05-09T08:59:59.000+09:00","limit_number":null,"address":"","place":"xxxonlineeventxxx","lat":0.0,"lon":0.0,"state":"active","id":null},{"event_id":"1472190","title":"オンライン講座１：認知学などのデータから学ぶUIデザイン","url":"http://peatix.com/event/1472190","shortener_url":null,"started_at":"2020-05-05T15:00:00.000+09:00","ended_at":"2020-05-08T08:59:59.000+09:00","limit_number":null,"address":"","place":"xxxonlineeventxxx","lat":0.0,"lon":0.0,"state":"active","id":null},{"event_id":"1472042","title":"オンライン講座９：ユーザーに支持される情報デザイン","url":"http://peatix.com/event/1472042","shortener_url":null,"started_at":"2020-05-03T20:00:00.000+09:00","ended_at":"2020-05-06T08:59:59.000+09:00","limit_number":null,"address":"","place":"xxxonlineeventxxx","lat":0.0,"lon":0.0,"state":"active","id":null},{"event_id":"1472051","title":"オンライン講座10：ブランド価値とUI性能を高める色彩計画","url":"http://peatix.com/event/1472051","shortener_url":null,"started_at":"2020-05-04T20:00:00.000+09:00","ended_at":"2020-05-07T08:59:59.000+09:00","limit_number":null,"address":"","place":"xxxonlineeventxxx","lat":0.0,"lon":0.0,"state":"active","id":null},{"event_id":"1472195","title":"オンライン講座２：わかりやすいサイトを作るUIデザインのツボ","url":"http://peatix.com/event/1472195","shortener_url":null,"started_at":"2020-05-05T17:00:00.000+09:00","ended_at":"2020-05-08T08:59:59.000+09:00","limit_number":null,"address":"","place":"xxxonlineeventxxx","lat":0.0,"lon":0.0,"state":"active","id":null},{"event_id":"1472016","title":"オンライン講座８：ユーザーとの接点を大切にする「ニーズ」の考え方","url":"http://peatix.com/event/1472016","shortener_url":null,"started_at":"2020-05-03T17:00:00.000+09:00","ended_at":"2020-05-06T08:59:59.000+09:00","limit_number":null,"address":"","place":"xxxonlineeventxxx","lat":0.0,"lon":0.0,"state":"active","id":null},{"event_id":"1472201","title":"オンライン講座４：良い悪いが比べてわかる！使いやすいナビゲーション","url":"http://peatix.com/event/1472201","shortener_url":null,"started_at":"2020-05-06T17:00:00.000+09:00","ended_at":"2020-05-09T08:59:59.000+09:00","limit_number":null,"address":"","place":"xxxonlineeventxxx","lat":0.0,"lon":0.0,"state":"active","id":null},{"event_id":"106402","title":"【オンライン開催】★2カ月で実装力を磨く！TensorFlowとKeras勉強会#5","url":"https://soleildatadojo.doorkeeper.jp/events/106402","shortener_url":null,"started_at":"2020-05-05T19:00:00.000+09:00","ended_at":"2020-05-05T21:00:00.000+09:00","limit_number":8,"address":"","place":"オンライン開催","lat":null,"lon":null,"state":"active","id":null},{"event_id":"174825","title":"Kamakura Mok Mok Hack 71 - 鎌倉もくもく会","url":"https://kamkura-mokmok.connpass.com/event/174825/","shortener_url":null,"started_at":"2020-05-02T12:00:00.000+09:00","ended_at":"2020-05-02T16:00:00.000+09:00","limit_number":10,"address":"オンライン","place":"zoom","lat":null,"lon":null,"state":"active","id":null},{"event_id":"1471622","title":"＼オンライン合宿！／ファシリテーター・青木将幸と場を編む人・藤本遼の「場づくり」対談・ワークショップ","url":"http://bazukuritrainingcamp.peatix.com","shortener_url":"https://bit.ly/3f3q88K","started_at":"2020-05-16T17:00:00.000+09:00","ended_at":"2020-05-19T08:59:59.000+09:00","limit_number":null,"address":"","place":"xxxonlineeventxxx","lat":0.0,"lon":0.0,"state":"active","id":null},{"event_id":"1471530","title":"ケンとしげこのゴールデンウィーク・オンライン・リトリート ３日間  〜 人生を豊かにする合宿～","url":"http://lifeenrichingretreat3days.peatix.com","shortener_url":null,"started_at":"2020-05-04T10:00:00.000+09:00","ended_at":"2020-05-07T08:59:59.000+09:00","limit_number":null,"address":"","place":"xxxonlineeventxxx","lat":0.0,"lon":0.0,"state":"active","id":null},{"event_id":"1467015","title":"【オンライン円満離婚セミナー】～家の中で夫婦でいる時間が長くなり、 「もう無理！」と思っている人必見！  お相手に「別れたい！」と話をする前に、しっかり離婚についての知識をつけませんか？～","url":"http://allegrare-corona-divorceseminar.peatix.com","shortener_url":null,"started_at":"2020-05-13T10:30:00.000+09:00","ended_at":"2020-05-16T08:59:59.000+09:00","limit_number":null,"address":"","place":"xxxonlineeventxxx","lat":0.0,"lon":0.0,"state":"active","id":null},{"event_id":"1469661","title":"土曜追加開催！【オンライン円満離婚セミナー】～家の中で夫婦でいる時間が長くなり、 「もう無理！」と思っている人必見！ お相手に「別れたい！」と話をする前に、しっかり離婚についての知識をつけませんか？～","url":"http://allegrare-corona-divorceseminar2.peatix.com","shortener_url":null,"started_at":"2020-05-16T10:30:00.000+09:00","ended_at":"2020-05-19T08:59:59.000+09:00","limit_number":null,"address":"","place":"xxxonlineeventxxx","lat":0.0,"lon":0.0,"state":"active","id":null},{"event_id":"174847","title":"Hack The Crisis for Food Culture \u003cCOVID-19ハッカソン\u003e","url":"https://retty.connpass.com/event/174847/","shortener_url":"https://bit.ly/2KIu7d6","started_at":"2020-05-03T11:00:00.000+09:00","ended_at":"2020-05-05T18:00:00.000+09:00","limit_number":55,"address":"オンライン","place":"オンライン (Slack)","lat":null,"lon":null,"state":"active","id":null},{"event_id":"1472901","title":"〔Zoom開催〕◆採用「仮面」討論会◆ - 採用担当者 \u0026 就職活動中の方、所属を明かさず討論しません？","url":"http://050413.peatix.com","shortener_url":null,"started_at":"2020-05-04T13:00:00.000+09:00","ended_at":"2020-05-07T08:59:59.000+09:00","limit_number":null,"address":"","place":"xxxonlineeventxxx","lat":0.0,"lon":0.0,"state":"active","id":null},{"event_id":"1474012","title":"Zoomで開催◆『今からやるんだったらどんな仕事や働くスタイルがベストか考えてみよう』デザイナーズトーク Number 10","url":"http://peatix.com/event/1474012","shortener_url":null,"started_at":"2020-05-04T17:00:00.000+09:00","ended_at":"2020-05-07T08:59:59.000+09:00","limit_number":null,"address":"","place":"xxxonlineeventxxx","lat":0.0,"lon":0.0,"state":"active","id":null},{"event_id":"1473140","title":"【オンライン】即戦力！辞めない！会社が大好き！ そんな、夢のような採用したくありませんか？「失敗しない採用術 入門講座」5/1","url":"http://peatix.com/event/1473140","shortener_url":null,"started_at":"2020-05-01T14:00:00.000+09:00","ended_at":"2020-05-04T08:59:59.000+09:00","limit_number":null,"address":"","place":"xxxonlineeventxxx","lat":0.0,"lon":0.0,"state":"active","id":null},{"event_id":"1474628","title":"【無料・オンライン】5/2朝の部：POINTS OF YOU®体験会や資格講座に関する説明会","url":"http://free-seminar-points-of-you.peatix.com","shortener_url":null,"started_at":"2020-05-02T10:00:00.000+09:00","ended_at":"2020-05-05T08:59:59.000+09:00","limit_number":null,"address":"","place":"xxxonlineeventxxx","lat":0.0,"lon":0.0,"state":"active","id":null},{"event_id":"1474964","title":"【無料・オンライン】5/3朝の部：POINTS OF YOU®体験会や資格講座に関する説明会 (複製)","url":"http://free-seminar-points-of-you200503pm.peatix.com","shortener_url":null,"started_at":"2020-05-03T21:00:00.000+09:00","ended_at":"2020-05-06T08:59:59.000+09:00","limit_number":null,"address":"","place":"xxxonlineeventxxx","lat":0.0,"lon":0.0,"state":"active","id":null},{"event_id":"1470845","title":"【無料・オンライン】5/1夜の部：POINTS OF YOU®体験会や資格講座に関する説明会","url":"http://free-seminar-points-of-you200501.peatix.com","shortener_url":null,"started_at":"2020-05-01T21:00:00.000+09:00","ended_at":"2020-05-04T08:59:59.000+09:00","limit_number":null,"address":"","place":"xxxonlineeventxxx","lat":0.0,"lon":0.0,"state":"active","id":null},{"event_id":"1474911","title":"【無料・オンライン】5/14 夜の部：POINTS OF YOU®体験会や資格講座に関する説明会","url":"http://free-seminar-points-of-you200514.peatix.com","shortener_url":null,"started_at":"2020-05-14T21:00:00.000+09:00","ended_at":"2020-05-17T08:59:59.000+09:00","limit_number":null,"address":"","place":"xxxonlineeventxxx","lat":0.0,"lon":0.0,"state":"active","id":null},{"event_id":"1474920","title":"【無料・オンライン】5/19 夜の部：POINTS OF YOU®体験会や資格講座に関する説明会","url":"http://free-seminar-points-of-you200519.peatix.com","shortener_url":null,"started_at":"2020-05-19T21:00:00.000+09:00","ended_at":"2020-05-22T08:59:59.000+09:00","limit_number":null,"address":"","place":"xxxonlineeventxxx","lat":0.0,"lon":0.0,"state":"active","id":null},{"event_id":"1474782","title":"【無料・オンライン】5/3朝の部：POINTS OF YOU®体験会や資格講座に関する説明会","url":"http://peatix.com/event/1474782","shortener_url":null,"started_at":"2020-05-03T10:00:00.000+09:00","ended_at":"2020-05-06T08:59:59.000+09:00","limit_number":null,"address":"","place":"xxxonlineeventxxx","lat":0.0,"lon":0.0,"state":"active","id":null},{"event_id":"1474956","title":"【無料・オンライン】5/2夜の部：POINTS OF YOU®体験会や資格講座に関する説明会","url":"http://peatix.com/event/1474956","shortener_url":null,"started_at":"2020-05-02T21:00:00.000+09:00","ended_at":"2020-05-05T08:59:59.000+09:00","limit_number":null,"address":"","place":"xxxonlineeventxxx","lat":0.0,"lon":0.0,"state":"active","id":null},{"event_id":"106458","title":"♪HackCamp緊急企画ゴールデンHackウィーク♪　オンライン会議用アイスブレイクワーク開発ワークショップ","url":"https://hackcamp.doorkeeper.jp/events/106458","shortener_url":null,"started_at":"2020-05-04T10:00:00.000+09:00","ended_at":"2020-05-04T11:30:00.000+09:00","limit_number":15,"address":"","place":"","lat":null,"lon":null,"state":"active","id":null},{"event_id":"106459","title":"♪HackCamp緊急企画ゴールデンHackウィーク♪　関治之と焚き火でチルアウトトーク","url":"https://hackcamp.doorkeeper.jp/events/106459","shortener_url":null,"started_at":"2020-05-05T21:00:00.000+09:00","ended_at":"2020-05-05T23:00:00.000+09:00","limit_number":null,"address":"","place":"","lat":null,"lon":null,"state":"active","id":null},{"event_id":"106001","title":"［Web］Startup Weekend 座談会","url":"https://swkanmon.doorkeeper.jp/events/106001","shortener_url":null,"started_at":"2020-05-16T21:30:00.000+09:00","ended_at":"2020-05-16T23:00:00.000+09:00","limit_number":10,"address":"Zoomを用いて開催いたします","place":"","lat":null,"lon":null,"state":"active","id":null},{"event_id":"106456","title":"♪HackCamp緊急企画ゴールデンHackウィーク♪　矢吹博和とプランク耐久チャレンジ","url":"https://hackcamp.doorkeeper.jp/events/106456","shortener_url":null,"started_at":"2020-05-02T17:00:00.000+09:00","ended_at":"2020-05-02T17:25:00.000+09:00","limit_number":null,"address":"","place":"","lat":null,"lon":null,"state":"active","id":null},{"event_id":"106466","title":"♪HackCamp緊急企画ゴールデンHackウィーク♪　趣味悠々forハッカーズ","url":"https://hackcamp.doorkeeper.jp/events/106466","shortener_url":null,"started_at":"2020-05-03T10:00:00.000+09:00","ended_at":"2020-05-03T11:00:00.000+09:00","limit_number":null,"address":"","place":"","lat":null,"lon":null,"state":"active","id":null},{"event_id":"1475661","title":"5/4月　ゆるゆる気功でわたしになるBe myselfじかん","url":"http://200504body.peatix.com","shortener_url":null,"started_at":"2020-05-04T10:00:00.000+09:00","ended_at":"2020-05-07T08:59:59.000+09:00","limit_number":null,"address":"","place":"xxxonlineeventxxx","lat":0.0,"lon":0.0,"state":"active","id":null},{"event_id":"175294","title":"CoderDojo伊勢 オンライン勉強会(自宅で参加するプログラミング勉強会)","url":"https://coderdojo-ise.connpass.com/event/175294/","shortener_url":null,"started_at":"2020-05-24T13:30:00.000+09:00","ended_at":"2020-05-24T15:30:00.000+09:00","limit_number":10,"address":"オンライン","place":"各自の自宅など","lat":null,"lon":null,"state":"active","id":null},{"event_id":"174588","title":"WACATEオンライン昼の分科会","url":"https://wacate.connpass.com/event/174588/","shortener_url":null,"started_at":"2020-05-16T12:45:00.000+09:00","ended_at":"2020-05-16T15:00:00.000+09:00","limit_number":25,"address":"オンライン","place":"Discord","lat":null,"lon":null,"state":"active","id":null},{"event_id":"175331","title":"Online A:Mac Gathering","url":"https://connpass.com/event/175331/","shortener_url":null,"started_at":"2020-05-06T17:00:00.000+09:00","ended_at":"2020-05-06T23:30:00.000+09:00","limit_number":30,"address":"オンライン","place":"Google Meet(予定)","lat":null,"lon":null,"state":"active","id":null},{"event_id":"1475448","title":"enjoyおうちじかん！フォトグラファー直伝！スマホでごはんを美味しそうに撮るテクニック","url":"http://enjoyouchi-food.peatix.com","shortener_url":null,"started_at":"2020-05-02T19:45:00.000+09:00","ended_at":"2020-05-05T08:59:59.000+09:00","limit_number":null,"address":"","place":"xxxonlineeventxxx","lat":0.0,"lon":0.0,"state":"active","id":null},{"event_id":"1467111","title":"こんな時みんなどうしているんだろう？　オンライントークで語り合おう！","url":"http://can-onlinetalk-tkt.peatix.com","shortener_url":null,"started_at":"2020-05-01T21:00:00.000+09:00","ended_at":"2020-05-04T08:59:59.000+09:00","limit_number":null,"address":"","place":"xxxonlineeventxxx","lat":0.0,"lon":0.0,"state":"active","id":null},{"event_id":"1476285","title":"2020年秋学期 10月開講！社会起業大学 学校説明会　社会起業の初めの一歩で必要なことを学びませんか？【オンライン開催】","url":"http://peatix.com/event/1476285","shortener_url":null,"started_at":"2020-05-14T20:00:00.000+09:00","ended_at":"2020-05-17T08:59:59.000+09:00","limit_number":null,"address":"東京都千代田区二番町2番平田ビル1階","place":"社会起業大学","lat":35.687,"lon":139.738,"state":"active","id":null},{"event_id":"1476058","title":"2020年秋学期 10月開講！社会起業大学 学校説明会　社会起業の初めの一歩で必要なことを学びませんか？【オンライン開催】","url":"http://peatix.com/event/1476058","shortener_url":null,"started_at":"2020-05-14T19:00:00.000+09:00","ended_at":"2020-05-17T08:59:59.000+09:00","limit_number":null,"address":"東京都千代田区二番町2番平田ビル1階","place":"社会起業大学","lat":35.687,"lon":139.738,"state":"active","id":null},{"event_id":"1474806","title":"【無料】5/16(土) 9:00-9:40 ゆるーいZoomオンライン座禅会(椅子瞑想)#1　初心者大歓迎、Zoom初心者も大歓迎。コロナウィルスでの心の疲れを取りませんか？","url":"http://smilecompass01.peatix.com","shortener_url":null,"started_at":"2020-05-16T09:00:00.000+09:00","ended_at":"2020-05-19T08:59:59.000+09:00","limit_number":null,"address":"","place":"xxxonlineeventxxx","lat":0.0,"lon":0.0,"state":"active","id":null},{"event_id":"106526","title":"【週1オンライン開催！】実装力を磨く！PyTorch勉強会#1","url":"https://soleildatadojo.doorkeeper.jp/events/106526","shortener_url":null,"started_at":"2020-05-12T20:00:00.000+09:00","ended_at":"2020-05-12T21:00:00.000+09:00","limit_number":10,"address":"","place":"オンライン開催","lat":null,"lon":null,"state":"active","id":null},{"event_id":"106532","title":"［WEB座談会］アフターコロナにおけるアニメビジネスの可能性","url":"https://swtokyo.doorkeeper.jp/events/106532","shortener_url":null,"started_at":"2020-05-23T21:30:00.000+09:00","ended_at":"2020-05-23T23:00:00.000+09:00","limit_number":10,"address":"Zoom","place":"","lat":null,"lon":null,"state":"active","id":null},{"event_id":"175428","title":"Kamakura Mok Mok Hack 72 - 鎌倉もくもく会","url":"https://kamkura-mokmok.connpass.com/event/175428/","shortener_url":null,"started_at":"2020-05-09T13:00:00.000+09:00","ended_at":"2020-05-09T16:00:00.000+09:00","limit_number":10,"address":"オンライン","place":"zoom","lat":null,"lon":null,"state":"active","id":null},{"event_id":"106549","title":"［WEB］Startup Weekend 名古屋 座談会","url":"https://swnagoya.doorkeeper.jp/events/106549","shortener_url":null,"started_at":"2020-05-22T21:30:00.000+09:00","ended_at":"2020-05-22T23:00:00.000+09:00","limit_number":10,"address":"Zoomを用いて開催いたします","place":"","lat":null,"lon":null,"state":"active","id":null},{"event_id":"175275","title":"動画制作＋フリーランス座談会","url":"https://connpass.com/event/175275/","shortener_url":null,"started_at":"2020-05-11T05:00:00.000+09:00","ended_at":"2020-05-11T06:30:00.000+09:00","limit_number":100,"address":"","place":"オンライン","lat":null,"lon":null,"state":"active","id":null},{"event_id":"106339","title":"［Web］Startup Weekend 岡山 座談会","url":"https://swokayama.doorkeeper.jp/events/106339","shortener_url":null,"started_at":"2020-05-30T21:30:00.000+09:00","ended_at":"2020-05-30T23:00:00.000+09:00","limit_number":10,"address":"Zoomを用いて開催いたします","place":"","lat":null,"lon":null,"state":"active","id":null},{"event_id":"1473607","title":"『メンタルRESET合宿 0522-0524』綿本彰オンライン合宿＠zoom","url":"http://ouchiretreat.peatix.com","shortener_url":null,"started_at":"2020-05-22T20:00:00.000+09:00","ended_at":"2020-05-25T08:59:59.000+09:00","limit_number":null,"address":"","place":"xxxonlineeventxxx","lat":0.0,"lon":0.0,"state":"active","id":null},{"event_id":"1476365","title":"【満員御礼】戸田久実先生がご登壇！アンガーマネジメント講座～日常や職場で、イラッとすることはありませんか？","url":"http://moriyaconsulting0523.peatix.com","shortener_url":null,"started_at":"2020-05-23T14:00:00.000+09:00","ended_at":"2020-05-26T08:59:59.000+09:00","limit_number":null,"address":"","place":"xxxonlineeventxxx","lat":0.0,"lon":0.0,"state":"active","id":null},{"event_id":"175625","title":"【オンライン緊急企画：第8回】九州をITの力でサポートしたい～たまにはノンテック塾～","url":"https://hakata-tech-juku.connpass.com/event/175625/","shortener_url":null,"started_at":"2020-05-22T18:00:00.000+09:00","ended_at":"2020-05-22T20:00:00.000+09:00","limit_number":10,"address":"福岡県福岡市博多区博多駅南1-2-2 博多1091ビル7F","place":"パソナテック　福岡支店・博多Lab","lat":33.5894,"lon":130.4,"state":"active","id":null},{"event_id":"1477455","title":"【満席】\"オンライン旅\"　大阪のローカルを、おうちで旅してみませんか？ 5月6日開催 @LINDAHOSTEL106","url":"http://peatix.com/event/1477455","shortener_url":null,"started_at":"2020-05-06T20:00:00.000+09:00","ended_at":"2020-05-09T08:59:59.000+09:00","limit_number":null,"address":"大阪市北区浮田1-1-8","place":"LINDA HOSTEL 106 on Zoom","lat":0.0,"lon":0.0,"state":"active","id":null},{"event_id":"1477460","title":"【満席】\"オンライン旅\"　大阪のローカルを、おうちで旅してみませんか？ 5月10日開催 @LINDAHOSTEL106","url":"http://peatix.com/event/1477460","shortener_url":null,"started_at":"2020-05-10T20:00:00.000+09:00","ended_at":"2020-05-13T08:59:59.000+09:00","limit_number":null,"address":"大阪市北区浮田1-1-8","place":"LINDA HOSTEL 106 on Zoom","lat":0.0,"lon":0.0,"state":"active","id":null},{"event_id":"1478537","title":"オンライン開催！！不登校・引きこもりは３週間で解消できる！！　アドバイザー養成 体験講座（３週間で不登校を解消に導くメソッドについて学んでみませんか？）","url":"http://futoukou-kaisyou202005.peatix.com","shortener_url":null,"started_at":"2020-05-08T15:00:00.000+09:00","ended_at":"2020-05-11T08:59:59.000+09:00","limit_number":null,"address":"","place":"xxxonlineeventxxx","lat":0.0,"lon":0.0,"state":"active","id":null},{"event_id":"175448","title":"Iwate x Yokohama.Unity ～地方をテーマに1Dayオンラインゲームジャム～","url":"https://iwateunity.connpass.com/event/175448/","shortener_url":"https://bit.ly/3chcgpX","started_at":"2020-05-30T10:00:00.000+09:00","ended_at":"2020-05-30T20:00:00.000+09:00","limit_number":15,"address":"オンライン","place":"オンライン","lat":null,"lon":null,"state":"active","id":null},{"event_id":"1475865","title":"【人事・育成担当者向け】コロナ環境下に絶対必要なマネジメント３ヶ条","url":"http://jam20200511.peatix.com","shortener_url":null,"started_at":"2020-05-11T16:00:00.000+09:00","ended_at":"2020-05-14T08:59:59.000+09:00","limit_number":null,"address":"","place":"xxxonlineeventxxx","lat":0.0,"lon":0.0,"state":"active","id":null},{"event_id":"1481662","title":"2020年秋学期 10月開講！社会起業大学 学校説明会　社会起業の初めの一歩で必要なことを学びませんか？【オンライン開催】","url":"http://peatix.com/event/1481662","shortener_url":null,"started_at":"2020-05-21T20:00:00.000+09:00","ended_at":"2020-05-24T08:59:59.000+09:00","limit_number":null,"address":"東京都千代田区二番町2番平田ビル1階","place":"社会起業大学","lat":35.687,"lon":139.738,"state":"active","id":null},{"event_id":"1481688","title":"2020年秋学期 10月開講！社会起業大学 学校説明会　社会起業の初めの一歩で必要なことを学びませんか？【オンライン開催】","url":"http://peatix.com/event/1481688","shortener_url":null,"started_at":"2020-05-21T19:00:00.000+09:00","ended_at":"2020-05-24T08:59:59.000+09:00","limit_number":null,"address":"東京都千代田区二番町2番平田ビル1階","place":"社会起業大学","lat":35.687,"lon":139.738,"state":"active","id":null},{"event_id":"1483173","title":"【第一回】角ハイ・ベンチャー  ~角ハイボールを飲みながら、ベンチャー企業のマーケ・営業の成功談・失敗談を聴きませんか？~","url":"http://kakuhai-venture-20200516.peatix.com","shortener_url":null,"started_at":"2020-05-16T18:00:00.000+09:00","ended_at":"2020-05-19T08:59:59.000+09:00","limit_number":null,"address":"","place":"xxxonlineeventxxx","lat":0.0,"lon":0.0,"state":"active","id":null},{"event_id":"175969","title":"GitLab Hackathon 2Q '2020 in Japanese","url":"https://gitlab-jp.connpass.com/event/175969/","shortener_url":"https://bit.ly/2WYbgAH","started_at":"2020-05-13T16:00:00.000+09:00","ended_at":"2020-05-13T19:30:00.000+09:00","limit_number":10,"address":"","place":"GitLab-JP Slack","lat":null,"lon":null,"state":"active","id":null},{"event_id":"1480027","title":"茶ッカソン in 530week","url":"http://peatix.com/event/1480027","shortener_url":null,"started_at":"2020-05-23T15:00:00.000+09:00","ended_at":"2020-05-26T08:59:59.000+09:00","limit_number":null,"address":"","place":"xxxonlineeventxxx","lat":0.0,"lon":0.0,"state":"active","id":null},{"event_id":"175893","title":"【リモートで再開】なんでもモクモク会＋プチ講座＠よこはま#26","url":"https://moku-moku-yokohama.connpass.com/event/175893/","shortener_url":null,"started_at":"2020-05-16T10:00:00.000+09:00","ended_at":"2020-05-16T18:00:00.000+09:00","limit_number":13,"address":"横浜市西区みなとみらい 3-7-1","place":"OCEAN GATE MINATO MIRAI@WeWork","lat":35.4581,"lon":139.634,"state":"active","id":null},{"event_id":"1484945","title":"SOYON 2020 half year Calendar❤そよんオリジナルカレンダー販売/ オンラインサイン会（5/26 tue 20:00-@そよんちゃんねる）","url":"http://soyon2020calendar.peatix.com","shortener_url":null,"started_at":"2020-05-23T18:00:00.000+09:00","ended_at":"2020-05-26T08:59:59.000+09:00","limit_number":null,"address":"東京都渋谷区","place":"そよんちゃんねる（YouTubeで検索！！）","lat":0.0,"lon":0.0,"state":"active","id":null},{"event_id":"1484982","title":"マサヤとゆる飲みしませんか？5月分","url":"http://peatix.com/event/1484982","shortener_url":null,"started_at":"2020-05-29T22:00:00.000+09:00","ended_at":"2020-06-01T08:59:59.000+09:00","limit_number":null,"address":"","place":"xxxonlineeventxxx","lat":0.0,"lon":0.0,"state":"active","id":null},{"event_id":"175925","title":"スクラム道関西 オープン・ジャム・オンライン","url":"https://scrumdo-kansai.connpass.com/event/175925/","shortener_url":null,"started_at":"2020-05-22T21:00:00.000+09:00","ended_at":"2020-05-22T23:00:00.000+09:00","limit_number":25,"address":"オンライン","place":"オンライン","lat":null,"lon":null,"state":"active","id":null},{"event_id":"1482442","title":"[1日限定]グリーンサービスプロデューサーアイデアソンvol.2","url":"http://gsp0518.peatix.com","shortener_url":"https://bit.ly/2zrdCjg","started_at":"2020-05-18T20:00:00.000+09:00","ended_at":"2020-05-21T08:59:59.000+09:00","limit_number":null,"address":"","place":"xxxonlineeventxxx","lat":0.0,"lon":0.0,"state":"active","id":null},{"event_id":"1482766","title":"5/16土　ゆるゆる気功でわたしになるBe myselfじかん","url":"http://200516body.peatix.com","shortener_url":null,"started_at":"2020-05-16T09:30:00.000+09:00","ended_at":"2020-05-19T08:59:59.000+09:00","limit_number":null,"address":"","place":"xxxonlineeventxxx","lat":0.0,"lon":0.0,"state":"active","id":null},{"event_id":"1482786","title":"5/28木　ゆるゆる気功でわたしになるBe myselfじかん","url":"http://200528body.peatix.com","shortener_url":null,"started_at":"2020-05-28T09:00:00.000+09:00","ended_at":"2020-05-31T08:59:59.000+09:00","limit_number":null,"address":"","place":"xxxonlineeventxxx","lat":0.0,"lon":0.0,"state":"active","id":null},{"event_id":"1482778","title":"5/21木　ゆるゆる気功でわたしになるBe myselfじかん","url":"http://200521body.peatix.com","shortener_url":null,"started_at":"2020-05-21T09:00:00.000+09:00","ended_at":"2020-05-24T08:59:59.000+09:00","limit_number":null,"address":"","place":"xxxonlineeventxxx","lat":0.0,"lon":0.0,"state":"active","id":null},{"event_id":"1486054","title":"「ティッシュでつくる、ヘアドレス」クラフトじかん＃01 　Studio+Lotus8 gift for kids.","url":"http://peatix.com/event/1486054","shortener_url":null,"started_at":"2020-05-13T10:30:00.000+09:00","ended_at":"2020-05-16T08:59:59.000+09:00","limit_number":null,"address":"","place":"xxxonlineeventxxx","lat":0.0,"lon":0.0,"state":"active","id":null},{"event_id":"1483443","title":"オンライン：第17回文蔵組落語会　ゲスト：柳家小里ん　※アーカイブ販売：5/29（金）21時まで","url":"http://bunzougumi17.peatix.com","shortener_url":null,"started_at":"2020-05-26T19:30:00.000+09:00","ended_at":"2020-05-29T08:59:59.000+09:00","limit_number":null,"address":"","place":"xxxonlineeventxxx","lat":0.0,"lon":0.0,"state":"active","id":null},{"event_id":"106737","title":"［WEB］Startup Weekend Cebu 座談会","url":"https://swtokyo.doorkeeper.jp/events/106737","shortener_url":null,"started_at":"2020-05-26T21:30:00.000+09:00","ended_at":"2020-05-26T23:00:00.000+09:00","limit_number":10,"address":"Zoom","place":"","lat":null,"lon":null,"state":"active","id":null},{"event_id":"106750","title":"【週1オンライン開催！】実装力を磨く！PyTorch勉強会#2","url":"https://soleildatadojo.doorkeeper.jp/events/106750","shortener_url":null,"started_at":"2020-05-19T20:00:00.000+09:00","ended_at":"2020-05-19T21:00:00.000+09:00","limit_number":10,"address":"","place":"オンライン開催","lat":null,"lon":null,"state":"active","id":null},{"event_id":"176198","title":"Kamakura Mok Mok Hack 73 - 鎌倉もくもく会","url":"https://kamkura-mokmok.connpass.com/event/176198/","shortener_url":null,"started_at":"2020-05-16T13:00:00.000+09:00","ended_at":"2020-05-16T16:00:00.000+09:00","limit_number":10,"address":"オンライン","place":"zoom","lat":null,"lon":null,"state":"active","id":null},{"event_id":"1486889","title":"Poetry Jam: Things I Miss","url":"http://poetryjam1.peatix.com","shortener_url":null,"started_at":"2020-05-17T15:30:00.000+09:00","ended_at":"2020-05-20T08:59:59.000+09:00","limit_number":null,"address":"","place":"xxxonlineeventxxx","lat":0.0,"lon":0.0,"state":"active","id":null},{"event_id":"1487012","title":"【満席】【5月17日】オンラインで「宿泊」する新企画。おうちで色んな人と出会い、大阪のローカルを旅しませんか？","url":"http://peatix.com/event/1487012","shortener_url":null,"started_at":"2020-05-17T20:00:00.000+09:00","ended_at":"2020-05-20T08:59:59.000+09:00","limit_number":null,"address":"","place":"xxxonlineeventxxx","lat":0.0,"lon":0.0,"state":"active","id":null},{"event_id":"1487031","title":"【5月22日】オンラインで「宿泊」する新企画。おうちで色んな人と出会い、大阪のローカルを旅しませんか？","url":"http://peatix.com/event/1487031","shortener_url":null,"started_at":"2020-05-22T20:00:00.000+09:00","ended_at":"2020-05-25T08:59:59.000+09:00","limit_number":null,"address":"","place":"xxxonlineeventxxx","lat":0.0,"lon":0.0,"state":"active","id":null},{"event_id":"1487000","title":"【5月16日】オンラインで「宿泊」する新企画。おうちで色んな人と出会い、大阪のローカルを旅しませんか？","url":"http://peatix.com/event/1487000","shortener_url":null,"started_at":"2020-05-16T20:00:00.000+09:00","ended_at":"2020-05-19T08:59:59.000+09:00","limit_number":null,"address":"","place":"xxxonlineeventxxx","lat":0.0,"lon":0.0,"state":"active","id":null},{"event_id":"1487027","title":"【満床】【5月21日】オンラインで「宿泊」する新企画。おうちで色んな人と出会い、大阪のローカルを旅しませんか？","url":"http://peatix.com/event/1487027","shortener_url":null,"started_at":"2020-05-21T20:00:00.000+09:00","ended_at":"2020-05-24T08:59:59.000+09:00","limit_number":null,"address":"","place":"xxxonlineeventxxx","lat":0.0,"lon":0.0,"state":"active","id":null},{"event_id":"1487018","title":"【満席】【5月18日開催】オンラインで「宿泊」する新企画。おうちで色んな人と出会い、大阪のローカルを旅しませんか？","url":"http://peatix.com/event/1487018","shortener_url":null,"started_at":"2020-05-18T20:00:00.000+09:00","ended_at":"2020-05-21T08:59:59.000+09:00","limit_number":null,"address":"","place":"xxxonlineeventxxx","lat":0.0,"lon":0.0,"state":"active","id":null},{"event_id":"1484993","title":"【オンライン開催】UXリサーチ合宿「リモートインタビューとシナリオ」","url":"http://uxretreat0528.peatix.com","shortener_url":"https://bit.ly/2T3nB5i","started_at":"2020-05-28T18:30:00.000+09:00","ended_at":"2020-05-31T08:59:59.000+09:00","limit_number":null,"address":"","place":"xxxonlineeventxxx","lat":0.0,"lon":0.0,"state":"active","id":null},{"event_id":"1485535","title":"部下へ「今だからこそ頑張ろう」と、伝えていませんか？ ～何気ない励ましに潜む意外なメンタルケアの落とし穴～/2020年５月22日(金)13：30～16：30","url":"http://peatix.com/event/1485535","shortener_url":null,"started_at":"2020-05-22T13:30:00.000+09:00","ended_at":"2020-05-25T08:59:59.000+09:00","limit_number":null,"address":"","place":"xxxonlineeventxxx","lat":0.0,"lon":0.0,"state":"active","id":null},{"event_id":"1487067","title":"オンライン★スキル不要！経験不問！誰でも出来るパラレルワーク習得法 私には出来ないなんて、思っていませんか？パラレルワーク（複業）は誰にでも出来ます。その為の「3ステップセルフコーチング術」を教えます！","url":"http://1ststep4freelance.peatix.com","shortener_url":null,"started_at":"2020-05-17T10:00:00.000+09:00","ended_at":"2020-05-20T08:59:59.000+09:00","limit_number":null,"address":"","place":"xxxonlineeventxxx","lat":0.0,"lon":0.0,"state":"active","id":null},{"event_id":"1483293","title":"子育て相談付きオンラインde親子ヨガレッスン/5/12・5/19・5/26の１～3回分チケット販売","url":"http://peatix.com/event/1483293","shortener_url":null,"started_at":"2020-05-12T09:45:00.000+09:00","ended_at":"2020-05-15T08:59:59.000+09:00","limit_number":null,"address":"","place":"xxxonlineeventxxx","lat":0.0,"lon":0.0,"state":"active","id":null},{"event_id":"1485146","title":"【ワンコイン】ピアサポートグループ「参加者」のためのZOOM使い方講座（入門）","url":"http://wanon5.peatix.com","shortener_url":null,"started_at":"2020-05-22T10:00:00.000+09:00","ended_at":"2020-05-25T08:59:59.000+09:00","limit_number":null,"address":"","place":"xxxonlineeventxxx","lat":0.0,"lon":0.0,"state":"active","id":null},{"event_id":"1486614","title":"【子ども向け・無料・お箏でソルフェージュ】スマホとLINEでミュージカルに参加しよう！","url":"http://koinu.peatix.com","shortener_url":null,"started_at":"2020-05-12T13:00:00.000+09:00","ended_at":"2020-05-15T08:59:59.000+09:00","limit_number":null,"address":"","place":"xxxonlineeventxxx","lat":0.0,"lon":0.0,"state":"active","id":null},{"event_id":"1478913","title":"【無料ガイダンス（接続テスト）】ピアサポートグループ運営者のためのZOOM講座","url":"http://peatix.com/event/1478913","shortener_url":null,"started_at":"2020-05-18T14:00:00.000+09:00","ended_at":"2020-05-21T08:59:59.000+09:00","limit_number":null,"address":"","place":"xxxonlineeventxxx","lat":0.0,"lon":0.0,"state":"active","id":null},{"event_id":"1485135","title":"【ワンコイン】ピアサポートグループ「運営者」のためのZOOM使い方講座（運営①）","url":"http://wanon4.peatix.com","shortener_url":null,"started_at":"2020-05-21T10:00:00.000+09:00","ended_at":"2020-05-24T08:59:59.000+09:00","limit_number":null,"address":"","place":"xxxonlineeventxxx","lat":0.0,"lon":0.0,"state":"active","id":null},{"event_id":"1488693","title":"【ビッグデータ、AI、データマネジメント担当者必見！】データ取引市場 データ活用オンラインアイデアソン（参加無料）","url":"http://peatix.com/event/1488693","shortener_url":"https://bit.ly/364EC4d","started_at":"2020-05-29T14:00:00.000+09:00","ended_at":"2020-06-01T08:59:59.000+09:00","limit_number":null,"address":"","place":"xxxonlineeventxxx","lat":0.0,"lon":0.0,"state":"active","id":null},{"event_id":"1489674","title":"【オンラインワイン会】日替り司会 フレンチJAM ORCHESTRA支配人\u0026ソムリエ 石倉悠貴","url":"http://peatix.com/event/1489674","shortener_url":null,"started_at":"2020-05-23T20:00:00.000+09:00","ended_at":"2020-05-26T08:59:59.000+09:00","limit_number":null,"address":"","place":"xxxonlineeventxxx","lat":0.0,"lon":0.0,"state":"active","id":null},{"event_id":"1489271","title":"\u003c参加無料\u003eZOOMアイデアソンvol3「地方×フードロスについて」ー ウィズコロナ・アフターコロナの地方を考える ー","url":"http://peatix.com/event/1489271","shortener_url":"https://bit.ly/2LzsIpK","started_at":"2020-05-21T20:00:00.000+09:00","ended_at":"2020-05-24T08:59:59.000+09:00","limit_number":null,"address":"","place":"xxxonlineeventxxx","lat":0.0,"lon":0.0,"state":"active","id":null},{"event_id":"1487405","title":"【第二回】角ハイ・ベンチャー  ~角ハイボールを飲みながら、ベンチャー経営のリアルについて聴きませんか？~","url":"http://kakuhai-venture-20200530.peatix.com","shortener_url":null,"started_at":"2020-05-30T18:00:00.000+09:00","ended_at":"2020-06-02T08:59:59.000+09:00","limit_number":null,"address":"","place":"xxxonlineeventxxx","lat":0.0,"lon":0.0,"state":"active","id":null},{"event_id":"176745","title":"Kamakura Mok Mok Hack 74 - 鎌倉もくもく会","url":"https://kamkura-mokmok.connpass.com/event/176745/","shortener_url":null,"started_at":"2020-05-23T13:00:00.000+09:00","ended_at":"2020-05-23T16:00:00.000+09:00","limit_number":10,"address":"オンライン","place":"zoom","lat":null,"lon":null,"state":"active","id":null},{"event_id":"1491092","title":"「どうせ死ぬんだから」～治療の無益性にまつわる３つの情景～（トークライブ配信）","url":"http://cmjwebinar.peatix.com","shortener_url":null,"started_at":"2020-05-30T19:00:00.000+09:00","ended_at":"2020-06-02T08:59:59.000+09:00","limit_number":null,"address":"","place":"xxxonlineeventxxx","lat":0.0,"lon":0.0,"state":"active","id":null},{"event_id":"106902","title":"【全5回・土曜午前オンライン開催】異能vationグランドチャレンジに挑戦しよう！","url":"https://soleildatadojo.doorkeeper.jp/events/106902","shortener_url":null,"started_at":"2020-05-30T10:00:00.000+09:00","ended_at":"2020-06-27T12:00:00.000+09:00","limit_number":10,"address":"","place":"オンライン開催","lat":null,"lon":null,"state":"active","id":null},{"event_id":"175926","title":"高専キャリアONLINE LT大会 #8 ~僕たち、私達、コンテストが大好きです！~","url":"https://kosen-career.connpass.com/event/175926/","shortener_url":null,"started_at":"2020-05-23T21:00:00.000+09:00","ended_at":"2020-05-23T22:00:00.000+09:00","limit_number":160,"address":"オンライン","place":"Zoom会場","lat":null,"lon":null,"state":"active","id":null},{"event_id":"1482747","title":"IchigoJamオンライン \"プチ\"ハッカソン（大喜利）＜無料＞0531","url":"http://peatix.com/event/1482747","shortener_url":"https://bit.ly/3bGuIad","started_at":"2020-05-31T14:00:00.000+09:00","ended_at":"2020-06-03T08:59:59.000+09:00","limit_number":null,"address":"","place":"xxxonlineeventxxx","lat":0.0,"lon":0.0,"state":"active","id":null},{"event_id":"1487387","title":"＜対話の旅＞新しいまちづくりの学校2020    オンライン合宿","url":"http://1000gen.peatix.com","shortener_url":null,"started_at":"2020-05-23T10:00:00.000+09:00","ended_at":"2020-05-26T08:59:59.000+09:00","limit_number":null,"address":"","place":"xxxonlineeventxxx","lat":0.0,"lon":0.0,"state":"active","id":null},{"event_id":"1494483","title":"【オンラインイベント】作りながら暮らす ～発酵編 テック・伝統とともにある暮らし方，始めませんか～","url":"http://locallifestation-fuchushi.peatix.com","shortener_url":null,"started_at":"2020-05-29T20:00:00.000+09:00","ended_at":"2020-06-01T08:59:59.000+09:00","limit_number":null,"address":"","place":"xxxonlineeventxxx","lat":0.0,"lon":0.0,"state":"active","id":null},{"event_id":"1490614","title":"【オンライン/無料】?･沖縄でのウェディングフォトなんでも相談会 ?･〜ビーチフォト、ハネムーンプランなど〜  #1","url":"http://ryukyue.peatix.com","shortener_url":null,"started_at":"2020-05-24T14:00:00.000+09:00","ended_at":"2020-05-27T08:59:59.000+09:00","limit_number":null,"address":"","place":"xxxonlineeventxxx","lat":0.0,"lon":0.0,"state":"active","id":null},{"event_id":"1472477","title":"【3社限定＆無料】新規事業の専門家が孤独な事業担当者のお悩みなんでもアドバイス＆アイデアブレストお手伝い(オンライン開催)","url":"http://peatix.com/event/1472477","shortener_url":null,"started_at":"2020-05-25T10:00:00.000+09:00","ended_at":"2020-05-28T08:59:59.000+09:00","limit_number":null,"address":"","place":"xxxonlineeventxxx","lat":0.0,"lon":0.0,"state":"active","id":null},{"event_id":"1487597","title":"早期 募集終了）第2回。日頃の振り返りと未来について。（音声のみ、井戸端系）","url":"http://20200524zatudan.peatix.com","shortener_url":null,"started_at":"2020-05-24T17:00:00.000+09:00","ended_at":"2020-05-27T08:59:59.000+09:00","limit_number":null,"address":"","place":"xxxonlineeventxxx","lat":0.0,"lon":0.0,"state":"active","id":null},{"event_id":"106925","title":"【週1オンライン開催！】実装力を磨く！PyTorch勉強会#3","url":"https://soleildatadojo.doorkeeper.jp/events/106925","shortener_url":null,"started_at":"2020-05-26T20:00:00.000+09:00","ended_at":"2020-05-26T21:00:00.000+09:00","limit_number":10,"address":"","place":"オンライン開催","lat":null,"lon":null,"state":"active","id":null},{"event_id":"1486275","title":"世界一周学校「海外移住、海外起業、子育て」教えて、ひろこさーん！","url":"http://around-the-world-school1.peatix.com","shortener_url":null,"started_at":"2020-05-24T14:00:00.000+09:00","ended_at":"2020-05-27T08:59:59.000+09:00","limit_number":null,"address":"","place":"xxxonlineeventxxx","lat":0.0,"lon":0.0,"state":"active","id":null},{"event_id":"1490290","title":"【満員御礼】【経営者/新規事業担当様向け】事業を通じてSDGsに取り組んでみませんか？","url":"http://socialmatch-qibitech.peatix.com","shortener_url":null,"started_at":"2020-05-29T15:00:00.000+09:00","ended_at":"2020-06-01T08:59:59.000+09:00","limit_number":null,"address":"","place":"xxxonlineeventxxx","lat":0.0,"lon":0.0,"state":"active","id":null},{"event_id":"1489212","title":"世界一周学校「新しく始める農業。自然の力を引き出す自然栽培とは？」教えて、ちばさーん！","url":"http://around-the-world-school2.peatix.com","shortener_url":null,"started_at":"2020-05-20T20:00:00.000+09:00","ended_at":"2020-05-23T08:59:59.000+09:00","limit_number":null,"address":"","place":"xxxonlineeventxxx","lat":0.0,"lon":0.0,"state":"active","id":null},{"event_id":"1493847","title":"満員御礼につき増枠決定！【5/28開催】コロナ禍にできる地域おこしって何だろう！？ 困ってる地域おこし協力隊の方、 面白法人カヤック代表やなさんとブレストしてみませんか？","url":"http://peatix.com/event/1493847","shortener_url":null,"started_at":"2020-05-28T19:30:00.000+09:00","ended_at":"2020-05-31T08:59:59.000+09:00","limit_number":null,"address":"","place":"xxxonlineeventxxx","lat":0.0,"lon":0.0,"state":"active","id":null},{"event_id":"1491599","title":"オンライン★スキル不要！経験不問！誰でも出来るパラレルワーク習得法 私には出来ないなんて、思っていませんか？パラレルワーク（複業）は誰にでも出来ます。その為の「3ステップセルフコーチング術」を教えます！","url":"http://parallelwork.peatix.com","shortener_url":null,"started_at":"2020-05-24T10:00:00.000+09:00","ended_at":"2020-05-27T08:59:59.000+09:00","limit_number":null,"address":"","place":"xxxonlineeventxxx","lat":0.0,"lon":0.0,"state":"active","id":null},{"event_id":"1494005","title":"【無料・オンライン】5月28日 (木) 夜の部：POINTS OF YOU®体験会や資格講座に関する説明会","url":"http://peatix.com/event/1494005","shortener_url":null,"started_at":"2020-05-28T21:00:00.000+09:00","ended_at":"2020-05-31T08:59:59.000+09:00","limit_number":null,"address":"","place":"xxxonlineeventxxx","lat":0.0,"lon":0.0,"state":"active","id":null},{"event_id":"1493976","title":"【無料・オンライン】5月21日 (木) 夜の部：POINTS OF YOU®体験会や資格講座に関する説明会","url":"http://peatix.com/event/1493976","shortener_url":null,"started_at":"2020-05-21T21:00:00.000+09:00","ended_at":"2020-05-24T08:59:59.000+09:00","limit_number":null,"address":"","place":"xxxonlineeventxxx","lat":0.0,"lon":0.0,"state":"active","id":null},{"event_id":"1494000","title":"【無料・オンライン】5月26日 (火) 夜の部：POINTS OF YOU®体験会や資格講座に関する説明会","url":"http://peatix.com/event/1494000","shortener_url":null,"started_at":"2020-05-26T21:00:00.000+09:00","ended_at":"2020-05-29T08:59:59.000+09:00","limit_number":null,"address":"","place":"xxxonlineeventxxx","lat":0.0,"lon":0.0,"state":"active","id":null},{"event_id":"1494797","title":"経営・人事必見！ベンチャーのテレワーク事例徹底調査！そこから見えてきた落とし穴","url":"http://peatix.com/event/1494797","shortener_url":null,"started_at":"2020-05-25T12:00:00.000+09:00","ended_at":"2020-05-28T08:59:59.000+09:00","limit_number":null,"address":"","place":"xxxonlineeventxxx","lat":0.0,"lon":0.0,"state":"active","id":null},{"event_id":"1494333","title":"座談会 株fx（未経験 ～ 資産増加1,000万円以下の方向け）","url":"http://20200531tousi.peatix.com","shortener_url":null,"started_at":"2020-05-31T17:00:00.000+09:00","ended_at":"2020-06-03T08:59:59.000+09:00","limit_number":null,"address":"","place":"xxxonlineeventxxx","lat":0.0,"lon":0.0,"state":"active","id":null},{"event_id":"1496920","title":"オンライン講座１：認知学などのデータから学ぶUIデザイン","url":"http://peatix.com/event/1496920","shortener_url":null,"started_at":"2020-05-23T15:00:00.000+09:00","ended_at":"2020-05-26T08:59:59.000+09:00","limit_number":null,"address":"","place":"xxxonlineeventxxx","lat":0.0,"lon":0.0,"state":"active","id":null},{"event_id":"1496923","title":"オンライン講座２：わかりやすいサイトを作るUIデザインのツボ","url":"http://peatix.com/event/1496923","shortener_url":null,"started_at":"2020-05-23T17:00:00.000+09:00","ended_at":"2020-05-26T08:59:59.000+09:00","limit_number":null,"address":"","place":"xxxonlineeventxxx","lat":0.0,"lon":0.0,"state":"active","id":null},{"event_id":"1496929","title":"オンライン講座10：ブランド価値とUI性能を高める色彩計画","url":"http://peatix.com/event/1496929","shortener_url":null,"started_at":"2020-05-23T20:00:00.000+09:00","ended_at":"2020-05-26T08:59:59.000+09:00","limit_number":null,"address":"","place":"xxxonlineeventxxx","lat":0.0,"lon":0.0,"state":"active","id":null},{"event_id":"1496933","title":"オンライン講座10：ブランド価値とUI性能を高める色彩計画","url":"http://peatix.com/event/1496933","shortener_url":null,"started_at":"2020-05-29T20:00:00.000+09:00","ended_at":"2020-06-01T08:59:59.000+09:00","limit_number":null,"address":"","place":"xxxonlineeventxxx","lat":0.0,"lon":0.0,"state":"active","id":null},{"event_id":"107084","title":"【無料】Youは何しにStartup Weekendへ？（Startup Weekend 守山 Vol.2 プレイベント）","url":"https://swmoriyama.doorkeeper.jp/events/107084","shortener_url":null,"started_at":"2020-05-26T21:00:00.000+09:00","ended_at":"2020-05-26T22:30:00.000+09:00","limit_number":10,"address":"Zoom","place":"","lat":null,"lon":null,"state":"active","id":null},{"event_id":"107085","title":"【無料】1分ピッチをやってみよう！（Startup Weekend 守山 Vol.2 プレイベント）","url":"https://swmoriyama.doorkeeper.jp/events/107085","shortener_url":null,"started_at":"2020-05-30T21:00:00.000+09:00","ended_at":"2020-05-30T22:30:00.000+09:00","limit_number":10,"address":"Zoom","place":"","lat":null,"lon":null,"state":"active","id":null},{"event_id":"1498181","title":"英語のじかん　Theme is New Zealand ｜学生無料＆社会人お気持ち制","url":"http://peatix.com/event/1498181","shortener_url":null,"started_at":"2020-05-28T12:00:00.000+09:00","ended_at":"2020-05-31T08:59:59.000+09:00","limit_number":null,"address":"","place":"xxxonlineeventxxx","lat":0.0,"lon":0.0,"state":"active","id":null},{"event_id":"1495714","title":"アプリの評価を上げませんか? 〜UXを取り込む事がアプリ評価につながる理由〜","url":"http://peatix.com/event/1495714","shortener_url":null,"started_at":"2020-05-28T17:00:00.000+09:00","ended_at":"2020-05-31T08:59:59.000+09:00","limit_number":null,"address":"","place":"xxxonlineeventxxx","lat":0.0,"lon":0.0,"state":"active","id":null},{"event_id":"1497752","title":"「グローバルスキルアップMONTH」ランチタイムを使って自宅からグローバル人材に一歩近づきませんか？（無料ウェビナー）","url":"http://peatix.com/event/1497752","shortener_url":null,"started_at":"2020-05-25T12:00:00.000+09:00","ended_at":"2020-05-28T08:59:59.000+09:00","limit_number":null,"address":"","place":"xxxonlineeventxxx","lat":0.0,"lon":0.0,"state":"active","id":null},{"event_id":"1488235","title":"5月29日 (金) カフェ会やランチ会など企画して主催しませんか?「カフェ会主催ワークショップ」","url":"http://peatix.com/event/1488235","shortener_url":null,"started_at":"2020-05-29T13:30:00.000+09:00","ended_at":"2020-06-01T08:59:59.000+09:00","limit_number":null,"address":"東京都豊島区東池袋1-6-4","place":"椿屋珈琲　池袋茶寮","lat":35.7313,"lon":139.713,"state":"active","id":null},{"event_id":"1497514","title":"【5月24日】オンラインで「宿泊」する新企画。おうちで色んな人と出会い、大阪のローカルを旅しませんか？","url":"http://onlineshukuhaku.peatix.com","shortener_url":null,"started_at":"2020-05-24T20:00:00.000+09:00","ended_at":"2020-05-27T08:59:59.000+09:00","limit_number":null,"address":"","place":"xxxonlineeventxxx","lat":0.0,"lon":0.0,"state":"active","id":null},{"event_id":"1497521","title":"【5月25日】オンラインで「宿泊」する新企画。おうちで色んな人と出会い、大阪のローカルを旅しませんか？","url":"http://peatix.com/event/1497521","shortener_url":null,"started_at":"2020-05-25T20:00:00.000+09:00","ended_at":"2020-05-28T08:59:59.000+09:00","limit_number":null,"address":"","place":"xxxonlineeventxxx","lat":0.0,"lon":0.0,"state":"active","id":null},{"event_id":"1497527","title":"【5月27日】オンラインで「宿泊」する新企画。おうちで色んな人と出会い、大阪のローカルを旅しませんか？","url":"http://onlineshukuhaku27.peatix.com","shortener_url":null,"started_at":"2020-05-27T20:00:00.000+09:00","ended_at":"2020-05-30T08:59:59.000+09:00","limit_number":null,"address":"","place":"xxxonlineeventxxx","lat":0.0,"lon":0.0,"state":"active","id":null},{"event_id":"177890","title":"Kamakura Mok Mok Hack 75 - 鎌倉もくもく会","url":"https://kamkura-mokmok.connpass.com/event/177890/","shortener_url":null,"started_at":"2020-05-30T13:00:00.000+09:00","ended_at":"2020-05-30T16:00:00.000+09:00","limit_number":10,"address":"オンライン","place":"zoom","lat":null,"lon":null,"state":"active","id":null},{"event_id":"1499243","title":"＜好評につき第3弾＞飲んで応援！「オンライン飲み会\u0026醸造所見学」お米のクラフトビールで乾杯しませんか？","url":"http://ienomi-marumori03.peatix.com","shortener_url":null,"started_at":"2020-05-30T13:00:00.000+09:00","ended_at":"2020-06-02T08:59:59.000+09:00","limit_number":null,"address":"","place":"xxxonlineeventxxx","lat":0.0,"lon":0.0,"state":"active","id":null},{"event_id":"1476433","title":"【オンラインによる緊急開催】アフターコロナを考えるハッカソン・フェーズ１/Hackathon for After COVID-19 (Phase 1)","url":"http://hackathon-for-after-covid-19.peatix.com","shortener_url":"https://bit.ly/2M80FOz","started_at":"2020-05-30T13:00:00.000+09:00","ended_at":"2020-06-02T08:59:59.000+09:00","limit_number":null,"address":"-","place":"オンライン参加(Zoom)/Teleconference (Zoom)","lat":0.0,"lon":0.0,"state":"active","id":null},{"event_id":"1507402","title":"ゆかりんひかりんと！おうちでのんびりんタイム#2","url":"http://peatix.com/event/1507402","shortener_url":null,"started_at":"2020-05-31T14:15:00.000+09:00","ended_at":"2020-06-03T08:59:59.000+09:00","limit_number":null,"address":"","place":"xxxonlineeventxxx","lat":0.0,"lon":0.0,"state":"active","id":null},{"event_id":null,"title":"Devhacks","url":"https://devhacks.devpost.com/","shortener_url":null,"started_at":"2020-05-20T13:00:00.000+09:00","ended_at":"2021-05-05T20:30:00.000+09:00","limit_number":null,"address":"India","place":"India","lat":null,"lon":null,"state":"active","id":null},{"event_id":"1304805108589289472","title":"Complexity Weekend - Oct 2020 | October 16, 2020 - October 18, 2020","url":"https://www.complexityweekend.com/","shortener_url":null,"started_at":"2020-05-04T22:00:00.000+09:00","ended_at":"2020-09-16T03:00:00.000+09:00","limit_number":null,"address":null,"place":"online","lat":null,"lon":null,"state":"active","id":null},{"event_id":"1308557480079712256","title":"firebase hackathon - おもちかえログ(仮)","url":"https://www.slideshare.net/wadatakahiko/firebase-hackathon","shortener_url":null,"started_at":"2020-05-30T09:00:00.000+09:00","ended_at":"2020-09-21T09:00:00.000+09:00","limit_number":null,"address":null,"place":"online","lat":null,"lon":null,"state":"active","id":null},{"event_id":"1312071297720094720","title":"JetBrains 8th Annual Hackathon: Home Edition – JetBrains Blog | JetBrains","url":"https://blog.jetbrains.com/blog/2020/07/17/jetbrains-8th-annual-hackathon-home-edition/","shortener_url":null,"started_at":"2020-05-13T09:00:00.000+09:00","ended_at":"2020-08-06T16:50:00.000+09:00","limit_number":null,"address":null,"place":"online","lat":null,"lon":null,"state":"active","id":null},{"event_id":"1325039104917168129","title":"No.1エンジニアリング・サービス　HCLジャパン","url":"https://www.hcljapan.co.jp/products/notes-domino/hcl-domino-volt-hackathon/","shortener_url":null,"started_at":"2020-05-09T18:00:00.000+09:00","ended_at":"2020-10-25T18:00:00.000+09:00","limit_number":null,"address":null,"place":"online","lat":null,"lon":null,"state":"active","id":null},{"event_id":"1324667811168460802","title":"\"Finish Your Game\" Jam","url":"https://itch.io/jam/finishyourgamejam2020","shortener_url":"https://bit.ly/2IjKj6V","started_at":"2020-05-09T22:00:00.000+09:00","ended_at":"2020-11-24T01:59:00.000+09:00","limit_number":null,"address":null,"place":"online","lat":null,"lon":null,"state":"active","id":null},{"event_id":"1322806493620641793","title":"Hackathon | Stadt Herrenberg","url":"https://www.herrenberg.de/hackathon","shortener_url":null,"started_at":"2020-05-20T09:00:00.000+09:00","ended_at":"2020-05-20T23:59:59.000+09:00","limit_number":null,"address":null,"place":"online","lat":null,"lon":null,"state":"active","id":null},{"event_id":"1354115258684735491","title":"The Download, NCSSM Hackathon, UNC Eship-RTP Partnership","url":"https://mailchi.mp/grepbeat/the-download-ncssm-hackathon-unc-eship-rtp-partnership","shortener_url":null,"started_at":"2020-05-12T17:45:00.000+09:00","ended_at":"2021-01-26T21:45:00.000+09:00","limit_number":null,"address":null,"place":"online","lat":null,"lon":null,"state":"active","id":null},{"event_id":"1362086339248857089","title":"Evangelische Kirche ruft wieder zu Hackathon für Zukunftsideen auf","url":"https://www.ekd.de/evangelische-kirche-zweiter-hackathon-fuer-zukunftsideen-62977.htm","shortener_url":null,"started_at":"2020-05-14T09:00:00.000+09:00","ended_at":"2021-02-10T09:00:00.000+09:00","limit_number":null,"address":null,"place":"online","lat":null,"lon":null,"state":"active","id":null},{"event_id":"1397880991868407817","title":"Chinese hackathon reportedly revealed iOS breach, exploited it to spy on Uyghurs – DLSServe","url":"https://dlsserve.com/chinese-hackathon-reportedly-revealed-ios-breach-exploited-it-to-spy-on-uyghurs/","shortener_url":null,"started_at":"2020-05-15T09:00:00.000+09:00","ended_at":"2020-05-15T23:59:59.000+09:00","limit_number":null,"address":null,"place":"online","lat":null,"lon":null,"state":"active","id":null},{"event_id":"1412005379337248768","title":"Sirius Labs launches Chia Hackathon, in partnership with Chia Network","url":"https://cointelegraph.com/press-releases/sirius-labs-launches-chia-hackathon-in-partnership-with-chia-network/amp","shortener_url":null,"started_at":"2020-05-29T10:00:00.000+09:00","ended_at":"2021-07-03T02:00:00.000+09:00","limit_number":null,"address":null,"place":"online","lat":null,"lon":null,"state":"active","id":null},{"event_id":"104079723254","title":"Chi Hack Night Remote","url":"https://www.eventbrite.com/e/chi-hack-night-remote-registration-104079723254","shortener_url":null,"started_at":"2020-05-06T08:00:00.000+09:00","ended_at":"2021-12-08T12:30:00.000+09:00","limit_number":null,"address":null,"place":"online","lat":null,"lon":null,"state":"active","id":null},{"event_id":"103247114900","title":"UCL CBT Monthly Online Seminars","url":"https://www.eventbrite.com/e/ucl-cbt-monthly-online-seminars-tickets-103247114900","shortener_url":null,"started_at":"2020-05-01T02:00:00.000+09:00","ended_at":"2021-11-26T01:00:00.000+09:00","limit_number":null,"address":null,"place":"online","lat":null,"lon":null,"state":"active","id":null},{"event_id":"104989644854","title":"FOCUS/TIME: queer coworking \u0026 creative space","url":"https://www.eventbrite.com/e/focustime-queer-coworking-creative-space-tickets-104989644854","shortener_url":null,"started_at":"2020-05-22T02:00:00.000+09:00","ended_at":"2022-12-31T07:00:00.000+09:00","limit_number":null,"address":null,"place":"online","lat":null,"lon":null,"state":"active","id":null},{"event_id":"102854893756","title":"The Job Forum - Free, Expert Job Search Advice - Every Wednesday","url":"https://www.eventbrite.com/e/the-job-forum-free-expert-job-search-advice-every-wednesday-tickets-102854893756","shortener_url":null,"started_at":"2020-05-07T10:30:00.000+09:00","ended_at":"2022-12-08T13:00:00.000+09:00","limit_number":null,"address":null,"place":"online","lat":null,"lon":null,"state":"active","id":null},{"event_id":"103006136126","title":"Atlas Obscura Trivia Night","url":"https://www.eventbrite.com/e/atlas-obscura-trivia-night-tickets-103006136126","shortener_url":null,"started_at":"2020-05-02T08:00:00.000+09:00","ended_at":"2022-04-02T10:00:00.000+09:00","limit_number":null,"address":null,"place":"online","lat":null,"lon":null,"state":"active","id":null},{"event_id":"102928638328","title":"REMOTE Free Intro to Coding Workshop with the Royal Oak Public Library ","url":"https://www.eventbrite.com/e/remote-free-intro-to-coding-workshop-with-the-royal-oak-public-library-tickets-102928638328","shortener_url":null,"started_at":"2020-05-14T07:00:00.000+09:00","ended_at":"2021-12-09T10:00:00.000+09:00","limit_number":null,"address":null,"place":"online","lat":null,"lon":null,"state":"active","id":null},{"event_id":"104763640870","title":"Planning the Post-Pandemic City Online Lecture Series","url":"https://www.eventbrite.co.uk/e/planning-the-post-pandemic-city-online-lecture-series-tickets-104763640870","shortener_url":null,"started_at":"2020-05-22T23:00:00.000+09:00","ended_at":"2023-01-25T03:00:00.000+09:00","limit_number":null,"address":null,"place":"online","lat":null,"lon":null,"state":"active","id":null},{"event_id":"105037181036","title":"Leadership Communication in the Virtual World","url":"https://www.eventbrite.com/e/leadership-communication-in-the-virtual-world-registration-105037181036","shortener_url":null,"started_at":"2020-05-28T00:00:00.000+09:00","ended_at":"2023-04-13T01:30:00.000+09:00","limit_number":null,"address":null,"place":"online","lat":null,"lon":null,"state":"active","id":null},{"event_id":"102928638328","title":"Virtual Free Intro to Coding Workshop with the Royal Oak Public Library","url":"https://www.eventbrite.com/e/virtual-free-intro-to-coding-workshop-with-the-royal-oak-public-library-tickets-102928638328","shortener_url":null,"started_at":"2020-05-14T07:00:00.000+09:00","ended_at":"2022-12-08T10:00:00.000+09:00","limit_number":null,"address":null,"place":"online","lat":null,"lon":null,"state":"active","id":null},{"event_id":"104597144876","title":"Digital Lean Canvas Workshops 2020-2021","url":"https://www.eventbrite.com.au/e/digital-lean-canvas-workshops-2020-2021-tickets-104597144876","shortener_url":null,"started_at":"2020-05-14T10:00:00.000+09:00","ended_at":"2021-12-09T10:30:00.000+09:00","limit_number":null,"address":null,"place":"online","lat":null,"lon":null,"state":"active","id":null},{"event_id":"103097593678","title":"Local \u0026 Global IT career opportunities and pathways - FREE webinar","url":"https://www.eventbrite.com/e/local-global-it-career-opportunities-and-pathways-free-webinar-tickets-103097593678","shortener_url":null,"started_at":"2020-05-03T02:00:00.000+09:00","ended_at":"2022-06-26T02:00:00.000+09:00","limit_number":null,"address":null,"place":"online","lat":null,"lon":null,"state":"active","id":null},{"event_id":"104212825366","title":"Virtual Voices with JRose \u0026 Leah V","url":"https://www.eventbrite.com/e/virtual-voices-with-jrose-leah-v-registration-104212825366","shortener_url":null,"started_at":"2020-05-09T09:00:00.000+09:00","ended_at":"2022-12-17T13:00:00.000+09:00","limit_number":null,"address":null,"place":"online","lat":null,"lon":null,"state":"active","id":null},{"event_id":"103533212626","title":"USAF HBCU/MI  Ask Me Anything Event with Ms. Anissa Lumpkin \u0026 Guest","url":"https://www.eventbrite.com/e/usaf-hbcumi-ask-me-anything-event-with-ms-anissa-lumpkin-guest-tickets-103533212626","shortener_url":null,"started_at":"2020-05-06T00:00:00.000+09:00","ended_at":"2022-04-06T00:45:00.000+09:00","limit_number":null,"address":null,"place":"online","lat":null,"lon":null,"state":"active","id":null},{"event_id":"103697628398","title":"How to 2X Your Startup Valuation: Masterclass + Live Virtual Pitch Session","url":"https://www.eventbrite.com/e/how-to-2x-your-startup-valuation-masterclass-live-virtual-pitch-session-tickets-103697628398","shortener_url":null,"started_at":"2020-05-14T23:00:00.000+09:00","ended_at":"2022-12-31T02:00:00.000+09:00","limit_number":null,"address":null,"place":"online","lat":null,"lon":null,"state":"active","id":null},{"event_id":"105140953422","title":"Virtual Tour of \"A Like Vision\": The Group of Seven at 100","url":"https://www.eventbrite.ca/e/virtual-tour-of-a-like-vision-the-group-of-seven-at-100-registration-105140953422","shortener_url":null,"started_at":"2020-05-16T01:30:00.000+09:00","ended_at":"2022-01-31T03:30:00.000+09:00","limit_number":null,"address":null,"place":"online","lat":null,"lon":null,"state":"active","id":null},{"event_id":"104218448184","title":"FREELABEL INDUSTRY CONFERENCE CALL","url":"https://www.eventbrite.com/e/freelabel-industry-conference-call-registration-104218448184","shortener_url":null,"started_at":"2020-05-05T22:00:00.000+09:00","ended_at":"2022-03-30T07:00:00.000+09:00","limit_number":null,"address":null,"place":"online","lat":null,"lon":null,"state":"active","id":null},{"event_id":"106536068248","title":"Going Online the Easy \u0026 Smooth Way for Lightworkers, Healers \u0026 Coaches","url":"https://www.eventbrite.com/e/going-online-the-easy-smooth-way-for-lightworkers-healers-coaches-tickets-106536068248","shortener_url":null,"started_at":"2020-05-27T02:00:00.000+09:00","ended_at":"2021-12-31T15:00:00.000+09:00","limit_number":null,"address":null,"place":"online","lat":null,"lon":null,"state":"active","id":null},{"event_id":"104585977474","title":"Online Robotics Job Fair","url":"https://www.eventbrite.com/e/online-robotics-job-fair-tickets-104585977474","shortener_url":null,"started_at":"2020-05-21T11:00:00.000+09:00","ended_at":"2021-12-08T13:31:00.000+09:00","limit_number":null,"address":null,"place":"online","lat":null,"lon":null,"state":"active","id":null},{"event_id":"103533212626","title":"Air Force Ask-Me-Anything for HBCU/MI, Small Business \u0026 S\u0026T Ecosystem","url":"https://www.eventbrite.com/e/air-force-ask-me-anything-for-hbcumi-small-business-st-ecosystem-tickets-103533212626","shortener_url":null,"started_at":"2020-05-06T00:00:00.000+09:00","ended_at":"2022-04-06T00:45:00.000+09:00","limit_number":null,"address":null,"place":"online","lat":null,"lon":null,"state":"active","id":null},{"event_id":"1473551125685370886","title":"Inside Maker Week: more than a hackathon","url":"https://www.figma.com/blog/inside-maker-week-more-than-a-hackathon/","shortener_url":null,"started_at":"2020-05-06T09:00:00.000+09:00","ended_at":"2021-05-17T09:00:00.000+09:00","limit_number":null,"address":null,"place":"online","lat":null,"lon":null,"state":"active","id":null},{"event_id":"102854893756","title":"The Job Forum - Weekly Wednesday Meeting: Free Job Search \u0026 Career Advice","url":"https://www.eventbrite.com/e/the-job-forum-weekly-wednesday-meeting-free-job-search-career-advice-tickets-102854893756","shortener_url":null,"started_at":"2020-05-07T10:30:00.000+09:00","ended_at":"2023-12-14T13:00:00.000+09:00","limit_number":null,"address":null,"place":"online","lat":null,"lon":null,"state":"active","id":null},{"event_id":"103690924346","title":"#IamRemarkable Workshop","url":"https://www.eventbrite.co.uk/e/iamremarkable-workshop-tickets-103690924346","shortener_url":null,"started_at":"2020-05-04T20:00:00.000+09:00","ended_at":"2022-07-26T03:30:00.000+09:00","limit_number":null,"address":null,"place":"online","lat":null,"lon":null,"state":"active","id":null},{"event_id":"104202021050","title":"Entrepreneurship for Beginners - Startup | Entrepreneur Webinar 2022 Europe","url":"https://www.eventbrite.com/e/entrepreneurship-for-beginners-startup-entrepreneur-webinar-2022-europe-tickets-104202021050","shortener_url":null,"started_at":"2020-05-03T20:00:00.000+09:00","ended_at":"2023-02-01T02:00:00.000+09:00","limit_number":null,"address":null,"place":"online","lat":null,"lon":null,"state":"active","id":null},{"event_id":"103247114900","title":"UCL CBT Online Open Seminar","url":"https://www.eventbrite.com/e/ucl-cbt-online-open-seminar-tickets-103247114900","shortener_url":null,"started_at":"2020-05-01T02:00:00.000+09:00","ended_at":"2022-11-25T01:00:00.000+09:00","limit_number":null,"address":null,"place":"online","lat":null,"lon":null,"state":"active","id":null},{"event_id":"105959265014","title":"Zoom - Omni Online - Wimbledon","url":"https://www.eventbrite.co.uk/e/zoom-omni-online-wimbledon-tickets-105959265014","shortener_url":null,"started_at":"2020-05-27T15:30:00.000+09:00","ended_at":"2022-12-07T18:30:00.000+09:00","limit_number":null,"address":null,"place":"online","lat":null,"lon":null,"state":"active","id":null},{"event_id":"102928638328","title":"Learn to Code (Grand Circus \u0026 Royal Oak Public Library) (Free, Virtual)","url":"https://www.eventbrite.com/e/learn-to-code-grand-circus-royal-oak-public-library-free-virtual-tickets-102928638328","shortener_url":null,"started_at":"2020-05-14T07:00:00.000+09:00","ended_at":"2022-12-08T10:00:00.000+09:00","limit_number":null,"address":null,"place":"online","lat":null,"lon":null,"state":"active","id":null},{"event_id":"105876304878","title":"Zoom - Omni Online - Guildford","url":"https://www.eventbrite.co.uk/e/zoom-omni-online-guildford-tickets-105876304878","shortener_url":null,"started_at":"2020-05-22T15:30:00.000+09:00","ended_at":"2022-12-16T18:30:00.000+09:00","limit_number":null,"address":null,"place":"online","lat":null,"lon":null,"state":"active","id":null},{"event_id":"103097593678","title":"IT CAREER PATHWAYS IN DEMAND AND HIGH PAYING IT NEW COLLAR JOBS","url":"https://www.eventbrite.com/e/it-career-pathways-in-demand-and-high-paying-it-new-collar-jobs-tickets-103097593678","shortener_url":null,"started_at":"2020-05-03T02:00:00.000+09:00","ended_at":"2023-03-25T09:30:00.000+09:00","limit_number":null,"address":null,"place":"online","lat":null,"lon":null,"state":"active","id":null},{"event_id":"106896837318","title":"Building Business Resilience: Beyond COVID-19","url":"https://www.eventbrite.co.uk/e/building-business-resilience-beyond-covid-19-tickets-106896837318","shortener_url":null,"started_at":"2020-05-29T22:30:00.000+09:00","ended_at":"2023-05-05T23:30:00.000+09:00","limit_number":null,"address":null,"place":"online","lat":null,"lon":null,"state":"active","id":null},{"event_id":"106896837318","title":"Removing barriers  to creating enterprise -  'Endless Possibilities'","url":"https://www.eventbrite.co.uk/e/removing-barriers-to-creating-enterprise-endless-possibilities-tickets-106896837318","shortener_url":null,"started_at":"2020-05-29T22:30:00.000+09:00","ended_at":"2023-11-25T00:30:00.000+09:00","limit_number":null,"address":null,"place":"online","lat":null,"lon":null,"state":"active","id":null}]