[{"event_id":"120194","title":"【そして】温泉合宿 in 箱根 【五回目】","url":"https://svrkcho.connpass.com/event/120194/","shortener_url":"https://bit.ly/2WAY6I3","started_at":"2020-02-15T04:00:00.000+09:00","ended_at":"2020-02-16T01:00:00.000+09:00","limit_number":50,"address":"神奈川県足柄下郡箱根町木賀1014","place":"KKR宮ノ下","lat":35.2455,"lon":139.055,"state":"active","id":null},{"event_id":"696386","title":"スポーツ栄養講座「アスリートの食事2019・実践編」第３回（2020年2月15日）","url":"http://peatix.com/event/696386","shortener_url":null,"started_at":"2020-02-15T01:00:00.000+09:00","ended_at":"2020-02-17T23:59:59.000+09:00","limit_number":null,"address":"東京都中央区築地3-5-10","place":"日刊スポーツ新聞社","lat":35.668,"lon":139.774,"state":"active","id":null},{"event_id":"696368","title":"スポーツ栄養講座「アスリートの食事2019・実践編」第３回（2020年2月13日）","url":"http://peatix.com/event/696368","shortener_url":null,"started_at":"2020-02-13T04:00:00.000+09:00","ended_at":"2020-02-15T23:59:59.000+09:00","limit_number":null,"address":"東京都中央区築地3-5-10","place":"日刊スポーツ新聞社","lat":35.668,"lon":139.774,"state":"active","id":null},{"event_id":"145359","title":"【前泊】温泉合宿 in 箱根 【前泊】","url":"https://svrkcho.connpass.com/event/145359/","shortener_url":null,"started_at":"2020-02-14T16:00:00.000+09:00","ended_at":"2020-02-15T10:00:00.000+09:00","limit_number":12,"address":"神奈川県足柄下郡箱根町木賀1014","place":"KKR宮ノ下","lat":35.2455,"lon":139.055,"state":"active","id":null},{"event_id":"98794","title":"Startup Weekend Tokyo Cebu@LIG iioffice","url":"https://swtokyo.doorkeeper.jp/events/98794","shortener_url":null,"started_at":"2020-02-21T10:00:00.000+09:00","ended_at":"2020-02-23T12:00:00.000+09:00","limit_number":60,"address":"2nd floor, ARINDA V. PARAS BLDG., Don Gil Garcia St, Cebu City, Cebu","place":"iioffice CEBU","lat":null,"lon":null,"state":"active","id":null},{"event_id":"1374238","title":"2/1(土)~2(日) festivo ウェブデザイン Camp@東京 【学生20,000円、一般25,000円(税別)】～2講師体制で戦うスキルを身につける15時間！HTML/CSS/WEBサイトコーディング/Photoshop集中合宿！～","url":"http://peatix.com/event/1374238","shortener_url":"https://bit.ly/2WUAUWs","started_at":"2020-02-01T01:30:00.000+09:00","ended_at":"2020-02-03T23:59:59.000+09:00","limit_number":null,"address":"東京都練馬区豊玉北3-15-17","place":"起業家シェアハウス x-garden セミナールーム","lat":35.7329,"lon":139.661,"state":"active","id":null},{"event_id":"1371095","title":"アイデアソンイベント「未来農業に生きるためのアイデア」","url":"http://agventurelab-200219event.peatix.com","shortener_url":"https://bit.ly/2qXa6c6","started_at":"2020-02-19T05:00:00.000+09:00","ended_at":"2020-02-21T23:59:59.000+09:00","limit_number":null,"address":"千代田区大手町1丁目6−1 大手町ビル 9階","place":"AgVenture Lab","lat":35.6864,"lon":139.765,"state":"active","id":null},{"event_id":"1381307","title":"（８名限定）大村コーチのツール・ド・おきなわ対策合宿（市民100ｋｍクラス以上対象） in 名護　2020","url":"http://peatix.com/event/1381307","shortener_url":null,"started_at":"2020-02-21T22:00:00.000+09:00","ended_at":"2020-02-23T23:59:59.000+09:00","limit_number":null,"address":"今帰仁村 字天底666−1","place":"Bistro Taishou（大笑）","lat":26.6696,"lon":127.988,"state":"active","id":null},{"event_id":"158044","title":"A:Mac合宿2020","url":"https://connpass.com/event/158044/","shortener_url":null,"started_at":"2020-02-22T03:00:00.000+09:00","ended_at":"2020-02-23T03:00:00.000+09:00","limit_number":54,"address":"山梨県南都留郡鳴沢村8532-5","place":"富士森の休暇村","lat":35.4763,"lon":138.691,"state":"active","id":null},{"event_id":"100534","title":"2/1(土)~2(日) festivo ウェブデザイン Camp@東京 【学生20,000円、一般25,000円(税別)】～2講師体制で戦うスキルを身につける15時間！HTML/CSS/WEBサイトコーディング/Photoshop集中合宿！～","url":"https://festivo.doorkeeper.jp/events/100534","shortener_url":"https://bit.ly/362USkZ","started_at":"2020-02-01T01:30:00.000+09:00","ended_at":"2020-02-02T09:30:00.000+09:00","limit_number":7,"address":"東京都練馬区豊玉北3-15-17","place":"起業家シェアハウス x-garden セミナールーム","lat":35.7329,"lon":139.661,"state":"active","id":null},{"event_id":"157260","title":"Geospatial Hackers Program 東海","url":"https://ghp.connpass.com/event/157260/","shortener_url":"https://bit.ly/2DP1Azb","started_at":"2020-02-01T01:00:00.000+09:00","ended_at":"2020-02-02T09:00:00.000+09:00","limit_number":25,"address":"愛知県名古屋市中村区名駅1-1-4 JRセントラルタワーズ 50階","place":"ヤフー株式会社 名古屋オフィス","lat":36.8264,"lon":137.446,"state":"active","id":null},{"event_id":"1389080","title":"STARRY NIGHT JAM vol.56　スペシャルトーク  アラスカの夜空とオーロラを満喫しよう！","url":"http://snj56.peatix.com","shortener_url":null,"started_at":"2020-02-08T07:00:00.000+09:00","ended_at":"2020-02-10T23:59:59.000+09:00","limit_number":null,"address":"福岡市中央区 六本松4丁目2−1","place":"福岡市科学館","lat":33.5774,"lon":130.378,"state":"active","id":null},{"event_id":"100946","title":"【増枠】［日本初］Startup Weekend Tokyo Sleeptech@100BANCH","url":"https://swtokyo.doorkeeper.jp/events/100946","shortener_url":null,"started_at":"2020-02-07T09:00:00.000+09:00","ended_at":"2020-02-09T12:00:00.000+09:00","limit_number":70,"address":"東京都渋谷区渋谷3-27-1","place":"100BANCH","lat":35.656,"lon":139.705,"state":"active","id":null},{"event_id":"99811","title":"［増枠］Startup Weekend 大阪 Space @ Panasonic WonderLAB Osaka","url":"https://swosaka.doorkeeper.jp/events/99811","shortener_url":null,"started_at":"2020-02-21T09:00:00.000+09:00","ended_at":"2020-02-23T12:00:00.000+09:00","limit_number":60,"address":"大阪府門真市大字門真1006","place":"Panasonic WonderLAB Osaka","lat":34.7416,"lon":135.571,"state":"active","id":null},{"event_id":"158902","title":"Sphinx + 翻訳 Hack-a-thon 開発合宿 2020","url":"https://sphinxjp.connpass.com/event/158902/","shortener_url":"https://bit.ly/2sz7QZr","started_at":"2020-02-22T04:00:00.000+09:00","ended_at":"2020-02-24T08:00:00.000+09:00","limit_number":null,"address":"埼玉県比企郡嵐山町菅谷728番地","place":"国立女性教育会館","lat":36.0354,"lon":139.327,"state":"active","id":null},{"event_id":"1395308","title":"第12回「14時間で作る新規事業案」ブロックチェーンビジネスハッカソン","url":"http://blockchainbusinesshackathon202002.peatix.com","shortener_url":"https://bit.ly/35yqTBP","started_at":"2020-02-14T10:00:00.000+09:00","ended_at":"2020-02-16T23:59:59.000+09:00","limit_number":null,"address":"中央区1丁目8−19 キラリトギンザ 11階","place":"BINARYSTAR 株式会社","lat":35.6744,"lon":139.769,"state":"active","id":null},{"event_id":"101693","title":"［無料］MVPの作り方","url":"https://swkobe.doorkeeper.jp/events/101693","shortener_url":null,"started_at":"2020-02-08T04:00:00.000+09:00","ended_at":"2020-02-08T07:00:00.000+09:00","limit_number":30,"address":"神戸市中央区磯辺通2‐2‐10 ワンノットトレーズビル2階","place":"WAY OUT","lat":34.6901,"lon":135.199,"state":"active","id":null},{"event_id":"162651","title":"交通系データ・ハッカソン（レッドハッカソンHIROSHIMA 2019 episode.2）","url":"https://hmcn.connpass.com/event/162651/","shortener_url":"https://bit.ly/35HaMkt","started_at":"2020-02-15T01:00:00.000+09:00","ended_at":"2020-02-16T09:30:00.000+09:00","limit_number":40,"address":"広島市中区紙屋町1-4-3 (エフケイビル1F)","place":"イノベーション・ハブ・ひろしまCamps","lat":34.3941,"lon":132.459,"state":"active","id":null},{"event_id":"1401174","title":"社会的弱者の災害時対応アイディアソン\u0026ハッカソン in 精華町～どうやってみんなに緊急情報を届けるべきか（視覚・聴覚障がい者編）～","url":"http://seika-shakai.peatix.com","shortener_url":"https://bit.ly/2FIMrAh","started_at":"2020-02-01T01:30:00.000+09:00","ended_at":"2020-02-03T23:59:59.000+09:00","limit_number":null,"address":"京都府相楽郡精華町光台1丁目7番地","place":"けいはんなプラザ","lat":34.7447,"lon":135.765,"state":"active","id":null},{"event_id":"111060","title":"2020年02月8日土曜日『宿借りの星』合宿読書会","url":"https://atnd.org/events/111060","shortener_url":"https://bit.ly/2smJMsT","started_at":"2020-02-08T06:00:00.000+09:00","ended_at":"2020-02-08T08:00:00.000+09:00","limit_number":15,"address":"京都府南丹市園部町新町51-1","place":"京都府南丹市園部町『かいちや』","lat":35.1071,"lon":135.479,"state":"closed","id":null},{"event_id":"1403837","title":"法社会制度ハッカソン（労働法制と未来の働き方）","url":"http://peatix.com/event/1403837","shortener_url":"https://bit.ly/389RO83","started_at":"2020-02-11T01:00:00.000+09:00","ended_at":"2020-02-13T23:59:59.000+09:00","limit_number":null,"address":"東京都品川区東五反田5丁目25−19","place":"東京デザインセンター　5階「crafTec」","lat":35.6277,"lon":139.724,"state":"active","id":null},{"event_id":"162463","title":"東広島イノベーティブセミナー","url":"https://connpass.com/event/162463/","shortener_url":"https://bit.ly/2RFfP00","started_at":"2020-02-14T01:00:00.000+09:00","ended_at":"2020-02-14T08:30:00.000+09:00","limit_number":100,"address":"広島県東広島市西条栄町7-19","place":"東広島芸術文化ホール　くらら","lat":34.4284,"lon":132.742,"state":"active","id":null},{"event_id":"1396986","title":"Perak Technology Academy: Raspberry Pi Jam","url":"http://raspberrypi.peatix.com","shortener_url":null,"started_at":"2020-02-28T18:30:00.000+09:00","ended_at":"2020-03-01T23:59:59.000+09:00","limit_number":null,"address":"NO 38-A2, Jalan Meru Bestari D1, Ipoh","place":"Bilik Seminar MyLegacy @Meru","lat":4.66903,"lon":101.074,"state":"active","id":null},{"event_id":"162425","title":"東広島未来創造アイディアソン","url":"https://connpass.com/event/162425/","shortener_url":"https://bit.ly/36McVN3","started_at":"2020-02-13T00:00:00.000+09:00","ended_at":"2020-02-13T09:00:00.000+09:00","limit_number":40,"address":"広島県東広島市西条岡町10-10","place":"東広島イノベーションラボ  ミライノ＋","lat":34.4277,"lon":132.741,"state":"active","id":null},{"event_id":"162025","title":"熊ゆに Unityもくもく会　2020/02/02（日）","url":"https://kumauni.connpass.com/event/162025/","shortener_url":null,"started_at":"2020-02-02T04:00:00.000+09:00","ended_at":"2020-02-02T07:00:00.000+09:00","limit_number":10,"address":"熊本県熊本市 中央区下通１丁目１２−２７","place":"未来会議室","lat":32.7998,"lon":130.708,"state":"active","id":null},{"event_id":"1393839","title":"Global Game Jam 2020 京都府精華町","url":"http://ggj-seika2020.peatix.com","shortener_url":"https://bit.ly/2QhKYWw","started_at":"2020-02-01T01:00:00.000+09:00","ended_at":"2020-02-03T23:59:59.000+09:00","limit_number":null,"address":"精華町光台1丁目7","place":"けいはんなプラザ","lat":34.7453,"lon":135.765,"state":"active","id":null},{"event_id":"161607","title":"長崎ハッカソン","url":"https://gleap.connpass.com/event/161607/","shortener_url":"https://bit.ly/2slD3j8","started_at":"2020-02-21T00:00:00.000+09:00","ended_at":"2020-02-24T04:00:00.000+09:00","limit_number":null,"address":"長崎県島原市礫石原町１２０１","place":"島原共同研修センター","lat":32.7937,"lon":130.307,"state":"active","id":null},{"event_id":"1394317","title":"アイデアソン：コンビニにあるコピー機を使った新しいビジネスを考える","url":"http://ideathon200208.peatix.com","shortener_url":"https://bit.ly/35KDAZq","started_at":"2020-02-08T04:00:00.000+09:00","ended_at":"2020-02-10T23:59:59.000+09:00","limit_number":null,"address":"東京都港区虎ノ門3-17-1 TOKYU REIT虎ノ門ビル7F","place":"Knowledge Place（ナレッジプラス）","lat":35.6642,"lon":139.747,"state":"active","id":null},{"event_id":"659097","title":"【注意】延期になりました；詳しくはお問合せください：第1期アプライドシアター専科認定コース「被抑圧者の演劇／フォーラムシアター」合宿コース","url":"http://peatix.com/event/659097","shortener_url":"https://bit.ly/35LxoAv","started_at":"2020-02-22T05:00:00.000+09:00","ended_at":"2020-02-24T23:59:59.000+09:00","limit_number":null,"address":"横浜","place":"横浜近隣（申込者に詳細を送ります）","lat":0.0,"lon":0.0,"state":"active","id":null},{"event_id":"1408109","title":"エイゴえほんのじかん 市ヶ谷柳町","url":"http://202002ceehonmic-1.peatix.com","shortener_url":null,"started_at":"2020-02-01T04:30:00.000+09:00","ended_at":"2020-02-03T23:59:59.000+09:00","limit_number":null,"address":"新宿区市谷柳町7","place":"みちくさくらす","lat":35.6995,"lon":139.727,"state":"active","id":null},{"event_id":"1408110","title":"エイゴえほんのじかん 市ヶ谷柳町","url":"http://202002ce-ehon-mic-2.peatix.com","shortener_url":null,"started_at":"2020-02-22T04:30:00.000+09:00","ended_at":"2020-02-24T23:59:59.000+09:00","limit_number":null,"address":"新宿区市谷柳町7","place":"みちくさくらす","lat":35.6995,"lon":139.727,"state":"active","id":null},{"event_id":"1399258","title":"仏教ってなんだろう？（全３回／１回目）","url":"http://shobo200215.peatix.com","shortener_url":null,"started_at":"2020-02-15T04:30:00.000+09:00","ended_at":"2020-02-17T23:59:59.000+09:00","limit_number":null,"address":"渋谷区東3丁目23−3 猪瀬ビル 1F","place":"書坊（shobo）","lat":35.6496,"lon":139.709,"state":"active","id":null},{"event_id":"1400537","title":"【先着40名様】一緒にビールを造りませんか？ビール女子オリジナルビール造りイベント","url":"http://beergirl-beer-kickoff.peatix.com","shortener_url":null,"started_at":"2020-02-01T05:00:00.000+09:00","ended_at":"2020-02-03T23:59:59.000+09:00","limit_number":null,"address":"神奈川県横浜市中区住吉町6丁目68-1","place":"驛の食卓","lat":35.4486,"lon":139.634,"state":"active","id":null},{"event_id":"1354912","title":"自分らしく働くー障がい者雇用の現場から　神原薫さん・砂長美んさん講演会","url":"http://jibun-hataraku.peatix.com","shortener_url":null,"started_at":"2020-02-29T04:30:00.000+09:00","ended_at":"2020-03-02T23:59:59.000+09:00","limit_number":null,"address":"小田原市城内1-21","place":"小田原箱根商工会議所大ホール","lat":35.2527,"lon":139.156,"state":"active","id":null},{"event_id":"1405193","title":"【受付終了】プロの音楽家の演奏で子供の成長を促しませんか？\u003c1歳半～3歳児対象\u003e","url":"http://peatix.com/event/1405193","shortener_url":null,"started_at":"2020-02-23T02:30:00.000+09:00","ended_at":"2020-02-25T23:59:59.000+09:00","limit_number":null,"address":"神奈川県川崎市中原区新丸子町749-6 GSハイム102","place":"武蔵小杉会場【レッスンスタジオ「話芸写」】","lat":35.5804,"lon":139.66,"state":"active","id":null},{"event_id":"1401746","title":"【満員御礼】『電磁波ストレスマネジメント講座』 〜むやみに電磁波を心配するのは、もうやめませんか？〜","url":"http://peatix.com/event/1401746","shortener_url":null,"started_at":"2020-02-04T04:00:00.000+09:00","ended_at":"2020-02-06T23:59:59.000+09:00","limit_number":null,"address":"東京都目黒区上目黒2丁目9‐36","place":"プレマルシェ・スタジオ中目黒","lat":35.6432,"lon":139.699,"state":"active","id":null},{"event_id":"1405191","title":"プロの音楽家の演奏で子供の成長を促しませんか？\u003c1歳半～3歳児対象\u003e","url":"http://peatix.com/event/1405191","shortener_url":null,"started_at":"2020-02-09T02:30:00.000+09:00","ended_at":"2020-02-11T23:59:59.000+09:00","limit_number":null,"address":"神奈川県川崎市中原区新丸子町749-6 GSハイム102","place":"武蔵小杉会場【レッスンスタジオ「話芸写」】","lat":35.5804,"lon":139.66,"state":"active","id":null},{"event_id":"1397334","title":"参加費無料！石川県内企業への転職を考えませんか！？【石川県UIターン合同企業説明会in大阪】","url":"http://ilac-ui-200215oosaka.peatix.com","shortener_url":null,"started_at":"2020-02-15T04:30:00.000+09:00","ended_at":"2020-02-17T23:59:59.000+09:00","limit_number":null,"address":"大阪市北区茶屋町1−27 ABC-MART梅田ビル 7F","place":"UMEDAI大阪梅田会議室","lat":34.7048,"lon":135.5,"state":"active","id":null},{"event_id":"1398770","title":"参加費無料！石川県内企業への転職を考えませんか！？【石川県UIターン合同企業説明会in東京】","url":"http://ilac-ui-200229tokyo.peatix.com","shortener_url":null,"started_at":"2020-02-29T04:30:00.000+09:00","ended_at":"2020-03-02T23:59:59.000+09:00","limit_number":null,"address":"東京都千代田区大手町2-6-2","place":"株式会社パソナ JOB HUB SQUARE 10F","lat":35.6849,"lon":139.769,"state":"active","id":null},{"event_id":"1401887","title":"【満席】★体験イベント★ 大人になってからが楽しい!?『アジ旅で世界のテーブルゲームを体験しませんか?』《当日チケット: 1,000円》","url":"http://peatix.com/event/1401887","shortener_url":null,"started_at":"2020-02-16T05:00:00.000+09:00","ended_at":"2020-02-18T23:59:59.000+09:00","limit_number":null,"address":"Japan","place":"特定非営利活動法人シブヤ大学","lat":35.6737,"lon":139.712,"state":"active","id":null},{"event_id":"1401239","title":"【満員御礼】膝痛があるランナーのための痛み改善教室(4名限定少人数制開催。走りません) 千葉県柏市 リンクフィットネス主催","url":"http://peatix.com/event/1401239","shortener_url":null,"started_at":"2020-02-22T04:00:00.000+09:00","ended_at":"2020-02-24T23:59:59.000+09:00","limit_number":null,"address":"千葉県柏市柏4-4-5メープル柏201","place":"【集合/受付】千葉県柏市 鍼灸マッサージ院FLAT柏","lat":35.863,"lon":139.974,"state":"active","id":null},{"event_id":"1399334","title":"日本ワインとCCRCのマリアージュ「日本ワイン物語」開催〜宮崎県小林市・生駒高原葡萄酒工房「ん・ダモシタン」ワインとオードブルで至福のひと時を〜","url":"http://nihon-wine.peatix.com","shortener_url":null,"started_at":"2020-02-19T10:00:00.000+09:00","ended_at":"2020-02-21T23:59:59.000+09:00","limit_number":null,"address":"千代田区大手町1丁目1−2 大手門タワー・JXビル 1階","place":"3×3 Lab Future","lat":35.6861,"lon":139.762,"state":"active","id":null},{"event_id":"1402987","title":"【無料】 #楽描きワイワイ  （定例：毎月第２日曜日） #shiawase2020 無料ワークショップ出展の企画会議の実践ワークショプ","url":"http://rkgkyy-20200208.peatix.com","shortener_url":null,"started_at":"2020-02-08T00:30:00.000+09:00","ended_at":"2020-02-10T23:59:59.000+09:00","limit_number":null,"address":"千代田区紀尾井町1−2 17F","place":"LODGE","lat":35.6797,"lon":139.737,"state":"active","id":null},{"event_id":"1399229","title":"満席【東京2月開催】01：ユーザー視点のUIデザインへのヒント「街中のサイン表示」","url":"http://peatix.com/event/1399229","shortener_url":null,"started_at":"2020-02-16T04:00:00.000+09:00","ended_at":"2020-02-18T23:59:59.000+09:00","limit_number":null,"address":"千代田区神田鍛冶町3丁目2−2","place":"エッサム神田ホール1号館","lat":35.6935,"lon":139.771,"state":"active","id":null},{"event_id":"1399408","title":"06【東京2月開催】初めてでもできる！「説得力ある分析＆評価レポート」V2","url":"http://peatix.com/event/1399408","shortener_url":null,"started_at":"2020-02-02T01:00:00.000+09:00","ended_at":"2020-02-04T23:59:59.000+09:00","limit_number":null,"address":"東京都千代田区内神田3-24-5","place":"エッサム神田ホール２号館 ７階会議室","lat":35.6924,"lon":139.769,"state":"active","id":null},{"event_id":"1399224","title":"残席２【東京2月開催】02：UIデザインの常識を改める「認知学から学ぶUIの基本」","url":"http://peatix.com/event/1399224","shortener_url":null,"started_at":"2020-02-16T07:45:00.000+09:00","ended_at":"2020-02-18T23:59:59.000+09:00","limit_number":null,"address":"千代田区神田鍛冶町3丁目2−2","place":"エッサム神田ホール1号館","lat":35.6935,"lon":139.771,"state":"active","id":null},{"event_id":"1399407","title":"【東京2月開催】05：提案の説得力を高める「ユーザー視点のUI設計＆提案書」","url":"http://peatix.com/event/1399407","shortener_url":null,"started_at":"2020-02-01T04:00:00.000+09:00","ended_at":"2020-02-03T23:59:59.000+09:00","limit_number":null,"address":"千代田区内神田3丁目24−5","place":"エッサム神田ホール２号館","lat":35.6925,"lon":139.769,"state":"active","id":null},{"event_id":"111313","title":"Global Game Jam Fukuoka 2020","url":"https://atnd.org/events/111313","shortener_url":"https://bit.ly/2TpUF8v","started_at":"2020-02-01T01:00:00.000+09:00","ended_at":"2020-02-02T10:00:00.000+09:00","limit_number":30,"address":"〒810-0042 福岡県福岡市中央区赤坂1丁目12−15 読売福岡ビル 7F","place":"さくらインターネット福岡オフィス (1日目), イムズ地下1階 Garraway F (2日目)","lat":33.5885,"lon":130.389,"state":"closed","id":null},{"event_id":"1407494","title":"【大ナゴヤ大学×名古屋わかもの会議】地域の魅力の伝え方を考えるトークイベント＆アイデアソン in名古屋","url":"http://peatix.com/event/1407494","shortener_url":"https://bit.ly/35VaRkB","started_at":"2020-02-09T06:30:00.000+09:00","ended_at":"2020-02-11T23:59:59.000+09:00","limit_number":null,"address":"名古屋市西区那古野1丁目6−13 なごのや1F","place":"なごのや","lat":35.1763,"lon":136.892,"state":"active","id":null},{"event_id":"1406986","title":"動画で月5万稼ぐことを目指す「いなフリ2.0～動画編集合宿～」2週間の講座を開催","url":"http://inafree2-0-kanaya.peatix.com","shortener_url":null,"started_at":"2020-02-17T04:00:00.000+09:00","ended_at":"2020-02-19T23:59:59.000+09:00","limit_number":null,"address":"富津市金谷2221−3","place":"インキュベーションキャンプ voido","lat":35.1668,"lon":139.823,"state":"active","id":null},{"event_id":"162146","title":"札幌オープンイノベーション勉強会 ＶＯＬ.７　北海道の宿がつくる★地域の新たなコミュニティー","url":"https://sapporo-openinovation.connpass.com/event/162146/","shortener_url":null,"started_at":"2020-02-15T14:40:00.000+09:00","ended_at":"2020-02-15T17:00:00.000+09:00","limit_number":50,"address":"札幌市中央区大通西1-1","place":"NHK札幌放送局","lat":43.0613,"lon":141.356,"state":"active","id":null},{"event_id":"1410305","title":"【2/14〜2/16】楽しいワーケーションしませんか？休日を福岡でもっと楽しく","url":"http://peatix.com/event/1410305","shortener_url":null,"started_at":"2020-02-14T04:30:00.000+09:00","ended_at":"2020-02-16T23:59:59.000+09:00","limit_number":null,"address":"福岡県福岡市博多区祇園町8−13","place":"HafH Fukuoka THE LIFE","lat":33.5911,"lon":130.411,"state":"active","id":null},{"event_id":"101937","title":"コミュニティの育て方","url":"https://swtokyo.doorkeeper.jp/events/101937","shortener_url":null,"started_at":"2020-02-05T10:00:00.000+09:00","ended_at":"2020-02-05T12:00:00.000+09:00","limit_number":20,"address":"東京都港区南青山6-10-11","place":"Wesley Center #201","lat":35.6597,"lon":139.716,"state":"active","id":null},{"event_id":"1411405","title":"音楽の力で、お子さまの\"表現力\"を伸ばしてみませんか？\u003c1歳半～3歳児対象\u003e","url":"http://peatix.com/event/1411405","shortener_url":null,"started_at":"2020-02-22T02:00:00.000+09:00","ended_at":"2020-02-24T23:59:59.000+09:00","limit_number":null,"address":"神奈川県川崎市小杉陣屋町1丁目23−7","place":"武蔵小杉【ダンススタジオR】","lat":35.5858,"lon":139.659,"state":"active","id":null},{"event_id":"1411404","title":"音楽の力で、お子さまの\"表現力\"を伸ばしてみませんか？\u003c1歳半～3歳児対象\u003e","url":"http://peatix.com/event/1411404","shortener_url":null,"started_at":"2020-02-08T02:00:00.000+09:00","ended_at":"2020-02-10T23:59:59.000+09:00","limit_number":null,"address":"神奈川県川崎市小杉陣屋町1丁目23−7","place":"武蔵小杉【ダンススタジオR】","lat":35.5858,"lon":139.659,"state":"active","id":null},{"event_id":"1407614","title":"★残3名の募集★【犬用お料理教室】２月のテーマは、「愛犬と一緒にひな祭り」  ひな祭りスイーツ（さつまいもといちごのパンナコッタ＆ソフトクッキー）を作りましょう。毎月第3火曜日は「わんちゃんデー」 大切な愛犬のためにできること、楽しく学んでみませんか？","url":"http://peatix.com/event/1407614","shortener_url":null,"started_at":"2020-02-18T01:00:00.000+09:00","ended_at":"2020-02-20T23:59:59.000+09:00","limit_number":null,"address":"杉並区西荻北3丁目21−5","place":"コワーキングカフェKOKOPLUS","lat":35.7048,"lon":139.6,"state":"active","id":null},{"event_id":"102987","title":"【2/3（月）・10（月）】初心者向け・２回で学ぶシリーズ①『PythonとJupyterNotebookの基礎』","url":"https://soleildatadojo.doorkeeper.jp/events/102987","shortener_url":null,"started_at":"2020-02-03T10:30:00.000+09:00","ended_at":"2020-02-10T12:30:00.000+09:00","limit_number":8,"address":"大阪府大阪市北区西天満二丁目5番3号(堂島深川ビル3階)","place":"SCRIBBLE OSAKA LAB（SOL）（大阪メトロ御堂筋線「淀屋橋」駅から徒歩４分）","lat":34.6951,"lon":135.502,"state":"active","id":null},{"event_id":"102991","title":"【2/15（土）午後】初心者向けシリーズ①『PythonとJupyterNotebookの基礎』","url":"https://soleildatadojo.doorkeeper.jp/events/102991","shortener_url":null,"started_at":"2020-02-15T04:00:00.000+09:00","ended_at":"2020-02-15T08:10:00.000+09:00","limit_number":9,"address":"大阪府大阪市北区西天満二丁目5番3号(堂島深川ビル3階)","place":"SCRIBBLE OSAKA LAB（SOL）（大阪メトロ御堂筋線「淀屋橋」駅から徒歩４分）","lat":34.6951,"lon":135.502,"state":"active","id":null},{"event_id":"102998","title":"【大阪開催】みんなでKaggleもくもく会#8","url":"https://soleildatadojo.doorkeeper.jp/events/102998","shortener_url":null,"started_at":"2020-02-16T04:30:00.000+09:00","ended_at":"2020-02-16T08:00:00.000+09:00","limit_number":10,"address":"大阪府大阪市北区西天満二丁目5番3号(堂島深川ビル3階)","place":"SCRIBBLE OSAKA LAB（SOL）（大阪メトロ御堂筋線「淀屋橋」駅から徒歩４分）","lat":34.6951,"lon":135.502,"state":"active","id":null},{"event_id":"1412424","title":"小石川　エイゴえほんのじかん","url":"http://202002ce-ehon-mon-2.peatix.com","shortener_url":null,"started_at":"2020-02-22T01:30:00.000+09:00","ended_at":"2020-02-24T23:59:59.000+09:00","limit_number":null,"address":"文京区小石川3丁目26−10","place":"小石川モノガタリ","lat":35.713,"lon":139.749,"state":"active","id":null},{"event_id":"1412414","title":"小石川　エイゴえほんのじかん","url":"http://202002ce-ehon-mon-1.peatix.com","shortener_url":null,"started_at":"2020-02-15T01:30:00.000+09:00","ended_at":"2020-02-17T23:59:59.000+09:00","limit_number":null,"address":"文京区小石川3丁目26−10","place":"小石川モノガタリ","lat":35.713,"lon":139.749,"state":"active","id":null},{"event_id":"1412543","title":"1日のみの参加も可能！【2/10.11＠福岡開催】〜HafH・The Company・フリーランス協会タイアップ企画〜『フリーランス交流合宿 in HafH Fukuoka The LIFE！』","url":"http://freelance-jp-hafh-fukuoka-open.peatix.com","shortener_url":"https://bit.ly/2Rq2tG9","started_at":"2020-02-10T10:00:00.000+09:00","ended_at":"2020-02-12T23:59:59.000+09:00","limit_number":null,"address":"福岡県福岡市博多区祇園町8-13","place":"HafH Fukuoka The LIFE","lat":33.5911,"lon":130.411,"state":"active","id":null},{"event_id":"1412028","title":"天然のサプリメント【ドライフルーツ】。ドライフルーツエバンジェリストが教える【安心・安全】本物のドライフルーツとその実力  【ドライフルーツをつくるワークショップではありません。座学と食べ比べの会ですのでご注意ください】","url":"http://peatix.com/event/1412028","shortener_url":null,"started_at":"2020-02-05T01:00:00.000+09:00","ended_at":"2020-02-07T23:59:59.000+09:00","limit_number":null,"address":"杉並区西荻北3丁目21−5","place":"コワーキングカフェKOKOPLUS","lat":35.7048,"lon":139.6,"state":"active","id":null},{"event_id":"1410142","title":"【20代限定！】言語化力で人生を変えろ！GO三浦が若者代表と参加者の人生に答えを出す人生相談LIVE。 ゲスト：三浦 崇宏さん・りょかちさん・たけもこさん・オカダダイキさん【人生デザイン学】","url":"http://peatix.com/event/1410142","shortener_url":null,"started_at":"2020-02-06T22:30:00.000+09:00","ended_at":"2020-02-08T23:59:59.000+09:00","limit_number":null,"address":"渋谷道玄坂2-10-7 新大宗ビル1号館 2F","place":"Book Lab Tokyo（ブックラボトーキョー）","lat":35.6581,"lon":139.697,"state":"active","id":null},{"event_id":"163923","title":"【IT業界に興味がある方向け】MESHでIoTプログラマ体験#2","url":"https://techseed.connpass.com/event/163923/","shortener_url":null,"started_at":"2020-02-03T02:00:00.000+09:00","ended_at":"2020-02-03T07:00:00.000+09:00","limit_number":10,"address":"千代田区神田富山町5-1 神田ビジネスキューブ 7F","place":"神田Room(会議室５)","lat":35.6939,"lon":139.773,"state":"active","id":null},{"event_id":"1413925","title":"『アイデアソン観覧者募集！』テーマはコンビニにあるコピー機を使った新しいビジネスモデルを考える","url":"http://peatix.com/event/1413925","shortener_url":"https://bit.ly/3atdtdd","started_at":"2020-02-08T08:00:00.000+09:00","ended_at":"2020-02-10T23:59:59.000+09:00","limit_number":null,"address":"東京都港区虎ノ門3-17-1 TOKYU REIT虎ノ門ビル7F","place":" Knowledge Place（ナレッジプラス）","lat":35.6642,"lon":139.747,"state":"active","id":null},{"event_id":"1413791","title":"2020年春学期 4月4日開講！社会起業大学 学校説明会　社会起業の初めの一歩で必要なことを学びませんか？","url":"http://peatix.com/event/1413791","shortener_url":null,"started_at":"2020-02-03T10:00:00.000+09:00","ended_at":"2020-02-05T23:59:59.000+09:00","limit_number":null,"address":"東京都千代田区二番町2番平田ビル1階","place":"社会起業大学","lat":35.687,"lon":139.738,"state":"active","id":null},{"event_id":"1413793","title":"2020年春学期 4月4日開講！社会起業大学 学校説明会　社会起業の初めの一歩で必要なことを学びませんか？","url":"http://peatix.com/event/1413793","shortener_url":null,"started_at":"2020-02-03T11:00:00.000+09:00","ended_at":"2020-02-05T23:59:59.000+09:00","limit_number":null,"address":"東京都千代田区二番町2番平田ビル1階","place":"社会起業大学","lat":35.687,"lon":139.738,"state":"active","id":null},{"event_id":"1409341","title":"【参加費無料】2/7(金) 19:30〜 EC業界の若手よ集まれ！EC Young JAM(仮)","url":"http://ec-youngjam01.peatix.com","shortener_url":null,"started_at":"2020-02-07T09:30:00.000+09:00","ended_at":"2020-02-09T23:59:59.000+09:00","limit_number":null,"address":"東京都渋谷区桜丘町22-14","place":"東京都渋谷区桜丘町22-14 N.E.SビルS5F 株式会社フラクタ ブランディングスペース","lat":35.6545,"lon":139.7,"state":"active","id":null},{"event_id":"1410493","title":"埼玉いっぴんいち＠池袋西口公園","url":"http://saitamaippin.peatix.com","shortener_url":null,"started_at":"2020-02-01T02:00:00.000+09:00","ended_at":"2020-02-03T23:59:59.000+09:00","limit_number":null,"address":"豊島区西池袋1丁目8−26","place":"池袋西口公園","lat":35.7302,"lon":139.709,"state":"active","id":null},{"event_id":"1415034","title":"24時間で現代アートの入口がわかる！忙しいあなたのための効率的で楽しい 現代アートカンヅメ合宿 in 河岸ホテル #1","url":"http://chonyumon1.peatix.com","shortener_url":null,"started_at":"2020-02-08T03:00:00.000+09:00","ended_at":"2020-02-10T23:59:59.000+09:00","limit_number":null,"address":"京都市下京区朱雀宝蔵町99","place":"KAGANHOTEL -河岸ホテル -","lat":34.9903,"lon":135.74,"state":"active","id":null},{"event_id":"1414866","title":"志んまち勘亭流書道會《如月》","url":"http://peatix.com/event/1414866","shortener_url":null,"started_at":"2020-02-11T05:00:00.000+09:00","ended_at":"2020-02-13T23:59:59.000+09:00","limit_number":null,"address":"大阪市西区新町一丁目南","place":"四ツ橋","lat":34.6775,"lon":135.495,"state":"active","id":null},{"event_id":"103159","title":"★2カ月で実装力を磨く！TensorFlowとKeras勉強会#3","url":"https://soleildatadojo.doorkeeper.jp/events/103159","shortener_url":null,"started_at":"2020-02-06T10:30:00.000+09:00","ended_at":"2020-02-06T12:30:00.000+09:00","limit_number":8,"address":"大阪府大阪市北区西天満二丁目5番3号(堂島深川ビル3階)","place":"SCRIBBLE OSAKA LAB（SOL）（大阪メトロ御堂筋線「淀屋橋」駅から徒歩４分）","lat":34.6951,"lon":135.502,"state":"active","id":null},{"event_id":"164426","title":"【時間変更】第667回 Kaggle 自然言語データ分析ハッカソン 2/15(土)","url":"https://teamai.connpass.com/event/164426/","shortener_url":"https://bit.ly/2RmxudR","started_at":"2020-02-15T04:00:00.000+09:00","ended_at":"2020-02-15T06:00:00.000+09:00","limit_number":22,"address":"","place":"Online","lat":35.6618,"lon":139.696,"state":"active","id":null},{"event_id":"162561","title":"Code Bliss ミニもくもく会 \u0026 アイデアソン","url":"https://cob.connpass.com/event/162561/","shortener_url":"https://bit.ly/2sR87Y8","started_at":"2020-02-02T01:10:00.000+09:00","ended_at":"2020-02-02T03:50:00.000+09:00","limit_number":9,"address":"","place":"確定中","lat":35.6986,"lon":139.778,"state":"active","id":null},{"event_id":"1415435","title":"「マイストーリー」で巡る自己探索の旅。～自分物語をテーマにした「対話」の中で、「自分らしさ」を見つけませんか？～","url":"http://peatix.com/event/1415435","shortener_url":null,"started_at":"2020-02-15T04:30:00.000+09:00","ended_at":"2020-02-17T23:59:59.000+09:00","limit_number":null,"address":"大阪市中央区 城見2-1-61 ツイン21 MIDタワー9階","place":"OBPアカデミア","lat":34.6925,"lon":135.532,"state":"active","id":null},{"event_id":"102645","title":"SW挑戦後の振り返り","url":"https://swtokyo.doorkeeper.jp/events/102645","shortener_url":null,"started_at":"2020-02-11T05:00:00.000+09:00","ended_at":"2020-02-11T07:00:00.000+09:00","limit_number":20,"address":"","place":"Wesley Center #204","lat":null,"lon":null,"state":"active","id":null},{"event_id":"103210","title":"『Python, Machine Learning \u0026 Raspberry PI』もくもく会#40","url":"https://soleildatadojo.doorkeeper.jp/events/103210","shortener_url":null,"started_at":"2020-02-05T10:30:00.000+09:00","ended_at":"2020-02-05T12:30:00.000+09:00","limit_number":8,"address":"大阪府大阪市北区西天満二丁目5番3号(堂島深川ビル3階)","place":"SCRIBBLE OSAKA LAB（SOL）（大阪メトロ御堂筋線「淀屋橋」駅から徒歩４分）","lat":34.6951,"lon":135.502,"state":"active","id":null},{"event_id":"1414678","title":"【参加無料】あなたの想いと経験を活かせるまちを見つけませんか？『生涯活躍ポータルカラフル MEET UP!』","url":"http://0210colorful.peatix.com","shortener_url":null,"started_at":"2020-02-10T10:00:00.000+09:00","ended_at":"2020-02-12T23:59:59.000+09:00","limit_number":null,"address":"港区芝浦3丁目15−4","place":"SHIBAURA HOUSE","lat":35.6422,"lon":139.749,"state":"active","id":null},{"event_id":"103244","title":"Global Game Jam Sapporo 2020 懇親会","url":"https://ggjsap.doorkeeper.jp/events/103244","shortener_url":"https://bit.ly/37DzXXf","started_at":"2020-02-02T12:00:00.000+09:00","ended_at":"2020-02-02T14:00:00.000+09:00","limit_number":60,"address":"札幌市中央区南3条西5丁目1-1 nORBESA 3F","place":"Italian Spanish グラニタ","lat":43.0561,"lon":141.351,"state":"active","id":null},{"event_id":"1416753","title":"2020年春学期 4月4日開講！社会起業大学 学校説明会　社会起業の初めの一歩で必要なことを学びませんか？","url":"http://peatix.com/event/1416753","shortener_url":null,"started_at":"2020-02-10T10:00:00.000+09:00","ended_at":"2020-02-12T23:59:59.000+09:00","limit_number":null,"address":"東京都千代田区二番町2番平田ビル1階","place":"社会起業大学","lat":35.687,"lon":139.738,"state":"active","id":null},{"event_id":"1416756","title":"2020年春学期 4月4日開講！社会起業大学 学校説明会　社会起業の初めの一歩で必要なことを学びませんか？","url":"http://peatix.com/event/1416756","shortener_url":null,"started_at":"2020-02-10T11:00:00.000+09:00","ended_at":"2020-02-12T23:59:59.000+09:00","limit_number":null,"address":"東京都千代田区二番町2番平田ビル1階","place":"社会起業大学","lat":35.687,"lon":139.738,"state":"active","id":null},{"event_id":"102831","title":"2020 WAKKA-THON","url":"https://wakkathon.doorkeeper.jp/events/102831","shortener_url":null,"started_at":"2020-02-21T09:00:00.000+09:00","ended_at":"2020-02-23T11:00:00.000+09:00","limit_number":19,"address":"和歌山県西牟婁郡白浜町中1701-3","place":"INNOVATION SPRINGS(イノベーション・スプリングス)  クオリティソフト株式会社本社内","lat":33.6524,"lon":135.384,"state":"active","id":null},{"event_id":"164710","title":"Kamakura Mok Mok Hack 68 - 鎌倉もくもく会","url":"https://kamkura-mokmok.connpass.com/event/164710/","shortener_url":null,"started_at":"2020-02-01T05:00:00.000+09:00","ended_at":"2020-02-01T08:00:00.000+09:00","limit_number":6,"address":"神奈川県鎌倉市大町1-1-4","place":"HATSU鎌倉","lat":35.3202,"lon":139.55,"state":"active","id":null},{"event_id":"1407133","title":"H³ 第30回：「エビデンスに基づく医療（EBM）入門」＠日本橋ライフサイエンスハブ","url":"http://hhh30.peatix.com","shortener_url":"https://bit.ly/3aJScMh","started_at":"2020-02-20T10:00:00.000+09:00","ended_at":"2020-02-22T23:59:59.000+09:00","limit_number":null,"address":"東京都中央区日本橋室町1-5-5","place":"日本橋ライフサイエンスハブ　室町ちばぎん三井ビルディング8階（COREDO室町3）","lat":35.6862,"lon":139.774,"state":"active","id":null},{"event_id":"1412858","title":"【満席につき募集締め切りました】【官民連携】東村山市×清瀬市×東久留米市！３市の市長による地域の魅力と課題を伝える市長ピッチ【マッチング】","url":"http://shichopitch.peatix.com","shortener_url":null,"started_at":"2020-02-04T10:00:00.000+09:00","ended_at":"2020-02-06T23:59:59.000+09:00","limit_number":null,"address":"渋谷区渋谷2丁目24番12号 スクランブルスクエア( 東 棟)15階","place":"SHIBUYA QWS （渋谷キューズ）","lat":35.6587,"lon":139.701,"state":"active","id":null},{"event_id":"164890","title":"第13回 CoderDojo太宰府","url":"https://coderdojo-dazaifu.connpass.com/event/164890/","shortener_url":null,"started_at":"2020-02-15T05:00:00.000+09:00","ended_at":"2020-02-15T08:00:00.000+09:00","limit_number":4,"address":"オンライン","place":"オンライン","lat":33.5194,"lon":130.533,"state":"active","id":null},{"event_id":"1411042","title":"新規就農・就業チャレンジフェア～新潟で農業・林業を始めませんか～","url":"http://challengefair020222.peatix.com","shortener_url":null,"started_at":"2020-02-22T04:00:00.000+09:00","ended_at":"2020-02-24T23:59:59.000+09:00","limit_number":null,"address":"新潟市中央区新光町4-1","place":"新潟県庁　西回廊講堂","lat":37.9023,"lon":139.024,"state":"active","id":null},{"event_id":"1416971","title":"フォトシッター　バースデーフレンズ撮影会","url":"http://hineyui.peatix.com","shortener_url":null,"started_at":"2020-02-01T01:30:00.000+09:00","ended_at":"2020-02-03T23:59:59.000+09:00","limit_number":null,"address":"福岡市中央区今泉1丁目18−25 季離宮 下離宮2階","place":"KURUMI","lat":33.5853,"lon":130.398,"state":"active","id":null},{"event_id":"165134","title":"【IT業界に興味がある方向け】MESHでIoTプログラマ体験#3","url":"https://techseed.connpass.com/event/165134/","shortener_url":null,"started_at":"2020-02-10T03:00:00.000+09:00","ended_at":"2020-02-10T08:00:00.000+09:00","limit_number":10,"address":"千代田区神田富山町5-1 神田ビジネスキューブ 7F","place":"神田Room(会議室５)","lat":35.6939,"lon":139.773,"state":"active","id":null},{"event_id":"164940","title":"子ども向けプログラミングクラブ コーダー道場甲府#31","url":"https://coderdojokofu.connpass.com/event/164940/","shortener_url":null,"started_at":"2020-02-23T00:20:00.000+09:00","ended_at":"2020-02-23T02:40:00.000+09:00","limit_number":13,"address":"山梨県甲府市北口２丁目８番１号","place":"山梨県立図書館","lat":35.6685,"lon":138.57,"state":"active","id":null},{"event_id":"164974","title":"スクラム道関西 オープン・ジャム","url":"https://scrumdo-kansai.connpass.com/event/164974/","shortener_url":null,"started_at":"2020-02-10T10:30:00.000+09:00","ended_at":"2020-02-10T12:30:00.000+09:00","limit_number":18,"address":"大阪府大阪市北区同心1-11-6","place":"株式会社タンバリン","lat":34.7016,"lon":135.515,"state":"active","id":null},{"event_id":"163990","title":"【参加無料】Upgrade Summit 2020 ～探す・見つける・つかむミライ","url":"https://ai-iot-bol-fukui.connpass.com/event/163990/","shortener_url":"https://bit.ly/2uGGLoe","started_at":"2020-02-22T04:30:00.000+09:00","ended_at":"2020-02-22T09:00:00.000+09:00","limit_number":60,"address":"福井県坂井市丸岡町熊堂第3号7番地1-16","place":"福井県産業情報センター","lat":36.1098,"lon":136.273,"state":"active","id":null},{"event_id":"165021","title":"新潟IoTハッカソン2020","url":"https://uhuru.connpass.com/event/165021/","shortener_url":"https://bit.ly/2UehVa9","started_at":"2020-02-22T00:00:00.000+09:00","ended_at":"2020-02-23T10:00:00.000+09:00","limit_number":42,"address":"新潟市中央区万代島５－１　万代島ビル11階","place":"NICOプラザ会議室","lat":37.9254,"lon":139.059,"state":"active","id":null},{"event_id":"1417394","title":"【東京2月開催】良い悪いが比べてわかる！ユーザー視点のUIデザイン①「ユーザー視点のナビゲーションデザイン編」","url":"http://peatix.com/event/1417394","shortener_url":null,"started_at":"2020-02-14T10:00:00.000+09:00","ended_at":"2020-02-16T23:59:59.000+09:00","limit_number":null,"address":"千代田区神田鍛冶町3丁目2−2","place":"エッサム神田ホール1号館","lat":35.6935,"lon":139.771,"state":"active","id":null},{"event_id":"165375","title":"第23回ゆるもく会","url":"https://sanuki-gamen.connpass.com/event/165375/","shortener_url":null,"started_at":"2020-02-22T04:00:00.000+09:00","ended_at":"2020-02-22T08:30:00.000+09:00","limit_number":null,"address":"香川県高松市亀井町10番地3","place":"燈屋","lat":34.3393,"lon":134.049,"state":"active","id":null},{"event_id":"1412731","title":"いっぽんのお酒、 in ちんぷん館","url":"http://ipponnoosake01.peatix.com","shortener_url":null,"started_at":"2020-02-29T05:00:00.000+09:00","ended_at":"2020-03-02T23:59:59.000+09:00","limit_number":null,"address":"江東区清澄2丁目5−3","place":"ちんぷん館TOKYO","lat":35.6817,"lon":139.795,"state":"active","id":null},{"event_id":"165584","title":"子どものためのプログラミングクラブ コーダー道場韮崎 #11","url":"https://coderdojo-nirasaki.connpass.com/event/165584/","shortener_url":null,"started_at":"2020-02-24T04:30:00.000+09:00","ended_at":"2020-02-24T06:40:00.000+09:00","limit_number":13,"address":"山梨県韮崎市若宮一丁目2番50号","place":"韮崎市民交流センター","lat":35.7117,"lon":138.45,"state":"active","id":null},{"event_id":"165583","title":"子どものためのプログラミングクラブ コーダー道場北杜 #10","url":"https://coderdojo-hokuto.connpass.com/event/165583/","shortener_url":null,"started_at":"2020-02-24T00:30:00.000+09:00","ended_at":"2020-02-24T02:40:00.000+09:00","limit_number":8,"address":"山梨県北杜市高根町村山北割３２８８","place":"北杜市高根町農村環境改善センター","lat":35.8375,"lon":138.412,"state":"active","id":null},{"event_id":"165137","title":"kyoto.ex mokumoku meet up","url":"https://kyotoex.connpass.com/event/165137/","shortener_url":null,"started_at":"2020-02-23T07:00:00.000+09:00","ended_at":"2020-02-23T10:00:00.000+09:00","limit_number":null,"address":"京都府京都市左京区田中門前町28-14(吹上ビル3F 北号室 Katharsis)","place":"Bar Katharsis","lat":35.0291,"lon":135.779,"state":"active","id":null},{"event_id":"1411324","title":"【2月の受付開始！】外国人プロ講師のオンライン英語レッスンを試してみませんか？個室で受けられます【水道橋駅徒歩1分】","url":"http://offline202002vipabc01.peatix.com","shortener_url":null,"started_at":"2020-02-01T02:00:00.000+09:00","ended_at":"2020-02-03T23:59:59.000+09:00","limit_number":null,"address":"東京都千代田区神田三崎町2-20-5","place":"東京　水道橋　VIPABC株式会社 住友不動産水道橋西口ビル7階","lat":35.7016,"lon":139.753,"state":"active","id":null},{"event_id":"1414997","title":"東京【2/17（月）19：30】天狼院「文壇bar」〜キャリア28年の文芸編集者がマスター！　お酒を飲みながら創作について語り合いませんか？《マスター：関根亨氏／文芸編集者》＊プレゼント抽選あり","url":"http://peatix.com/event/1414997","shortener_url":null,"started_at":"2020-02-17T10:30:00.000+09:00","ended_at":"2020-02-19T23:59:59.000+09:00","limit_number":null,"address":"豊島区南池袋3丁目24−16","place":"東京天狼院","lat":35.7243,"lon":139.716,"state":"active","id":null},{"event_id":"165335","title":"SMCN #05 UnityやXRやガジェットを語ろう！","url":"https://chiikiokoshi-vr.connpass.com/event/165335/","shortener_url":null,"started_at":"2020-02-11T04:00:00.000+09:00","ended_at":"2020-02-11T07:30:00.000+09:00","limit_number":25,"address":"島根県松江市朝日町４７８−１８","place":"松江オープンソースラボ","lat":35.4642,"lon":133.062,"state":"active","id":null},{"event_id":"103596","title":"クラウド連携を試す！AWS×COBOLハンズオンセミナー","url":"https://hackcamp.doorkeeper.jp/events/103596","shortener_url":"https://bit.ly/36OtNSF","started_at":"2020-02-19T08:00:00.000+09:00","ended_at":"2020-02-19T11:30:00.000+09:00","limit_number":110,"address":"〒153-0064東京都目黒区下目黒1-8-1 アルコタワーアネックス","place":"アルコタワーアネックス","lat":35.6315,"lon":139.714,"state":"active","id":null},{"event_id":"165807","title":"【時間変更】第671回 Kaggleメディカルデータ分析ハッカソン 2/22(土)","url":"https://teamai.connpass.com/event/165807/","shortener_url":"https://bit.ly/396toMP","started_at":"2020-02-22T04:00:00.000+09:00","ended_at":"2020-02-22T06:00:00.000+09:00","limit_number":22,"address":"","place":"Online","lat":35.6618,"lon":139.696,"state":"active","id":null},{"event_id":"165794","title":"【参加無料】未経験からITエンジニアを目指すセミナー／勉強のコツと相談会","url":"https://helloworldinc.connpass.com/event/165794/","shortener_url":null,"started_at":"2020-02-25T10:00:00.000+09:00","ended_at":"2020-02-25T12:00:00.000+09:00","limit_number":15,"address":"東京都千代田区神田神保町3-7-4(プレシーズタワー6F)","place":"プレシーズタワー","lat":35.6954,"lon":139.753,"state":"active","id":null},{"event_id":"163996","title":"【参加無料】未経験からITエンジニアを目指すセミナー／勉強のコツと相談会","url":"https://helloworldinc.connpass.com/event/163996/","shortener_url":null,"started_at":"2020-02-17T10:00:00.000+09:00","ended_at":"2020-02-17T12:00:00.000+09:00","limit_number":15,"address":"東京都千代田区神田神保町3-7-4(プレシーズタワー6F)","place":"プレシーズタワー","lat":35.6954,"lon":139.753,"state":"active","id":null},{"event_id":"1421826","title":"べんチョキ先生〜飛び出すお面をつくろう〜","url":"http://peatix.com/event/1421826","shortener_url":null,"started_at":"2020-02-16T02:00:00.000+09:00","ended_at":"2020-02-18T23:59:59.000+09:00","limit_number":null,"address":"東京都葛飾区亀有3-26-1","place":" 絵と言葉のライブラリー ミッカ（リリオ亀有7F）","lat":35.7666,"lon":139.848,"state":"active","id":null},{"event_id":"103613","title":"GreenTech ライトニング・トーク！これまでとこれからのチャレンジを語り合おう 〜SW Tokyo GreenTech 振り返り＆一歩未来へ〜","url":"https://swtokyo.doorkeeper.jp/events/103613","shortener_url":null,"started_at":"2020-02-29T01:30:00.000+09:00","ended_at":"2020-02-29T05:00:00.000+09:00","limit_number":35,"address":"東京都中央区日本橋本町3-3-3 Clipニホンバシビル1階","place":"Clipニホンバシ","lat":35.6886,"lon":139.774,"state":"active","id":null},{"event_id":"166071","title":"Kamakura Mok Mok Hack 69 - 鎌倉もくもく会","url":"https://kamkura-mokmok.connpass.com/event/166071/","shortener_url":null,"started_at":"2020-02-08T05:00:00.000+09:00","ended_at":"2020-02-08T08:00:00.000+09:00","limit_number":6,"address":"神奈川県鎌倉市大町1-1-4","place":"HATSU鎌倉","lat":35.3202,"lon":139.55,"state":"active","id":null},{"event_id":"166235","title":"なんでもモクモク会＋プチ講座＠よこはま#18","url":"https://moku-moku-yokohama.connpass.com/event/166235/","shortener_url":null,"started_at":"2020-02-08T01:00:00.000+09:00","ended_at":"2020-02-08T09:00:00.000+09:00","limit_number":7,"address":"横浜市西区みなとみらい 3-7-1","place":"OCEAN GATE MINATO MIRAI@WeWork","lat":35.4581,"lon":139.634,"state":"active","id":null},{"event_id":"165871","title":"Classi Rails Night 特別編（新卒エンジニア研修）","url":"https://classi-rails-night.connpass.com/event/165871/","shortener_url":null,"started_at":"2020-02-19T10:30:00.000+09:00","ended_at":"2020-02-19T12:00:00.000+09:00","limit_number":50,"address":"東京都品川区西五反田2-8-1 五反田ファーストビル 9F","place":"freee株式会社","lat":35.6268,"lon":139.722,"state":"active","id":null},{"event_id":"1413189","title":"キッズデザイン　\"アイデアソン\"　参加学生募集！！","url":"http://peatix.com/event/1413189","shortener_url":"https://bit.ly/2UoIoBO","started_at":"2020-02-27T02:30:00.000+09:00","ended_at":"2020-02-29T23:59:59.000+09:00","limit_number":null,"address":"大阪市西区京町堀2-5-16","place":"未来価値創造大学校","lat":0.0,"lon":0.0,"state":"active","id":null},{"event_id":"1423626","title":"2020年春学期 4月4日開講！社会起業大学 学校説明会　社会起業の初めの一歩で必要なことを学びませんか？","url":"http://peatix.com/event/1423626","shortener_url":null,"started_at":"2020-02-17T10:00:00.000+09:00","ended_at":"2020-02-19T23:59:59.000+09:00","limit_number":null,"address":"東京都千代田区二番町2番平田ビル1階","place":"社会起業大学","lat":35.687,"lon":139.738,"state":"active","id":null},{"event_id":"1423628","title":"2020年春学期 4月4日開講！社会起業大学 学校説明会　社会起業の初めの一歩で必要なことを学びませんか？","url":"http://peatix.com/event/1423628","shortener_url":null,"started_at":"2020-02-17T11:00:00.000+09:00","ended_at":"2020-02-19T23:59:59.000+09:00","limit_number":null,"address":"東京都千代田区二番町2番平田ビル1階","place":"社会起業大学","lat":35.687,"lon":139.738,"state":"active","id":null},{"event_id":"1418820","title":"【この遺伝子セミナーを見る前に他の遺伝子検査を受けることは考えてはいけません！】遺伝子は語る！生活習慣に関連する遺伝子＆腸内フローラ検査からわかる将来の健康リスクと対処法とは？","url":"http://peatix.com/event/1418820","shortener_url":null,"started_at":"2020-02-24T10:00:00.000+09:00","ended_at":"2020-02-26T23:59:59.000+09:00","limit_number":null,"address":"世田谷区 粕谷4丁目19−6-2F","place":"トータルヘルスケアハーブ","lat":35.6646,"lon":139.603,"state":"active","id":null},{"event_id":"1417121","title":"【この遺伝子セミナーを見る前に他の遺伝子検査を受けることは考えてはいけません！】遺伝子は語る！生活習慣に関連する遺伝子＆腸内フローラ検査からわかる将来の健康リスクと対処法とは？","url":"http://peatix.com/event/1417121","shortener_url":null,"started_at":"2020-02-12T10:00:00.000+09:00","ended_at":"2020-02-14T23:59:59.000+09:00","limit_number":null,"address":"世田谷区 粕谷4丁目19−6-2F","place":"トータルヘルスケアハーブ","lat":35.6646,"lon":139.603,"state":"active","id":null},{"event_id":"103062","title":"【参加無料】未経験からITエンジニアを目指すセミナー／勉強のコツと相談会","url":"https://helloworldinc.doorkeeper.jp/events/103062","shortener_url":null,"started_at":"2020-02-17T10:00:00.000+09:00","ended_at":"2020-02-17T12:00:00.000+09:00","limit_number":15,"address":"東京都千代田区神田神保町3-7-4 プレシーズタワー6F","place":"プレシーズタワー","lat":35.6954,"lon":139.753,"state":"active","id":null},{"event_id":"103602","title":"開催中止【参加無料】ITエンジニアって何？から始める未経験の方向けセミナーと相談会","url":"https://helloworldinc.doorkeeper.jp/events/103602","shortener_url":null,"started_at":"2020-02-25T10:00:00.000+09:00","ended_at":"2020-02-25T12:00:00.000+09:00","limit_number":15,"address":"東京都千代田区神田神保町3-7-4 プレシーズタワー6F","place":"プレシーズタワー","lat":35.6954,"lon":139.753,"state":"active","id":null},{"event_id":"1411948","title":"【2/22 大阪】IT × ヘルスケア Well Being アイディアソン","url":"http://well-being-thon.peatix.com","shortener_url":"https://bit.ly/2S1lj6p","started_at":"2020-02-22T01:00:00.000+09:00","ended_at":"2020-02-24T23:59:59.000+09:00","limit_number":null,"address":"大阪府大阪市淀川区西中島5-11-9 新大阪中里ビル 3F","place":"株式会社TRAPEオフィス BaseTRAPE","lat":34.7288,"lon":135.499,"state":"active","id":null},{"event_id":"1424469","title":"【開催中止】チョコ・ジャム・アイスをスペシャルティコーヒーと味わうティータイムイベント ～東神楽町種と実セレクトスイーツ３種発表会～","url":"http://tanetomisweets.peatix.com","shortener_url":null,"started_at":"2020-02-28T05:00:00.000+09:00","ended_at":"2020-03-01T23:59:59.000+09:00","limit_number":null,"address":"旭川市宮下通7−3112 ホテルウィングインターナショナル旭川駅前 1F","place":"yoshinori coffee 旭川駅前店","lat":43.7648,"lon":142.358,"state":"active","id":null},{"event_id":"1424415","title":"【オンライン開催 l 限定10名】AI×Teacher 次世代型英語学習を体験せよ！あなたを変える3日間の集中プラン~POLYGLOTSオンライン合宿","url":"http://peatix.com/event/1424415","shortener_url":null,"started_at":"2020-02-22T01:00:00.000+09:00","ended_at":"2020-02-24T23:59:59.000+09:00","limit_number":null,"address":"ONLINE","place":"ONLINE","lat":0.0,"lon":0.0,"state":"active","id":null},{"event_id":"1424863","title":"タカタ先生と数学大好きとしちゃんの「中学数学」で遊ぼう！〜図形編〜","url":"http://20200224math.peatix.com","shortener_url":null,"started_at":"2020-02-24T01:00:00.000+09:00","ended_at":"2020-02-26T23:59:59.000+09:00","limit_number":null,"address":"刈谷市相生町1丁目1−6","place":"刈谷市 産業振興センター","lat":34.9907,"lon":137.011,"state":"active","id":null},{"event_id":"166227","title":"【15名限定・初心者向けワークショップ】Python/AI JAM Session #01","url":"https://biosbootcamp.connpass.com/event/166227/","shortener_url":null,"started_at":"2020-02-19T10:30:00.000+09:00","ended_at":"2020-02-19T13:00:00.000+09:00","limit_number":15,"address":"東京都千代田区神田駿河台4-6　御茶ノ水ソラシティ アカデミア 3F","place":"デジタルハリウッド大学 E09教室","lat":35.6987,"lon":139.766,"state":"active","id":null},{"event_id":"1420213","title":"経費精算業務の大幅削減を実現しませんか？「Staple カード × 電子帳簿保存法」セミナー","url":"http://staple14.peatix.com","shortener_url":null,"started_at":"2020-02-21T06:00:00.000+09:00","ended_at":"2020-02-23T23:59:59.000+09:00","limit_number":null,"address":"東京都千代田区大手町1-6-1 大手町ビル4F","place":"大手町4F　FINOLABイベントスペース","lat":35.6864,"lon":139.765,"state":"active","id":null},{"event_id":"1423889","title":"力士たちの日常を知る【相撲部屋朝稽古見学】　見学席　（※ガイドによる研修ではございません）","url":"http://sumo-0210.peatix.com","shortener_url":null,"started_at":"2020-02-09T23:30:00.000+09:00","ended_at":"2020-02-11T23:59:59.000+09:00","limit_number":null,"address":"墨田区亀沢1丁目16−1","place":"八角部屋","lat":0.0,"lon":0.0,"state":"active","id":null},{"event_id":"104037","title":"★2カ月で実装力を磨く！TensorFlowとKeras勉強会#4","url":"https://soleildatadojo.doorkeeper.jp/events/104037","shortener_url":null,"started_at":"2020-02-27T10:30:00.000+09:00","ended_at":"2020-02-27T12:30:00.000+09:00","limit_number":8,"address":"大阪府大阪市北区西天満二丁目5番3号(堂島深川ビル3階)","place":"SCRIBBLE OSAKA LAB（SOL）（大阪メトロ御堂筋線「淀屋橋」駅から徒歩４分）","lat":34.6951,"lon":135.502,"state":"active","id":null},{"event_id":"166773","title":"第23回 PCNひろしま こどもプログラミング教室","url":"https://pcn-hiroshima.connpass.com/event/166773/","shortener_url":null,"started_at":"2020-02-23T01:30:00.000+09:00","ended_at":"2020-02-23T03:30:00.000+09:00","limit_number":25,"address":"オンライン","place":"オンライン","lat":34.3941,"lon":132.459,"state":"active","id":null},{"event_id":"166721","title":"HCMIコンソーシアム主催　第1回アイディアソン","url":"https://connpass.com/event/166721/","shortener_url":"https://bit.ly/38cu9US","started_at":"2020-02-29T01:00:00.000+09:00","ended_at":"2020-03-07T11:00:00.000+09:00","limit_number":15,"address":"〒135-0064 東京都江東区青海2-4-7","place":"産業技術総合研究所 臨海副都心センター 別館","lat":35.616,"lon":139.781,"state":"active","id":null},{"event_id":"1426374","title":"タカタ先生と数学大好きとしちゃんが数学史を語る会 ～笑いあり涙ありの数学界5000年の歴史～","url":"http://20200224math-history.peatix.com","shortener_url":null,"started_at":"2020-02-24T10:00:00.000+09:00","ended_at":"2020-02-26T23:59:59.000+09:00","limit_number":null,"address":"刈谷市相生町1丁目1−6","place":"刈谷市 産業振興センター","lat":34.9907,"lon":137.011,"state":"active","id":null},{"event_id":"166627","title":"【中止】UX JAM' 05","url":"https://uxmilk.connpass.com/event/166627/","shortener_url":null,"started_at":"2020-02-25T10:30:00.000+09:00","ended_at":"2020-02-25T13:00:00.000+09:00","limit_number":100,"address":"東京都港区六本木３丁目２−１ 住友不動産六本木グランドタワー 41階","place":"株式会社ヤプリ","lat":35.6647,"lon":139.738,"state":"active","id":null},{"event_id":"1422241","title":"Google Cloud Study Jam: GCP Essentials","url":"http://hutechclub-gcpstudyjam.peatix.com","shortener_url":null,"started_at":"2020-02-15T02:00:00.000+09:00","ended_at":"2020-02-17T23:59:59.000+09:00","limit_number":null,"address":"No. 15, Jalan Sri Semantan 1, Off, Jalan Semantan, Bukit Damansara, Kuala Lumpur","place":"HELP University","lat":3.15194,"lon":101.671,"state":"active","id":null},{"event_id":"1426780","title":"【参加無料】デジタルマーケティングの弊社コンサル業務を体験してみませんか？","url":"http://mt-meetup20200227.peatix.com","shortener_url":null,"started_at":"2020-02-27T08:00:00.000+09:00","ended_at":"2020-02-29T23:59:59.000+09:00","limit_number":null,"address":"東京都文京区本郷3-20-7 山の手ビル3F","place":"株式会社Media Theater オフィス","lat":35.7056,"lon":139.763,"state":"active","id":null},{"event_id":"1421865","title":"【参加無料】デジタルマーケティングに興味ある21卒のみなさん、カジュアルにお話しませんか？","url":"http://mt-meetup20200221.peatix.com","shortener_url":null,"started_at":"2020-02-21T10:00:00.000+09:00","ended_at":"2020-02-23T23:59:59.000+09:00","limit_number":null,"address":"東京都文京区本郷3-20-7 山の手ビル3F","place":"株式会社Media Theater オフィス","lat":35.7056,"lon":139.763,"state":"active","id":null},{"event_id":"167335","title":"【IT業界に興味がある方向け】MESHでIoTプログラマ体験#4","url":"https://techseed.connpass.com/event/167335/","shortener_url":null,"started_at":"2020-02-18T10:00:00.000+09:00","ended_at":"2020-02-18T12:00:00.000+09:00","limit_number":10,"address":"千代田区神田富山町5-1 神田ビジネスキューブ 7F","place":"神田Room(会議室５)","lat":35.6939,"lon":139.773,"state":"active","id":null},{"event_id":"167336","title":"【IT業界に興味がある方向け】MESHでIoTプログラマ体験#5","url":"https://techseed.connpass.com/event/167336/","shortener_url":null,"started_at":"2020-02-22T05:00:00.000+09:00","ended_at":"2020-02-22T08:00:00.000+09:00","limit_number":10,"address":"千代田区神田富山町5-1 神田ビジネスキューブ 7F","place":"神田Room(会議室５)","lat":35.6939,"lon":139.773,"state":"active","id":null},{"event_id":"166902","title":"[秋葉原] Unityもくもく勉強会×1週間ゲームジャム準備会","url":"https://weeyble-game.connpass.com/event/166902/","shortener_url":"https://bit.ly/2Sj87tR","started_at":"2020-02-23T04:00:00.000+09:00","ended_at":"2020-02-23T08:30:00.000+09:00","limit_number":11,"address":"東京都千代田区神田須田町２丁目１９−２３ (野村第３ビル ４階)","place":"コワーキングスペース秋葉原Weeyble","lat":35.6966,"lon":139.772,"state":"active","id":null},{"event_id":"1429030","title":"滝の上の家庭菜園と季節のジャム ｜南伊豆くらし図鑑","url":"http://peatix.com/event/1429030","shortener_url":null,"started_at":"2020-02-29T04:30:00.000+09:00","ended_at":"2020-03-02T23:59:59.000+09:00","limit_number":null,"address":"静岡県賀茂郡南伊豆町伊浜","place":"静岡県賀茂郡南伊豆町","lat":0.0,"lon":0.0,"state":"active","id":null},{"event_id":"167100","title":"Kamakura Mok Mok Hack 70 - 鎌倉もくもく会","url":"https://kamkura-mokmok.connpass.com/event/167100/","shortener_url":null,"started_at":"2020-02-15T00:00:00.000+09:00","ended_at":"2020-02-15T03:00:00.000+09:00","limit_number":5,"address":"神奈川県鎌倉市大町1-1-4","place":"HATSU鎌倉","lat":37.3992,"lon":140.384,"state":"active","id":null},{"event_id":"104214","title":"『Python, Machine Learning \u0026 Raspberry PI』もくもく会#42","url":"https://soleildatadojo.doorkeeper.jp/events/104214","shortener_url":null,"started_at":"2020-02-28T10:30:00.000+09:00","ended_at":"2020-02-28T12:30:00.000+09:00","limit_number":8,"address":"大阪府大阪市北区西天満二丁目5番3号(堂島深川ビル3階)","place":"SCRIBBLE OSAKA LAB（SOL）（大阪メトロ御堂筋線「淀屋橋」駅から徒歩４分）","lat":34.6951,"lon":135.502,"state":"active","id":null},{"event_id":"104231","title":"SUGEE MEETUP #2","url":"https://soleildatadojo.doorkeeper.jp/events/104231","shortener_url":null,"started_at":"2020-02-26T09:30:00.000+09:00","ended_at":"2020-02-26T12:00:00.000+09:00","limit_number":10,"address":"大阪市北区西天満2-5-3堂島深川ビル3階","place":"SCRIBBLE OSAKA LAB","lat":34.6952,"lon":135.502,"state":"active","id":null},{"event_id":"1426444","title":"\u003c体験会\u003e日本食文化を外国人に伝えませんか？英語で料理教室スタート講座の体験会","url":"http://peatix.com/event/1426444","shortener_url":null,"started_at":"2020-02-17T01:30:00.000+09:00","ended_at":"2020-02-19T23:59:59.000+09:00","limit_number":null,"address":"中野区中野4丁目10−1 中野セントラルパークイースト","place":"中野セントラルパーク イースト","lat":35.7077,"lon":139.663,"state":"active","id":null},{"event_id":"1422117","title":"【東京2月開催】著名企業のUIデザインを性能で比較する①「ユーザー視点のインタフェース編」","url":"http://peatix.com/event/1422117","shortener_url":null,"started_at":"2020-02-21T10:00:00.000+09:00","ended_at":"2020-02-23T23:59:59.000+09:00","limit_number":null,"address":"千代田区神田鍛冶町3丁目2−2","place":"エッサム神田ホール1号館","lat":35.6935,"lon":139.771,"state":"active","id":null},{"event_id":"104219","title":"【無料】1分ピッチをやってみよう！（Startup Weekend 守山 \u0026 Startup Weekend 岐阜 共催 プレイベント）","url":"https://swmoriyama.doorkeeper.jp/events/104219","shortener_url":null,"started_at":"2020-02-25T08:00:00.000+09:00","ended_at":"2020-02-25T11:00:00.000+09:00","limit_number":20,"address":"滋賀県彦根市大東町2-28 アル・プラザ彦根6階会議室A","place":"大学サテライト・プラザ彦根","lat":35.2724,"lon":136.262,"state":"active","id":null},{"event_id":"1425463","title":"【全職種対象】kay me採用イベント～グローバル展開するD2Cベンチャー、kay meの働き方についてお茶しながら語りませんか？～","url":"http://kayme-recruit0222.peatix.com","shortener_url":null,"started_at":"2020-02-22T02:00:00.000+09:00","ended_at":"2020-02-24T23:59:59.000+09:00","limit_number":null,"address":"新宿区新宿3丁目13−5 クリハシビル 6F","place":"kay me Lounge","lat":35.6921,"lon":139.706,"state":"active","id":null},{"event_id":"1412170","title":"英語で料理教室スタート講座【短期集中で料理に使う英語をマスター！】日本食文化を外国人に伝えませんか？2/27(木)15~19:30\u00263/15(日)10~15:00の2日間","url":"http://bcshort20200227-0315.peatix.com","shortener_url":null,"started_at":"2020-02-27T06:00:00.000+09:00","ended_at":"2020-02-29T23:59:59.000+09:00","limit_number":null,"address":"品川区荏原","place":"武蔵小山駅 徒歩7分","lat":35.6145,"lon":139.705,"state":"active","id":null},{"event_id":"111862","title":"Signal Störsender hilft, ein ruhiges Leben zu genießen","url":"https://atnd.org/events/111862","shortener_url":null,"started_at":"2020-02-17T16:00:00.000+09:00","ended_at":"2020-03-30T16:30:00.000+09:00","limit_number":123,"address":"","place":"","lat":null,"lon":null,"state":"closed","id":null},{"event_id":"111869","title":"Mencari Perjaka","url":"https://atnd.org/events/111869","shortener_url":null,"started_at":"2020-02-17T15:00:00.000+09:00","ended_at":"2020-02-18T20:00:00.000+09:00","limit_number":null,"address":"Kompleks, Jakarta","place":"Indonesia","lat":-6.16818,"lon":106.759,"state":"closed","id":null},{"event_id":"1417187","title":"★新型コロナウイルスの感染拡大のため、このイベントは中止します。ご迷惑をおかけしてすいませんでした。【トークライブ】令和を担う国会議員４人と星浩キャスターが考える　日本の政治 どう拓く？","url":"http://ronza-seiji.peatix.com","shortener_url":null,"started_at":"2020-02-22T05:00:00.000+09:00","ended_at":"2020-02-24T23:59:59.000+09:00","limit_number":null,"address":"東京都千代田区紀尾井町1-3","place":"ヤフー株式会社本社17階　セミナールーム 東京都千代田区紀尾井町1-3","lat":35.6796,"lon":139.737,"state":"active","id":null},{"event_id":"111936","title":"Keamanan serta Sistem Casino Wiv88 ","url":"https://atnd.org/events/111936","shortener_url":null,"started_at":"2020-02-11T17:00:00.000+09:00","ended_at":"2020-02-13T23:59:59.000+09:00","limit_number":null,"address":"","place":"","lat":null,"lon":null,"state":"closed","id":null},{"event_id":"111909","title":"Trik Bermain Poker Online - Kamar Poker Online","url":"https://atnd.org/events/111909","shortener_url":null,"started_at":"2020-02-03T15:30:00.000+09:00","ended_at":"2020-02-05T23:59:59.000+09:00","limit_number":null,"address":"","place":"","lat":null,"lon":null,"state":"closed","id":null},{"event_id":"1433559","title":"Acro+ Meetup: The Weekly Jam Series 1.0","url":"http://acromeetup1.peatix.com","shortener_url":null,"started_at":"2020-02-23T08:00:00.000+09:00","ended_at":"2020-02-25T23:59:59.000+09:00","limit_number":null,"address":"Lot L1-15/16/17/17A, 1st Floor, 3 Damansara Mall, 3, Jalan SS 20/27, Damansara Intan, Petaling Jaya","place":"Enhance Fitness @ 3 Damansara","lat":3.13042,"lon":101.628,"state":"active","id":null},{"event_id":"1435312","title":"（オンライン参加可）オウンドメディアで集客するなんて無理ゲーと思っていませんか？","url":"http://peatix.com/event/1435312","shortener_url":null,"started_at":"2020-02-26T01:00:00.000+09:00","ended_at":"2020-02-28T23:59:59.000+09:00","limit_number":null,"address":"東京都渋谷区渋谷2丁目21−1","place":"東京都渋谷区渋谷2-21-1 渋谷ヒカリエ11F hikarieカンファレンスルームA","lat":35.659,"lon":139.703,"state":"active","id":null},{"event_id":"168938","title":"【大阪】トランプマジックとAWSを活用したサービス開発を習得しよう！ 2020/02/29","url":"https://mackathon.connpass.com/event/168938/","shortener_url":null,"started_at":"2020-02-29T10:00:00.000+09:00","ended_at":"2020-02-29T13:00:00.000+09:00","limit_number":6,"address":"大阪市中央区本町四丁目７番７号飛鳥ビル３０３","place":"Kiiiya Hommachi","lat":34.6849,"lon":135.498,"state":"active","id":null},{"event_id":"111975","title":" Appearance variance","url":"https://atnd.org/events/111975","shortener_url":null,"started_at":"2020-02-26T03:30:00.000+09:00","ended_at":"2020-03-31T10:00:00.000+09:00","limit_number":null,"address":"","place":"","lat":null,"lon":null,"state":"closed","id":null},{"event_id":"1436660","title":"【参加無料】デジタルマーケティングの弊社コンサル業務を体験してみませんか？","url":"http://peatix.com/event/1436660","shortener_url":null,"started_at":"2020-02-27T08:00:00.000+09:00","ended_at":"2020-02-29T23:59:59.000+09:00","limit_number":null,"address":"東京都文京区本郷3-20-7 山の手ビル3F","place":"株式会社Media Theater オフィス","lat":35.7056,"lon":139.763,"state":"active","id":null},{"event_id":"1290222458210070528","title":"Universal Sports \u0026 Games Hackathon","url":"https://usgh.pm.tech/","shortener_url":null,"started_at":"2020-02-21T19:00:00.000+09:00","ended_at":"2020-07-31T08:00:00.000+09:00","limit_number":null,"address":null,"place":"online","lat":null,"lon":null,"state":"active","id":null},{"event_id":"1296320442148429825","title":"Hack U 関西大学 SOJO 2019 Student Hackathon - Yahoo! JAPAN","url":"https://hacku.yahoo.co.jp/kandaisojo2019/","shortener_url":null,"started_at":"2020-02-07T13:00:00.000+09:00","ended_at":"2020-07-12T18:00:00.000+09:00","limit_number":null,"address":null,"place":"online","lat":null,"lon":null,"state":"active","id":null},{"event_id":"1304071564535771138","title":"FINAL LIST: 15 teams shortlisted for Women in FinTech Hackathon – Sprint Magazine","url":"https://thesprintmagazine.com/final-list-15-teams-shortlisted-for-women-in-fintech-hackathon/","shortener_url":null,"started_at":"2020-02-21T00:00:00.000+09:00","ended_at":"2020-09-10T22:50:00.000+09:00","limit_number":null,"address":null,"place":"online","lat":null,"lon":null,"state":"active","id":null},{"event_id":"1232861343218380800","title":"Q1'2020 Hackathon prize winners (#33) · Issues · GitLab.com / marketing / Community Relations / Contributor Program / GitLab Hackathon","url":"https://gitlab.com/gitlab-com/marketing/community-relations/contributor-program/hackathon/-/issues/33","shortener_url":null,"started_at":"2020-02-26T10:01:00.000+09:00","ended_at":"2020-04-16T14:22:00.000+09:00","limit_number":null,"address":null,"place":"online","lat":null,"lon":null,"state":"active","id":null},{"event_id":"1324342599797239809","title":"Pride Hackathon 2020 on HackerEarth","url":"https://www.hackerearth.com/ja/challenges/hackathon/pride-hackathon-2020/","shortener_url":null,"started_at":"2020-02-04T18:30:00.000+09:00","ended_at":"2020-08-05T21:25:00.000+09:00","limit_number":null,"address":null,"place":"online","lat":null,"lon":null,"state":"active","id":null},{"event_id":"1324342599797239809","title":"Pride Hackathon 2020 on HackerEarth","url":"https://www.hackerearth.com/challenges/hackathon/pride-hackathon-2020/","shortener_url":null,"started_at":"2020-02-04T09:00:00.000+09:00","ended_at":"2020-08-05T12:25:00.000+09:00","limit_number":null,"address":null,"place":"online","lat":null,"lon":null,"state":"active","id":null},{"event_id":"1326859177369743361","title":"nexHack hackathon confronts education obstacles","url":"https://thepienews.com/news/edtech-hackathon-confronts-education-obstacles/","shortener_url":null,"started_at":"2020-02-01T09:00:00.000+09:00","ended_at":"2020-11-12T20:33:00.000+09:00","limit_number":null,"address":null,"place":"online","lat":null,"lon":null,"state":"active","id":null},{"event_id":"1331723471412346883","title":"ALUMNA DE SAFA ÉCIJA GANA HACKATHON EMPRENDE","url":"https://ecija.safa.edu/index.php/43-noticias/1782-alumna-de-safa-ecija-gana-hackathon-emprende","shortener_url":null,"started_at":"2020-02-01T00:00:00.000+09:00","ended_at":"2020-02-01T14:59:59.000+09:00","limit_number":null,"address":null,"place":"online","lat":null,"lon":null,"state":"active","id":null},{"event_id":"1332355074744492034","title":"NMIT Hacks 2021 on HackerEarth","url":"https://nmithacks.hackerearth.com/","shortener_url":null,"started_at":"2020-02-01T01:00:00.000+09:00","ended_at":"2020-10-07T12:30:00.000+09:00","limit_number":null,"address":null,"place":"online","lat":null,"lon":null,"state":"active","id":null},{"event_id":"1346366981658669056","title":"Electrothon'21","url":"https://specnith.com/electrothon.html","shortener_url":null,"started_at":"2020-02-01T00:00:00.000+09:00","ended_at":"2020-02-01T14:59:59.000+09:00","limit_number":null,"address":null,"place":"online","lat":null,"lon":null,"state":"active","id":null},{"event_id":"1349029666280022020","title":"Microsoft Azure Virtual Hackathon 2021","url":"https://discover-ai-with-microsoft.agorize.com/en/challenges/msazurevirtualhack-2021","shortener_url":"https://bit.ly/39pIZJf","started_at":"2020-02-01T04:00:00.000+09:00","ended_at":"2021-02-22T11:59:00.000+09:00","limit_number":null,"address":null,"place":"online","lat":null,"lon":null,"state":"active","id":null},{"event_id":"1349264922341908481","title":"DA-TE APPS！2021","url":"https://dateapps2021.mystrikingly.com/","shortener_url":"https://bit.ly/35DouYB","started_at":"2020-02-11T10:30:00.000+09:00","ended_at":"2021-02-08T18:00:00.000+09:00","limit_number":null,"address":"宮城県仙台市青葉区上杉1-1-2 ドコモ東北ビル15階TEL / 022-752-5251FAX/022-752-5375E-Mail / globallab.sendai@nttdocomo.comWebsite / http://www.globallab-sendai.com/","place":"宮城県仙台市青葉区上杉1-1-2 ドコモ東北ビル15階TEL / 022-752-5251FAX/022-752-5375E-Mail / globallab.sendai@nttdocomo.comWebsite / http://www.globallab-sendai.com/","lat":38.2569,"lon":140.886,"state":"active","id":null},{"event_id":"1352000606517522434","title":"HooHacks 2021","url":"https://www.hoohacks.io/","shortener_url":null,"started_at":"2020-02-01T00:00:00.000+09:00","ended_at":"2020-02-01T14:59:59.000+09:00","limit_number":null,"address":null,"place":"online","lat":null,"lon":null,"state":"active","id":null},{"event_id":"1353950080110366720","title":"CRYPTO CRYPTO NEWS - All Cryptocurrency News","url":"https://cryptocryptonews.com/jed-mccaleb-to-keynote-kick-off-for-2021-rzrblock-hackathon/","shortener_url":null,"started_at":"2020-02-01T01:30:00.000+09:00","ended_at":"2021-01-25T11:30:00.000+09:00","limit_number":null,"address":null,"place":"online","lat":null,"lon":null,"state":"active","id":null},{"event_id":"1354361012896542721","title":"Building 3 Apps at a 24h Hackathon | Hacker Noon","url":"https://hackernoon.com/building-3-apps-at-a-24h-hackathon-8efc9345c188","shortener_url":null,"started_at":"2020-02-08T00:00:00.000+09:00","ended_at":"2020-06-10T00:00:00.000+09:00","limit_number":null,"address":null,"place":"online","lat":null,"lon":null,"state":"active","id":null},{"event_id":"1355857648600670211","title":"Home | HackViolet","url":"https://www.hackviolet.com","shortener_url":null,"started_at":"2020-02-01T00:00:00.000+09:00","ended_at":"2020-02-01T14:59:59.000+09:00","limit_number":null,"address":null,"place":"online","lat":null,"lon":null,"state":"active","id":null},{"event_id":"1358075689950277635","title":"Top Ranked Engineering College Under BPUT in Odisha | Silicon Institute of Technology","url":"https://www.silicon.ac.in/","shortener_url":null,"started_at":"2020-02-01T00:00:00.000+09:00","ended_at":"2020-02-01T14:59:59.000+09:00","limit_number":null,"address":null,"place":"online","lat":null,"lon":null,"state":"active","id":null},{"event_id":"1359899646030733313","title":"IDEATHON 2021’den para ödülü","url":"https://www.gaziantepegitimdunyasi.com/haber/ideathon-2021den-para-odulu-haberi-6256.html","shortener_url":null,"started_at":"2020-02-01T00:00:00.000+09:00","ended_at":"2020-02-01T14:59:59.000+09:00","limit_number":null,"address":null,"place":"online","lat":null,"lon":null,"state":"active","id":null},{"event_id":"1362778851978350592","title":"ISO 20022 Hackathon on HackerEarth","url":"https://iso20022hackathon.hackerearth.com/","shortener_url":null,"started_at":"2020-02-02T10:59:00.000+09:00","ended_at":"2021-01-02T23:59:00.000+09:00","limit_number":null,"address":null,"place":"online","lat":null,"lon":null,"state":"active","id":null},{"event_id":"1371550101731221513","title":"Hackathon","url":"https://en.m.wikipedia.org/wiki/Hackathon","shortener_url":null,"started_at":"2020-02-18T00:00:00.000+09:00","ended_at":"2020-11-26T00:00:00.000+09:00","limit_number":null,"address":null,"place":"online","lat":null,"lon":null,"state":"active","id":null},{"event_id":"1372895649558102019","title":"ISO 20022 Hackathon on HackerEarth","url":"https://iso20022hackathon.hackerearth.com/de/","shortener_url":null,"started_at":"2020-02-02T02:00:00.000+09:00","ended_at":"2020-02-02T23:59:00.000+09:00","limit_number":null,"address":null,"place":"online","lat":null,"lon":null,"state":"active","id":null},{"event_id":"1372081053754662914","title":"Atlassian Community Nairobi \"ShipIT\" Hackathon 2021 | Atlassian Community Events","url":"https://ace.atlassian.com/events/details/atlassian-nairobi-presents-atlassian-community-nairobi-shipit-hackathon-2021/","shortener_url":null,"started_at":"2020-02-01T00:00:00.000+09:00","ended_at":"2021-03-20T16:30:00.000+09:00","limit_number":null,"address":null,"place":"online","lat":null,"lon":null,"state":"active","id":null},{"event_id":"1374313066574311424","title":"Symbioticon 20/21","url":"https://symbioticon.de/de","shortener_url":null,"started_at":"2020-02-01T01:00:00.000+09:00","ended_at":"2020-02-01T12:00:00.000+09:00","limit_number":null,"address":null,"place":"online","lat":null,"lon":null,"state":"active","id":null},{"event_id":"1387419864139108354","title":"F8 Refresh Hackathon","url":"https://facebookhackathons.com/","shortener_url":null,"started_at":"2020-02-01T00:00:00.000+09:00","ended_at":"2020-02-01T14:59:59.000+09:00","limit_number":null,"address":null,"place":"online","lat":null,"lon":null,"state":"active","id":null},{"event_id":"1390592235708682240","title":"Red Hat アイデアソン 2021 Spring Online 5G/Edge編","url":"https://kop-ideathon2021spr.peatix.com/","shortener_url":"https://bit.ly/2PYMsc6","started_at":"2020-02-01T06:50:00.000+09:00","ended_at":"2021-05-22T11:00:00.000+09:00","limit_number":null,"address":null,"place":"online","lat":null,"lon":null,"state":"active","id":null},{"event_id":"1395640781508124675","title":"SafeHack 2021 - The Human Firewall | Geekulcha","url":"https://geekulcha.dev/safehack","shortener_url":null,"started_at":"2020-02-01T00:00:00.000+09:00","ended_at":"2021-04-23T00:00:00.000+09:00","limit_number":null,"address":null,"place":"online","lat":null,"lon":null,"state":"active","id":null},{"event_id":"1398261142569508864","title":"Irish hackathon to focus on using space data for sustainability","url":"https://teckexperts.com/irish-hackathon-to-focus-on-using-space-data-for-sustainability-11388.html","shortener_url":null,"started_at":"2020-02-01T00:00:00.000+09:00","ended_at":"2020-02-01T14:59:59.000+09:00","limit_number":null,"address":null,"place":"online","lat":null,"lon":null,"state":"active","id":null},{"event_id":"1400098597727838213","title":"Women’s hackathon students develop image-processing technology to improve lives | Jewish Website","url":"https://jewishwebsite.com/featured/womens-hackathon-students-develop-image-processing-technology-to-improve-lives/70921/","shortener_url":null,"started_at":"2020-02-06T00:00:00.000+09:00","ended_at":"2021-06-10T00:00:00.000+09:00","limit_number":null,"address":null,"place":"online","lat":null,"lon":null,"state":"active","id":null},{"event_id":"1404249424025382917","title":"Nyle Hackathon in Tsukuba 2021","url":"https://nyle-hack.com/","shortener_url":"https://bit.ly/35jLxXH","started_at":"2020-02-01T00:00:00.000+09:00","ended_at":"2021-07-22T00:00:00.000+09:00","limit_number":null,"address":"茨城県つくば市吾妻1-7-1 トナリエ つくばスクエア 5階(地図)","place":"茨城県つくば市吾妻1-7-1 トナリエ つくばスクエア 5階(地図)","lat":36.0816,"lon":140.111,"state":"active","id":null},{"event_id":"1407519380024397824","title":"Nyle Hackathon in Tsukuba 2021","url":"https://nyle-hack.com","shortener_url":"https://bit.ly/35jLxXH","started_at":"2020-02-01T00:00:00.000+09:00","ended_at":"2021-07-22T00:00:00.000+09:00","limit_number":null,"address":"茨城県つくば市吾妻1-7-1 トナリエ つくばスクエア 5階(地図)","place":"茨城県つくば市吾妻1-7-1 トナリエ つくばスクエア 5階(地図)","lat":36.0816,"lon":140.111,"state":"active","id":null},{"event_id":"1407251002093309960","title":"Technoscape 2021","url":"https://technoscape.id/hackathon","shortener_url":null,"started_at":"2020-02-01T00:00:00.000+09:00","ended_at":"2020-02-01T14:59:59.000+09:00","limit_number":null,"address":null,"place":"online","lat":null,"lon":null,"state":"active","id":null},{"event_id":"1409597901387538439","title":"CloneComp 2021 | Webflow Cloneable Hackathon","url":"http://clonecomp.webflow.io","shortener_url":null,"started_at":"2020-02-01T01:00:00.000+09:00","ended_at":"2020-02-01T12:00:00.000+09:00","limit_number":null,"address":null,"place":"online","lat":null,"lon":null,"state":"active","id":null},{"event_id":"1409519287321038852","title":"India Plastic Challenge – Hackathon 2021-Sanskriti IAS","url":"https://www.sanskritiias.com/pt-cards/india-plastic-challenge-hackathon-2021-14","shortener_url":"https://bit.ly/3xp4tAE","started_at":"2020-02-01T00:00:00.000+09:00","ended_at":"2021-07-31T00:00:00.000+09:00","limit_number":null,"address":null,"place":"online","lat":null,"lon":null,"state":"active","id":null},{"event_id":"1417154736055332868","title":"CloneComp 2021 | Webflow Cloneable Hackathon","url":"http://CloneComp.webflow.io","shortener_url":null,"started_at":"2020-02-01T01:00:00.000+09:00","ended_at":"2020-02-01T12:00:00.000+09:00","limit_number":null,"address":null,"place":"online","lat":null,"lon":null,"state":"active","id":null},{"event_id":"1417497024275099648","title":"CloneComp 2021 | Webflow Cloneable Hackathon","url":"https://clonecomp.webflow.io/","shortener_url":null,"started_at":"2020-02-01T01:00:00.000+09:00","ended_at":"2020-02-01T12:00:00.000+09:00","limit_number":null,"address":null,"place":"online","lat":null,"lon":null,"state":"active","id":null},{"event_id":"1417318711678013445","title":"オンラインゲームジャム | ClusterGAMEJAM 2021 in SUMMER","url":"https://www.contest.cluster.mu/gamejam2021summer-home","shortener_url":"https://bit.ly/3BOqpYM","started_at":"2020-02-01T12:00:00.000+09:00","ended_at":"2021-08-15T22:01:00.000+09:00","limit_number":null,"address":null,"place":"online","lat":null,"lon":null,"state":"active","id":null},{"event_id":"1419990955927683072","title":"Bridging the STEM divide: AI hackathon helps young women excel in computer science – Microsoft News Centre Europe","url":"https://news.microsoft.com/europe/features/bridging-the-stem-divide-ai-hackathon-helps-young-women-excel-in-computer-science/","shortener_url":null,"started_at":"2020-02-20T00:00:00.000+09:00","ended_at":"2021-07-01T00:00:00.000+09:00","limit_number":null,"address":null,"place":"online","lat":null,"lon":null,"state":"active","id":null},{"event_id":"1422431428378193922","title":"アプリコンテストまとめ","url":"https://contest.pronama.jp/","shortener_url":"https://bit.ly/2TTivfD","started_at":"2020-02-01T23:59:00.000+09:00","ended_at":"2022-03-31T23:59:00.000+09:00","limit_number":null,"address":"沖縄県うるま市在住在学の小学生","place":"沖縄県うるま市在住在学の小学生\r","lat":26.3639,"lon":127.871,"state":"active","id":null},{"event_id":"1422795583002079232","title":"Coral Reef Innovation Lab rolls out Edtech Ghana Hackathon 2021 to boost digital literacy","url":"https://ghanaguardian.com/coral-reef-innovation-lab-rolls-out-edtech-ghana-hackathon-2021-to-boost-digital-literacy","shortener_url":null,"started_at":"2020-02-01T00:00:00.000+09:00","ended_at":"2020-02-01T14:59:59.000+09:00","limit_number":null,"address":null,"place":"online","lat":null,"lon":null,"state":"active","id":null},{"event_id":"1425034511776206859","title":"EAC Region Women Online Safety Hackathon | Google Developer Groups","url":"https://gdg.community.dev/events/details/google-gdg-dar-es-salaam-presents-eac-region-women-online-safety-hackathon/","shortener_url":"https://bit.ly/3xCqawC","started_at":"2020-02-01T00:00:00.000+09:00","ended_at":"2021-08-21T14:00:00.000+09:00","limit_number":null,"address":null,"place":"online","lat":null,"lon":null,"state":"active","id":null},{"event_id":"1425755207196188676","title":"WTM Nigeria Women Online Safety Hackathon | Google Developer Groups","url":"https://gdg.community.dev/events/details/google-gdg-bauchi-presents-wtm-nigeria-women-online-safety-hackathon/","shortener_url":"https://bit.ly/3iJTBZz","started_at":"2020-02-01T00:00:00.000+09:00","ended_at":"2021-08-14T12:00:00.000+09:00","limit_number":null,"address":null,"place":"online","lat":null,"lon":null,"state":"active","id":null},{"event_id":"1428706501758263298","title":"Develop to Disrupt Hackathon 2021($35,000 Prizes)","url":"https://opportunities.youthhubafrica.org/develop-to-disrupt-hackathon-202135000-prizes/","shortener_url":null,"started_at":"2020-02-01T00:00:00.000+09:00","ended_at":"2021-08-12T00:00:00.000+09:00","limit_number":null,"address":null,"place":"online","lat":null,"lon":null,"state":"active","id":null},{"event_id":"1434121120031051779","title":"Hackathon gegen Verkehrschaos - Stadionwelt","url":"https://www.stadionwelt.de/news/28933/hackathon-gegen-verkehrschaos","shortener_url":null,"started_at":"2020-02-01T00:00:00.000+09:00","ended_at":"2020-02-01T14:59:59.000+09:00","limit_number":null,"address":null,"place":"online","lat":null,"lon":null,"state":"active","id":null},{"event_id":"1434857397072236547","title":"Digital Hack Day 2021","url":"https://hackday.yahoo.co.jp/","shortener_url":null,"started_at":"2020-02-01T13:00:00.000+09:00","ended_at":"2021-08-02T17:00:00.000+09:00","limit_number":null,"address":null,"place":"online","lat":null,"lon":null,"state":"active","id":null},{"event_id":"1436366467415609352","title":"Hacking for Humanity Startup Hackathon – Morningside Area Alliance","url":"https://morningside-alliance.org/event/hacking-for-humanity-hackathon/","shortener_url":null,"started_at":"2020-02-01T02:00:00.000+09:00","ended_at":"2021-09-12T06:00:00.000+09:00","limit_number":null,"address":null,"place":"online","lat":null,"lon":null,"state":"active","id":null},{"event_id":"1436440903074320384","title":"IDEATHON WTM CENTRAL AFRICA | Google Developer Groups","url":"https://gdg.community.dev/events/details/google-gdg-yaounde-presents-ideathon-wtm-central-africa/","shortener_url":null,"started_at":"2020-02-01T00:00:00.000+09:00","ended_at":"2021-09-11T15:00:00.000+09:00","limit_number":null,"address":null,"place":"online","lat":null,"lon":null,"state":"active","id":null},{"event_id":"1437275856271929352","title":"BubbleGum","url":"https://unityroom.com/games/bubblegum","shortener_url":null,"started_at":"2020-02-22T12:00:00.000+09:00","ended_at":"2021-09-13T23:05:00.000+09:00","limit_number":null,"address":null,"place":"online","lat":null,"lon":null,"state":"active","id":null},{"event_id":"1438021143890325512","title":"Pune students win Medhacks 2021 hackathon","url":"https://www.educationtimes.com/article/newsroom/86201204/pune-students-win-medhacks-2021-hackathon","shortener_url":null,"started_at":"2020-02-01T07:00:00.000+09:00","ended_at":"2020-02-01T14:59:59.000+09:00","limit_number":null,"address":null,"place":"online","lat":null,"lon":null,"state":"active","id":null},{"event_id":"1438035978602438657","title":"Youth Co:Lab SDGsビジネスアイディア・コンテスト 「ソーシャル・イノベーション・チャレンジ日本大会2021」の応募受付開始！ | 国連開発計画（UNDP）","url":"https://www.jp.undp.org/content/tokyo/ja/home/presscenter/events/2021/youthcolab_social_innovation_challenge_2021.html","shortener_url":null,"started_at":"2020-02-01T19:00:00.000+09:00","ended_at":"2021-10-04T20:00:00.000+09:00","limit_number":null,"address":null,"place":"online","lat":null,"lon":null,"state":"active","id":null},{"event_id":"1438910853336739850","title":"TREX Build-system Hackathon 8-12 Nov 2021 | TREX","url":"https://trex-coe.eu/events/trex-build-system-hackathon-8-12-nov-2021","shortener_url":null,"started_at":"2020-02-01T09:00:00.000+09:00","ended_at":"2020-02-01T17:30:00.000+09:00","limit_number":null,"address":null,"place":"online","lat":null,"lon":null,"state":"active","id":null},{"event_id":"1440741395858264069","title":"Hackathon | Climate Code Red | UCL Engineering Welcome Festival 2021","url":"https://www.ucl.ac.uk/engineering/events/2021/sep/hackathon-climate-code-red-ucl-engineering-welcome-festival-2021","shortener_url":null,"started_at":"2020-02-01T05:00:00.000+09:00","ended_at":"2020-02-01T06:30:00.000+09:00","limit_number":null,"address":null,"place":"online","lat":null,"lon":null,"state":"active","id":null},{"event_id":"1441782286144266245","title":"Women in FinTech Hackathon 2021 – HiPipo -Digital Impact Awards Africa","url":"https://www.digital-impact-awards.com/event/women-in-fintech-hackathon-2/","shortener_url":null,"started_at":"2020-02-01T00:00:00.000+09:00","ended_at":"2020-02-01T14:59:59.000+09:00","limit_number":null,"address":null,"place":"online","lat":null,"lon":null,"state":"active","id":null},{"event_id":"1442774186124972037","title":"兵庫県立姫路工業高等学校｜部活動｜文化部｜園芸","url":"http://www.hyogo-c.ed.jp/~himeji-ths/004activities/cultural/002gardening/index.html","shortener_url":null,"started_at":"2020-02-19T00:00:00.000+09:00","ended_at":"2020-02-19T14:59:59.000+09:00","limit_number":null,"address":"兵庫県姫路市伊伝居600番地1","place":"兵庫県姫路市伊伝居600番地1","lat":34.8477,"lon":134.698,"state":"active","id":null},{"event_id":"1443782778810634275","title":"イントロダクション(分散アーキテクチャ時代におけるWebシステムの開発と運用) #seccamp","url":"https://www.slideshare.net/nekoruri/seccamp2021b3-introduction","shortener_url":null,"started_at":"2020-02-27T00:00:00.000+09:00","ended_at":"2020-12-18T00:00:00.000+09:00","limit_number":null,"address":null,"place":"online","lat":null,"lon":null,"state":"active","id":null},{"event_id":"1443501664799916035","title":"ハッカソンについて(分散アーキテクチャ時代におけるWebシステムの開発と運用) #seccamp","url":"https://www.slideshare.net/nekoruri/seccamp2021b3-hackathon","shortener_url":null,"started_at":"2020-02-27T00:00:00.000+09:00","ended_at":"2020-12-18T00:00:00.000+09:00","limit_number":null,"address":null,"place":"online","lat":null,"lon":null,"state":"active","id":null},{"event_id":"1445571810804731910","title":"Women's Online Safety Hackathon | Google Developer Groups","url":"https://gdg.community.dev/events/details/google-gdg-cloud-la-paz-presents-womens-online-safety-hackathon/","shortener_url":null,"started_at":"2020-02-01T00:00:00.000+09:00","ended_at":"2021-10-31T22:00:00.000+09:00","limit_number":null,"address":null,"place":"online","lat":null,"lon":null,"state":"active","id":null},{"event_id":"1446192982458175507","title":"Virtual Hackathon | Girl Develop It","url":"https://girldevelopit.com/events/details/girl-develop-it-virtual-hackathon-2021-presents-virtual-hackathon/","shortener_url":null,"started_at":"2020-02-01T00:00:00.000+09:00","ended_at":"2021-11-12T22:00:00.000+09:00","limit_number":null,"address":null,"place":"online","lat":null,"lon":null,"state":"active","id":null},{"event_id":"1447911164566929409","title":"HCL HACK IITK 2021 on HackerEarth","url":"https://hackiitk2021.hackerearth.com/","shortener_url":null,"started_at":"2020-02-01T03:30:00.000+09:00","ended_at":"2021-10-13T06:35:00.000+09:00","limit_number":null,"address":null,"place":"online","lat":null,"lon":null,"state":"active","id":null},{"event_id":"1450059004634337285","title":"Crowdfunding Hackathon 2022 | GIIN","url":"https://www.giin.co.il/crowdfunding2022","shortener_url":null,"started_at":"2020-02-02T00:00:00.000+09:00","ended_at":"2021-02-14T00:00:00.000+09:00","limit_number":null,"address":null,"place":"online","lat":null,"lon":null,"state":"active","id":null},{"event_id":"1450327037105770501","title":"UIDAI To Host ‘Aadhaar Hackathon 2021’ For Young Innovators From October 28","url":"https://www.moneycontrol.com/news/india/uidai-to-host-aadhaar-hackathon-2021-for-young-innovators-from-october-28-7597131.html","shortener_url":null,"started_at":"2020-02-01T09:12:00.000+09:00","ended_at":"2020-04-22T09:12:00.000+09:00","limit_number":null,"address":null,"place":"online","lat":null,"lon":null,"state":"active","id":null},{"event_id":"1453570681870831618","title":"'Aadhaar Hackathon 2021' Starts Today: Theme, Rules, Prizes And All You Need To Know","url":"https://www.moneycontrol.com/news/india/aadhaar-hackathon-2021-starts-today-theme-rules-prizes-and-all-you-need-to-know-7640131.html","shortener_url":null,"started_at":"2020-02-01T09:06:00.000+09:00","ended_at":"2021-10-12T09:06:00.000+09:00","limit_number":null,"address":null,"place":"online","lat":null,"lon":null,"state":"active","id":null},{"event_id":"1457699684982661121","title":"Estrategia de enseñanza y aprendizaje de programación basada en la idea de ’hackathon’","url":"https://riunet.upv.es/handle/10251/176599","shortener_url":null,"started_at":"2020-02-01T00:00:00.000+09:00","ended_at":"2021-09-28T00:00:00.000+09:00","limit_number":null,"address":null,"place":"online","lat":null,"lon":null,"state":"active","id":null},{"event_id":"1458087605736812553","title":"RBI Launches Its First Global Hackathon 'HARBINGER 2021' With ‘Smarter Digital Payments’ Theme","url":"https://www.moneycontrol.com/news/business/companies/rbi-launches-its-first-global-hackathon-harbinger-2021-with-smarter-digital-payments-theme-7696571.html","shortener_url":null,"started_at":"2020-02-01T05:10:00.000+09:00","ended_at":"2021-01-01T05:16:00.000+09:00","limit_number":null,"address":null,"place":"online","lat":null,"lon":null,"state":"active","id":null},{"event_id":"1458757913653112832","title":"RBI launches its First Global Hackathon - HARBINGER 2021","url":"https://www.taxmanagementindia.com/visitor/detail_rss_feed.asp","shortener_url":null,"started_at":"2020-02-01T00:00:00.000+09:00","ended_at":"2021-02-02T00:00:00.000+09:00","limit_number":null,"address":null,"place":"online","lat":null,"lon":null,"state":"active","id":null},{"event_id":"1458690948955721728","title":"DevRel/Japan CONFERENCE 2021","url":"https://devrel.tokyo/japan-2021/","shortener_url":null,"started_at":"2020-02-01T12:00:00.000+09:00","ended_at":"2021-11-13T20:00:00.000+09:00","limit_number":null,"address":null,"place":"online","lat":null,"lon":null,"state":"active","id":null},{"event_id":"1459220247936909328","title":"Women’s Online Safety Hackathon WTM La Paz | Google Developer Groups","url":"https://gdg.community.dev/events/details/google-gdg-la-paz-presents-womens-online-safety-hackathon-wtm-la-paz/","shortener_url":null,"started_at":"2020-02-01T00:00:00.000+09:00","ended_at":"2021-11-29T14:00:00.000+09:00","limit_number":null,"address":null,"place":"online","lat":null,"lon":null,"state":"active","id":null},{"event_id":"1459478324145582083","title":"IIMT Group Of Colleges Greater Noida | https://www.iimtindia.net","url":"https://www.iimtindia.net/","shortener_url":null,"started_at":"2020-02-01T00:00:00.000+09:00","ended_at":"2021-08-11T00:00:00.000+09:00","limit_number":null,"address":null,"place":"online","lat":null,"lon":null,"state":"active","id":null},{"event_id":"1460107366674747392","title":"RBI's first ever hackathon, HARBINGER 2021, to begin from today; here’s what you need to know","url":"https://www.businesstoday.in/latest/economy/story/rbis-first-ever-hackathon-harbinger-2021-to-begin-from-today-heres-what-you-need-to-know-312207-2021-11-15","shortener_url":null,"started_at":"2020-02-01T10:12:00.000+09:00","ended_at":"2021-01-01T10:12:00.000+09:00","limit_number":null,"address":null,"place":"online","lat":null,"lon":null,"state":"active","id":null},{"event_id":"1461765265633333251","title":"Stratis Build Hackathon 2021","url":"https://www.c-sharpcorner.com/article/stratis-build-hackathon-2021/","shortener_url":null,"started_at":"2020-02-01T05:00:00.000+09:00","ended_at":"2020-02-01T11:45:00.000+09:00","limit_number":null,"address":null,"place":"online","lat":null,"lon":null,"state":"active","id":null},{"event_id":"1465821070582185988","title":"Alumni Profile: From Hackathon to Amazon, Utako Kase is Proud to Have Studied Geography | Department of Geography | University of Washington","url":"https://geography.washington.edu/news/2020/02/18/alumni-profile-hackathon-amazon-utako-kase-proud-have-studied-geography","shortener_url":null,"started_at":"2020-02-18T00:00:00.000+09:00","ended_at":"2020-02-18T14:59:59.000+09:00","limit_number":null,"address":null,"place":"online","lat":null,"lon":null,"state":"active","id":null},{"event_id":"1464619521680019461","title":"\"ShipIT 3\" Hackathon 2021: Build Atlassian Apps on Forge | Atlassian Community Events","url":"https://ace.atlassian.com/events/details/atlassian-nairobi-presents-shipit-3-hackathon-2021-build-atlassian-apps-on-forge/","shortener_url":null,"started_at":"2020-02-01T00:00:00.000+09:00","ended_at":"2021-11-27T16:30:00.000+09:00","limit_number":null,"address":null,"place":"online","lat":null,"lon":null,"state":"active","id":null},{"event_id":"91190863327","title":"Are You the First In Your Family to Start Building Wealth? | #AskFLP","url":"https://www.eventbrite.com/e/are-you-the-first-in-your-family-to-start-building-wealth-askflp-tickets-91190863327","shortener_url":null,"started_at":"2020-02-05T00:30:00.000+09:00","ended_at":"2023-01-07T02:00:00.000+09:00","limit_number":null,"address":null,"place":"online","lat":null,"lon":null,"state":"active","id":null},{"event_id":"96506687099","title":"ETW  WEBINAR","url":"https://www.eventbrite.com/e/etw-webinar-tickets-96506687099","shortener_url":null,"started_at":"2020-02-24T20:00:00.000+09:00","ended_at":"2021-12-19T21:00:00.000+09:00","limit_number":null,"address":null,"place":"online","lat":null,"lon":null,"state":"active","id":null},{"event_id":"92512841399","title":"2021 Burnaby Entrepreneurs Toastmasters Weekly Digital Meeting","url":"https://www.eventbrite.ca/e/2021-burnaby-entrepreneurs-toastmasters-weekly-digital-meeting-tickets-92512841399","shortener_url":null,"started_at":"2020-02-06T02:30:00.000+09:00","ended_at":"2021-12-30T06:00:00.000+09:00","limit_number":null,"address":null,"place":"online","lat":null,"lon":null,"state":"active","id":null},{"event_id":"95312246495","title":"Monley Innovations Q \u0026 A Sessions","url":"https://www.eventbrite.com/e/monley-innovations-q-a-sessions-tickets-95312246495","shortener_url":null,"started_at":"2020-02-25T01:00:00.000+09:00","ended_at":"2022-01-25T02:00:00.000+09:00","limit_number":null,"address":null,"place":"online","lat":null,"lon":null,"state":"active","id":null}]