[{"event_id":"148420","title":"神奈川 WordPress 温泉合宿","url":"https://kanagawa-wordpress-meetup.connpass.com/event/148420/","shortener_url":null,"started_at":"2020-01-18T17:00:00.000+09:00","ended_at":"2020-01-19T10:00:00.000+09:00","limit_number":30,"address":"神奈川県足柄下郡箱根町木賀１０１４","place":"KKR宮ノ下","lat":35.2448,"lon":139.055,"state":"active","id":null},{"event_id":"98778","title":"Global Game Jam Sapporo 2020","url":"https://ggjsap.doorkeeper.jp/events/98778","shortener_url":"https://bit.ly/339PYl1","started_at":"2020-01-31T17:00:00.000+09:00","ended_at":"2020-02-02T20:00:00.000+09:00","limit_number":115,"address":"札幌市中央区南3条西5丁目1-1","place":"nORBESA 3F イベントホール","lat":43.0561,"lon":141.351,"state":"active","id":null},{"event_id":"1347687","title":"【名古屋2020年1月開催：個別05】ユーザー視点で作る「UI性能が高いサイト設計＆提案書」","url":"http://peatix.com/event/1347687","shortener_url":null,"started_at":"2020-01-19T13:00:00.000+09:00","ended_at":"2020-01-22T08:59:59.000+09:00","limit_number":null,"address":"愛知県名古屋市中村区名駅3-22-4 名駅前みどりビル7階","place":"オフィスパーク名駅カンファレンスセンター","lat":35.1723,"lon":136.888,"state":"active","id":null},{"event_id":"1347673","title":"一括受講割引【名古屋2020年1月開催】他では絶対教えてくれないUIデザインのワザをたっぷり学ぶ《基礎・応用編》","url":"http://peatix.com/event/1347673","shortener_url":null,"started_at":"2020-01-18T09:15:00.000+09:00","ended_at":"2020-01-21T08:59:59.000+09:00","limit_number":null,"address":"愛知県名古屋市中村区名駅3-22-4 名駅前みどりビル7階","place":"オフィスパーク名駅カンファレンスセンター","lat":35.1723,"lon":136.888,"state":"active","id":null},{"event_id":"99506","title":"Startup Weekend Tokyo GreenTech 3rd","url":"https://swtokyo.doorkeeper.jp/events/99506","shortener_url":"https://bit.ly/2JsonnD","started_at":"2020-01-17T18:30:00.000+09:00","ended_at":"2020-01-19T21:00:00.000+09:00","limit_number":65,"address":"東京都千代田区丸の内2-1-1 明治安田生命ビル TOKYO創業ステーション1F","place":"Startup Hub Tokyo","lat":35.6792,"lon":139.762,"state":"active","id":null},{"event_id":"98448","title":"Startup Weekend Osaka @KIX泉州","url":"https://swosaka.doorkeeper.jp/events/98448","shortener_url":null,"started_at":"2020-01-11T03:00:00.000+09:00","ended_at":"2020-01-13T06:00:00.000+09:00","limit_number":47,"address":"大阪府泉佐野市泉州空港北1番地 関空展望ホールスカイビュー","place":"関西国際空港　展望ホール「Sky View」メインホール3階","lat":null,"lon":null,"state":"active","id":null},{"event_id":"1368421","title":"Mapletree-SCCCI River Hongbao Hackathon 2020: Go Local with a Twist","url":"http://rhbhacks2020.peatix.com","shortener_url":"https://bit.ly/2N8oQhb","started_at":"2020-01-02T20:00:00.000+09:00","ended_at":"2020-01-05T08:59:59.000+09:00","limit_number":null,"address":"10 Pasir Panjang Road","place":"Mapletree Business City","lat":1.2742,"lon":103.8,"state":"active","id":null},{"event_id":"1364244","title":"【ぶっちゃけ途上国支援で飯くってけるんですか？】NPO代表がお答えします。 =NPO/国際協力のリアルトーク＝","url":"http://realseminar112.peatix.com","shortener_url":null,"started_at":"2020-01-13T00:45:00.000+09:00","ended_at":"2020-01-15T08:59:59.000+09:00","limit_number":null,"address":"新宿区市谷本村町10−5 JICA市ヶ谷ビル","place":"JICA地球ひろば","lat":35.6945,"lon":139.731,"state":"active","id":null},{"event_id":"155363","title":"【さらに増枠】GlobalGameJam 2020 CODE BASE NAGOYA","url":"https://dorasugj.connpass.com/event/155363/","shortener_url":"https://bit.ly/2NEKwld","started_at":"2020-01-31T20:00:00.000+09:00","ended_at":"2020-02-02T19:00:00.000+09:00","limit_number":30,"address":"愛知県名古屋市中区葵1-23-14 プロト葵ビル6F","place":"CODE BASE NAGOYA","lat":35.1701,"lon":136.922,"state":"active","id":null},{"event_id":"1371262","title":"STARRY NIGHT JAM vol.55　星兄の爆笑プラネタリウムショー","url":"http://snj55.peatix.com","shortener_url":null,"started_at":"2020-01-25T16:00:00.000+09:00","ended_at":"2020-01-28T08:59:59.000+09:00","limit_number":null,"address":"福岡市中央区 六本松4丁目2−1","place":"福岡市科学館","lat":33.5774,"lon":130.378,"state":"active","id":null},{"event_id":"1372063","title":"STARRY NIGHT JAM vol.54　星語り 新春スペシャル 冬の星空散歩 ＆ 天文トピック2020","url":"http://snj54.peatix.com","shortener_url":null,"started_at":"2020-01-05T02:00:00.000+09:00","ended_at":"2020-01-07T08:59:59.000+09:00","limit_number":null,"address":"福岡市中央区 六本松4丁目2−1","place":"福岡市科学館","lat":33.5774,"lon":130.378,"state":"active","id":null},{"event_id":"156337","title":"第6回 実践的IT教育シンポジウム rePiT 2020 in 秋葉原","url":"https://repit.connpass.com/event/156337/","shortener_url":null,"started_at":"2020-01-22T09:20:00.000+09:00","ended_at":"2020-01-22T17:00:00.000+09:00","limit_number":null,"address":"東京都千代田区外神田1-18-13 秋葉原ダイビル12階","place":"首都大学東京 秋葉原サテライトキャンパス","lat":35.6993,"lon":139.772,"state":"active","id":null},{"event_id":"156632","title":"Global Game Jam 2020 MyDearest浅草橋","url":"https://effectorhack.connpass.com/event/156632/","shortener_url":"https://bit.ly/32XXK0I","started_at":"2020-01-31T19:00:00.000+09:00","ended_at":"2020-02-02T21:00:00.000+09:00","limit_number":32,"address":"111-0053 東京都台東区浅草橋2-28-12  ＮＫグリーンビル4F","place":"MyDearest株式会社","lat":35.6605,"lon":139.706,"state":"active","id":null},{"event_id":"110192","title":"Daftar Situs Judi Onlie","url":"https://atnd.org/events/110192","shortener_url":null,"started_at":"2020-01-01T01:30:00.000+09:00","ended_at":"2020-01-03T02:00:00.000+09:00","limit_number":null,"address":"","place":"","lat":null,"lon":null,"state":"closed","id":null},{"event_id":"1381923","title":"博報堂DYMP主催\u003c未来のIPを掘り起こせ！日本初dAppsゲームハッカソン「dapcon」\u003e","url":"http://peatix.com/event/1381923","shortener_url":"https://bit.ly/2O5mJel","started_at":"2020-01-11T10:00:00.000+09:00","ended_at":"2020-01-14T08:59:59.000+09:00","limit_number":null,"address":"住友不動産渋谷インフォスアネックス, 1階, 12-10 桜丘町, 渋谷区","place":"Neutrino Tokyo","lat":35.6543,"lon":139.701,"state":"active","id":null},{"event_id":"154292","title":"【Global Game Jam 2020 in Osaka】バンタンゲームアカデミー大阪会場","url":"https://connpass.com/event/154292/","shortener_url":"https://bit.ly/37peWQ2","started_at":"2020-01-31T18:30:00.000+09:00","ended_at":"2020-02-02T18:00:00.000+09:00","limit_number":87,"address":"大阪府大阪市中央区難波４丁目４−４　3階","place":"【御堂筋センタービル】バンタンゲームアカデミー大阪校","lat":34.6653,"lon":135.5,"state":"active","id":null},{"event_id":"156529","title":"「 obniz × ArtecRobo2.0  」で簡単IoT工作！","url":"https://artecrobo-studuino.connpass.com/event/156529/","shortener_url":null,"started_at":"2020-01-18T13:00:00.000+09:00","ended_at":"2020-01-18T18:00:00.000+09:00","limit_number":6,"address":"東京都千代田区神田和泉町1番地住友商事神田和泉町ビル11F","place":"株式会社アーテック 東京支社","lat":35.6998,"lon":139.779,"state":"active","id":null},{"event_id":"155780","title":"GlobalGameJam2020 名古屋 名古ゲ部会場","url":"https://nagogebu.connpass.com/event/155780/","shortener_url":"https://bit.ly/2O9vZhD","started_at":"2020-01-31T19:00:00.000+09:00","ended_at":"2020-02-02T20:00:00.000+09:00","limit_number":16,"address":"愛知県名古屋市中区丸の内３丁目５－３４（セントラルコーポ５０３号室）","place":"名古屋ゲーム制作部(セントラルコーポ 503号室)","lat":35.1773,"lon":136.906,"state":"active","id":null},{"event_id":"155927","title":"高知ハッカソン2020","url":"https://uhuru.connpass.com/event/155927/","shortener_url":"https://bit.ly/2D5AX8P","started_at":"2020-01-12T09:00:00.000+09:00","ended_at":"2020-01-13T16:30:00.000+09:00","limit_number":31,"address":"高知県高知市永国寺町６−２８","place":"高知県産学官民連携センター[ココプラ]","lat":33.5632,"lon":133.534,"state":"active","id":null},{"event_id":"1386328","title":"\"音楽の力\"で、お子さまの可能性を伸ばしてみませんか？\u003c1歳半～3歳児対象\u003e","url":"http://peatix.com/event/1386328","shortener_url":null,"started_at":"2020-01-19T11:30:00.000+09:00","ended_at":"2020-01-22T08:59:59.000+09:00","limit_number":null,"address":"神奈川県川崎市中原区新丸子町749-6 GSハイム102","place":"武蔵小杉会場【レッスンスタジオ「話芸写」】","lat":35.5804,"lon":139.66,"state":"active","id":null},{"event_id":"1386332","title":"\"音楽の力\"で、お子さまの可能性を伸ばしてみませんか？\u003c1歳半～3歳児対象\u003e","url":"http://peatix.com/event/1386332","shortener_url":null,"started_at":"2020-01-26T11:30:00.000+09:00","ended_at":"2020-01-29T08:59:59.000+09:00","limit_number":null,"address":"神奈川県川崎市中原区新丸子町749-6 GSハイム102","place":"武蔵小杉会場【レッスンスタジオ「話芸写」】","lat":35.5804,"lon":139.66,"state":"active","id":null},{"event_id":"1386339","title":"音楽の力で、お子さまの\"表現力\"を伸ばしてみませんか？\u003c1歳半～3歳児対象\u003e","url":"http://peatix.com/event/1386339","shortener_url":null,"started_at":"2020-01-25T11:00:00.000+09:00","ended_at":"2020-01-28T08:59:59.000+09:00","limit_number":null,"address":"神奈川県川崎市小杉陣屋町1丁目23−7","place":"武蔵小杉【ダンススタジオR】","lat":35.5858,"lon":139.659,"state":"active","id":null},{"event_id":"1386335","title":"音楽の力で、お子さまの\"表現力\"を伸ばしてみませんか？\u003c1歳半～3歳児対象\u003e","url":"http://peatix.com/event/1386335","shortener_url":null,"started_at":"2020-01-18T20:00:00.000+09:00","ended_at":"2020-01-21T08:59:59.000+09:00","limit_number":null,"address":"神奈川県川崎市小杉陣屋町1丁目23−7","place":"武蔵小杉【ダンススタジオR】","lat":35.5858,"lon":139.659,"state":"active","id":null},{"event_id":"155753","title":"人気ゲーム企業と一緒に作るブロックチェーンゲーム（dApps）ハッカソン！※未経験者\u0026ゲーム好き歓迎","url":"https://neutrino.connpass.com/event/155753/","shortener_url":"https://bit.ly/2XOTWhk","started_at":"2020-01-11T10:00:00.000+09:00","ended_at":"2020-01-24T21:00:00.000+09:00","limit_number":60,"address":"東京都渋谷区桜丘町12-10 住友不動産渋谷インフォスアネックス1F","place":"Neutrino","lat":35.6544,"lon":139.701,"state":"active","id":null},{"event_id":"1387639","title":"「フリーランス×ギロン！」フリーランスについて議論しませんか！？ ｜日本最大級フリーランスコミュニティ「Freelance Now」","url":"http://freelance-giron.peatix.com","shortener_url":null,"started_at":"2020-01-17T18:45:00.000+09:00","ended_at":"2020-01-20T08:59:59.000+09:00","limit_number":null,"address":"東京都渋谷区恵比寿4-20-3 恵比寿ガーデンプレイスタワー6階","place":"株式会社クラウドワークス","lat":0.0,"lon":0.0,"state":"active","id":null},{"event_id":"1388736","title":"【満員御礼】肩痛がある方、腕振りがしびれたりだるくなるランナーのための痛み改善教室(4名限定少人数制開催。走りません) 千葉県柏市","url":"http://peatix.com/event/1388736","shortener_url":null,"started_at":"2020-01-25T13:00:00.000+09:00","ended_at":"2020-01-28T08:59:59.000+09:00","limit_number":null,"address":"千葉県柏市柏4-4-5メープル柏201","place":"【集合/受付】千葉県柏市 鍼灸マッサージ院FLAT柏","lat":35.863,"lon":139.974,"state":"active","id":null},{"event_id":"1389895","title":"1/18(土)~19(日)festivo ホームページ作成（WordPress） Camp@東京【30,000円（税別）】～戦うスキルを身につける大ボリューム2日15時間！WordPress集中合宿！～","url":"http://peatix.com/event/1389895","shortener_url":"https://bit.ly/2P6MSJb","started_at":"2020-01-18T10:30:00.000+09:00","ended_at":"2020-01-21T08:59:59.000+09:00","limit_number":null,"address":"東京都練馬区豊玉北3-15-17","place":"起業家シェアハウス x-garden セミナールーム","lat":35.7329,"lon":139.661,"state":"active","id":null},{"event_id":"158185","title":"わたし達の未来をつくるアイデアソン・ハッカソン〜視覚障害を持つ方編（東京）〜【レビュー】","url":"https://connpass.com/event/158185/","shortener_url":"https://bit.ly/2LiE8OP","started_at":"2020-01-31T13:00:00.000+09:00","ended_at":"2020-01-31T18:00:00.000+09:00","limit_number":30,"address":"東京都新宿区市谷本村町3-26 ホワイトレジデンス1階","place":"ワイム貸会議室 市ヶ谷","lat":35.6796,"lon":139.737,"state":"active","id":null},{"event_id":"158206","title":"地域課題解決IoTハッカソン　中間報告会2nd","url":"https://sanuki-gamen.connpass.com/event/158206/","shortener_url":"https://bit.ly/37SZfkq","started_at":"2020-01-18T16:00:00.000+09:00","ended_at":"2020-01-18T17:30:00.000+09:00","limit_number":15,"address":"高松市亀井町10番地3","place":"燈屋","lat":34.3393,"lon":134.049,"state":"active","id":null},{"event_id":"158186","title":"GlobalGameJam 2020 Hakodate","url":"https://ggjhak.connpass.com/event/158186/","shortener_url":"https://bit.ly/2raXqPn","started_at":"2020-01-31T18:30:00.000+09:00","ended_at":"2020-02-02T19:30:00.000+09:00","limit_number":30,"address":"〒040-0011 北海道函館市本町24番1号　シエスタハコダテ4階","place":"Gスクエア","lat":41.7895,"lon":140.752,"state":"active","id":null},{"event_id":"1385559","title":"【hairlogy】#9 予約リストをあなたの大好きなお客様でいっぱいにしませんか2020年1月","url":"http://hairlogy200121.peatix.com","shortener_url":null,"started_at":"2020-01-21T14:00:00.000+09:00","ended_at":"2020-01-24T08:59:59.000+09:00","limit_number":null,"address":"東京都品川区大井1-53-9 第一柳ビル1F","place":"アンルミエール(Une Lumiere)","lat":35.6044,"lon":139.733,"state":"active","id":null},{"event_id":"158607","title":"あぐり Tech について考える会","url":"https://connpass.com/event/158607/","shortener_url":null,"started_at":"2020-01-18T12:00:00.000+09:00","ended_at":"2020-01-18T19:00:00.000+09:00","limit_number":10,"address":"","place":"","lat":null,"lon":null,"state":"active","id":null},{"event_id":"100598","title":"【土日集中・全4日間】文系社会人のための基礎数学ブートキャンプ～えんぴつで解く機械学習《1月》","url":"https://soleildatadojo.doorkeeper.jp/events/100598","shortener_url":null,"started_at":"2020-01-18T10:00:00.000+09:00","ended_at":"2020-01-26T17:10:00.000+09:00","limit_number":26,"address":"大阪府大阪市北区西天満二丁目5番3号(堂島深川ビル3階)","place":"Scrrible Osaka Lab（大阪メトロ御堂筋線「淀屋橋」駅より徒歩4分／京阪電鉄中之島線「大江橋」駅徒歩2分）","lat":34.6951,"lon":135.502,"state":"active","id":null},{"event_id":"99594","title":"［増枠］StartupWeekend 福山","url":"https://swfukuyama.doorkeeper.jp/events/99594","shortener_url":null,"started_at":"2020-01-17T18:00:00.000+09:00","ended_at":"2020-01-19T20:00:00.000+09:00","limit_number":60,"address":"広島県福山市延広町1-28","place":"もみじ銀行 福山支店","lat":34.4861,"lon":133.364,"state":"active","id":null},{"event_id":"99782","title":"StartupWeekend Nagoya Education @ なごのキャンパス","url":"https://swnagoya.doorkeeper.jp/events/99782","shortener_url":null,"started_at":"2020-01-31T18:00:00.000+09:00","ended_at":"2020-02-02T21:00:00.000+09:00","limit_number":50,"address":"愛知県名古屋市西区那古野2丁目14−1","place":"なごのキャンパス (愛知県名古屋市西区那古野２丁目１４−１)","lat":35.1761,"lon":136.886,"state":"active","id":null},{"event_id":"100495","title":"［無料］パラレルキャリアの始め方","url":"https://swnagoya.doorkeeper.jp/events/100495","shortener_url":null,"started_at":"2020-01-06T00:00:00.000+09:00","ended_at":"2020-01-06T02:00:00.000+09:00","limit_number":25,"address":"愛知県名古屋市西区那古野2丁目14−1","place":"なごのキャンパス (愛知県名古屋市西区那古野２丁目１４−１)","lat":null,"lon":null,"state":"active","id":null},{"event_id":"100494","title":"［無料］クラウドファンディングの始め方","url":"https://swnagoya.doorkeeper.jp/events/100494","shortener_url":null,"started_at":"2020-01-05T22:00:00.000+09:00","ended_at":"2020-01-06T00:00:00.000+09:00","limit_number":25,"address":"愛知県名古屋市西区那古野2丁目14−1","place":"なごのキャンパス (愛知県名古屋市西区那古野２丁目１４−１)","lat":null,"lon":null,"state":"active","id":null},{"event_id":"101168","title":"1/18(土)~19(日)festivo ホームページ作成（WordPress） Camp@東京【30,000円(税別)】～戦うスキルを身につける大ボリューム2日15時間！WordPress集中合宿！～","url":"https://festivo.doorkeeper.jp/events/101168","shortener_url":"https://bit.ly/2OSCHZu","started_at":"2020-01-18T10:30:00.000+09:00","ended_at":"2020-01-19T18:30:00.000+09:00","limit_number":10,"address":"東京都練馬区豊玉北3-15-17","place":"起業家シェアハウス x-garden セミナールーム","lat":35.7329,"lon":139.661,"state":"active","id":null},{"event_id":"100429","title":"Global GameJam 2020 in 沖縄","url":"https://igda-ryukyus.doorkeeper.jp/events/100429","shortener_url":"https://bit.ly/34PyNpW","started_at":"2020-01-31T19:00:00.000+09:00","ended_at":"2020-02-02T19:00:00.000+09:00","limit_number":60,"address":"沖縄県中頭郡西原町字千原1","place":"琉球大学工学部1号館321教室","lat":26.2476,"lon":127.765,"state":"active","id":null},{"event_id":"110717","title":"Mcafee Activate Key","url":"https://atnd.org/events/110717","shortener_url":null,"started_at":"2020-01-01T02:30:00.000+09:00","ended_at":"2020-01-10T03:00:00.000+09:00","limit_number":null,"address":"","place":"43 Sunbeam Drive Jamaica, NY 11434","lat":null,"lon":null,"state":"closed","id":null},{"event_id":"1384789","title":"人気ゲーム企業と一緒に作るブロックチェーンゲーム（dApps）ハッカソン！※未経験者\u0026ゲーム好き歓迎","url":"http://peatix.com/event/1384789","shortener_url":"https://bit.ly/3541nnQ","started_at":"2020-01-11T10:00:00.000+09:00","ended_at":"2020-01-14T08:59:59.000+09:00","limit_number":null,"address":"住友不動産渋谷インフォスアネックス, 1階, 12-10 桜丘町, 渋谷区","place":"Neutrino Tokyo","lat":35.6543,"lon":139.701,"state":"active","id":null},{"event_id":"101580","title":"［無料］コミュニティの育て方","url":"https://swkobe.doorkeeper.jp/events/101580","shortener_url":null,"started_at":"2020-01-11T22:00:00.000+09:00","ended_at":"2020-01-12T00:00:00.000+09:00","limit_number":20,"address":"大阪府大阪市北区鶴野町1-5","place":"関西大学梅田キャンパス2階 StartupCafeOsaka","lat":null,"lon":null,"state":"active","id":null},{"event_id":"101581","title":"［無料］クラウドファンディングの始め方","url":"https://swkobe.doorkeeper.jp/events/101581","shortener_url":null,"started_at":"2020-01-11T19:00:00.000+09:00","ended_at":"2020-01-11T21:00:00.000+09:00","limit_number":20,"address":"大阪府大阪市北区鶴野町1-5","place":"関西大学梅田キャンパス2階 StartupCafeOsaka","lat":null,"lon":null,"state":"active","id":null},{"event_id":"101582","title":"［海外］StartupWeekend説明会","url":"https://swosaka.doorkeeper.jp/events/101582","shortener_url":null,"started_at":"2020-01-12T00:30:00.000+09:00","ended_at":"2020-01-12T02:00:00.000+09:00","limit_number":20,"address":"大阪府大阪市北区鶴野町1-5","place":"関西大学梅田キャンパス2階 StartupCafeOsaka","lat":null,"lon":null,"state":"active","id":null},{"event_id":"1393005","title":"Global Game Jam 2020 ふくしま","url":"http://ggjfks20.peatix.com","shortener_url":"https://bit.ly/2PeLS6O","started_at":"2020-01-31T17:00:00.000+09:00","ended_at":"2020-02-03T08:59:59.000+09:00","limit_number":null,"address":"郡山市方八町2丁目4−1","place":"国際アート＆デザイン大学校","lat":37.3941,"lon":140.39,"state":"active","id":null},{"event_id":"158940","title":"子ども向けプログラミングクラブ コーダー道場甲府#30","url":"https://coderdojokofu.connpass.com/event/158940/","shortener_url":null,"started_at":"2020-01-26T13:20:00.000+09:00","ended_at":"2020-01-26T14:40:00.000+09:00","limit_number":13,"address":"山梨県甲府市北口２丁目８番１号","place":"山梨県立図書館","lat":35.6685,"lon":138.57,"state":"active","id":null},{"event_id":"156822","title":"※中止※電子デバイスGlobal Game Jam 2020","url":"https://sohlab.connpass.com/event/156822/","shortener_url":"https://bit.ly/351rXOl","started_at":"2020-01-31T19:00:00.000+09:00","ended_at":"2020-02-02T20:00:00.000+09:00","limit_number":null,"address":"東京都千代田区 神田東松下町45番地（神田金子ビル 2階）","place":"アスラテック株式会社","lat":35.6944,"lon":139.773,"state":"active","id":null},{"event_id":"1393536","title":"1/26（日）千住の古民家でまんまる手毬づくり","url":"http://temari200126.peatix.com","shortener_url":null,"started_at":"2020-01-26T14:00:00.000+09:00","ended_at":"2020-01-29T08:59:59.000+09:00","limit_number":null,"address":"足立区千住東2丁目5−14","place":"千寿てまり工房","lat":35.7463,"lon":139.807,"state":"active","id":null},{"event_id":"1394588","title":"【I・TOP横浜ラボ】住宅・住生活×IoTアイデアソン","url":"http://itopyokohama-lab19-01.peatix.com","shortener_url":"https://bit.ly/2LOq5ki","started_at":"2020-01-09T03:30:00.000+09:00","ended_at":"2020-01-11T08:59:59.000+09:00","limit_number":null,"address":"横浜市中区尾上町1−6","place":"YOXO BOX","lat":35.4447,"lon":139.639,"state":"active","id":null},{"event_id":"1394106","title":"「母親アップデートカイギ」  ～いっしょに「議論」しませんか～","url":"http://peatix.com/event/1394106","shortener_url":null,"started_at":"2020-01-16T19:30:00.000+09:00","ended_at":"2020-01-19T08:59:59.000+09:00","limit_number":null,"address":"東京都渋谷区渋谷二丁目24番12号","place":"渋谷スクランブルスクエア15F 「SHIBUYA QWS」内　PLAY GROUND ","lat":0.0,"lon":0.0,"state":"active","id":null},{"event_id":"1393926","title":"★満席★【犬用お料理教室】1月のテーマは、「ワンちゃんにも大敵　冬の『冷え』と『乾燥』対策」  旬の食材を使って体の中から温め、水分補給もばっちりの「スープご飯」を作りましょう。毎月第3火曜日は「わんちゃんデー」 大切な愛犬のためにできること、楽しく学んでみませんか？","url":"http://peatix.com/event/1393926","shortener_url":null,"started_at":"2020-01-21T10:00:00.000+09:00","ended_at":"2020-01-24T08:59:59.000+09:00","limit_number":null,"address":"杉並区西荻北3丁目21−5","place":"コワーキングカフェKOKOPLUS","lat":35.7048,"lon":139.6,"state":"active","id":null},{"event_id":"1393678","title":"「アジア展開で成功をつかむ実践ノウハウ」     ～知財を活かしたビジネスアイデアソン～","url":"http://ipshc-event1.peatix.com","shortener_url":"https://bit.ly/35kQqym","started_at":"2020-01-07T04:00:00.000+09:00","ended_at":"2020-01-09T08:59:59.000+09:00","limit_number":null,"address":"東京都千代田区丸の内2-1-1","place":"【Startup Hub Tokyo】明治安田生命ビル TOKYO創業ステーション１F","lat":35.6788,"lon":139.762,"state":"active","id":null},{"event_id":"159457","title":"MIT開発ガッシュク！#1","url":"https://mit.connpass.com/event/159457/","shortener_url":null,"started_at":"2020-01-04T15:00:00.000+09:00","ended_at":"2020-01-05T11:00:00.000+09:00","limit_number":7,"address":"京都府京都市下京区四条通高倉西入 立売西町68-2","place":"センチュリオン キャビン＆スパ京都四条","lat":35.0034,"lon":135.762,"state":"active","id":null},{"event_id":"153367","title":"第6回　BIM Brasto","url":"https://bim-brasto.connpass.com/event/153367/","shortener_url":"https://bit.ly/2S3aNw3","started_at":"2020-01-25T12:30:00.000+09:00","ended_at":"2020-01-25T18:00:00.000+09:00","limit_number":40,"address":"東京都港区新橋四丁目1番1号　新虎通りCORE","place":"クリーク\u0026リバー社","lat":35.6653,"lon":139.754,"state":"active","id":null},{"event_id":"159673","title":"第2回　MCPCナノコン応用ハッカソン","url":"https://connpass.com/event/159673/","shortener_url":"https://bit.ly/2M7FtZ9","started_at":"2020-01-23T09:45:00.000+09:00","ended_at":"2020-02-20T18:00:00.000+09:00","limit_number":15,"address":"","place":"東京大学 工学部 ３ 号館 １ 階 電気系 セミナー 室 3 （本郷キャンパス内","lat":null,"lon":null,"state":"active","id":null},{"event_id":"159834","title":"ハッカソン・ミートアップ （画像処理領域）","url":"https://openroominc.connpass.com/event/159834/","shortener_url":"https://bit.ly/2sH9vMp","started_at":"2020-01-10T17:45:00.000+09:00","ended_at":"2020-01-10T20:30:00.000+09:00","limit_number":15,"address":"東京都大田区中馬込１丁目３−6","place":"サテコラ＠リコー大森本社","lat":35.5979,"lon":139.706,"state":"active","id":null},{"event_id":"1395296","title":"第11回「14時間で作る新規事業企画」ブロックチェーンビジネスハッカソン","url":"http://blockchainbusinesshackathon202001.peatix.com","shortener_url":"https://bit.ly/2sCTK9z","started_at":"2020-01-17T19:00:00.000+09:00","ended_at":"2020-01-20T08:59:59.000+09:00","limit_number":null,"address":"中央区1丁目8−19 キラリトギンザ 11階","place":"BINARYSTAR 株式会社","lat":35.6744,"lon":139.769,"state":"active","id":null},{"event_id":"1395135","title":"「え！？コミュニケーションって設計できるん？ もちろんできますよスペシャル」","url":"http://peatix.com/event/1395135","shortener_url":null,"started_at":"2020-01-21T19:00:00.000+09:00","ended_at":"2020-01-24T08:59:59.000+09:00","limit_number":null,"address":"大阪市北区鶴野町1−5","place":"関西大学 梅田キャンパス KANDAI Me RISE","lat":34.7063,"lon":135.501,"state":"active","id":null},{"event_id":"1396192","title":"【無料】#shiawase2020 無料ワークショップ出展の企画会議の実践ワークショプ #楽描きワイワイ  （定例：毎月第２日曜日）","url":"http://rkgkyy-20200112.peatix.com","shortener_url":null,"started_at":"2020-01-12T18:30:00.000+09:00","ended_at":"2020-01-15T08:59:59.000+09:00","limit_number":null,"address":"千代田区紀尾井町1−2 17F","place":"LODGE","lat":35.6797,"lon":139.737,"state":"active","id":null},{"event_id":"101868","title":"［無料］宇宙HACK!のスペースラボラトリ「衛星データ利活用ワークショップ」","url":"https://swosaka.doorkeeper.jp/events/101868","shortener_url":null,"started_at":"2020-01-18T10:00:00.000+09:00","ended_at":"2020-01-18T13:00:00.000+09:00","limit_number":30,"address":"大阪府大阪市北区大深町3-1 グランフロント大阪 北館内","place":"グランフロント大阪・北館 ナレッジキャピタルThe Lab.内 ACTIVE Studio","lat":34.7059,"lon":135.494,"state":"active","id":null},{"event_id":"101932","title":"コミュニティの育て方","url":"https://swtokyo.doorkeeper.jp/events/101932","shortener_url":null,"started_at":"2020-01-15T19:00:00.000+09:00","ended_at":"2020-01-15T21:00:00.000+09:00","limit_number":10,"address":"東京都港区南青山6-10-11","place":"Wesley Center #201","lat":35.6597,"lon":139.716,"state":"active","id":null},{"event_id":"102122","title":"［増枠・申込期限延長］［無料］Startup Weekend Osaka Spaceプレイベント＠Panasonic WonderLAB Osaka","url":"https://swosaka.doorkeeper.jp/events/102122","shortener_url":"https://bit.ly/2FGB9wi","started_at":"2020-01-26T10:00:00.000+09:00","ended_at":"2020-01-26T16:30:00.000+09:00","limit_number":45,"address":"大阪府門真市大字門真1006","place":"Panasonic WonderLAB Osaka","lat":34.7416,"lon":135.571,"state":"active","id":null},{"event_id":"101934","title":"クラウドファンディングの始め方","url":"https://swtokyo.doorkeeper.jp/events/101934","shortener_url":null,"started_at":"2020-01-22T19:00:00.000+09:00","ended_at":"2020-01-22T21:00:00.000+09:00","limit_number":10,"address":"東京都港区南青山6-10-11","place":"Wesley Center #201","lat":35.6597,"lon":139.716,"state":"active","id":null},{"event_id":"102257","title":"ハンズオンで学ぶ！リキッドレイアウトとCSS Grid","url":"https://079b6c31b6971a2978c6fd92bd.doorkeeper.jp/events/102257","shortener_url":"https://bit.ly/2QPo5vf","started_at":"2020-01-25T13:00:00.000+09:00","ended_at":"2020-01-25T20:30:00.000+09:00","limit_number":10,"address":"東京都世田谷区駒沢5丁目26−7 コマザワパークサイドテラスノース3F","place":"株式会社ALCHEMY","lat":35.6271,"lon":139.656,"state":"active","id":null},{"event_id":"102576","title":"★2カ月で実装力を磨く！TensorFlowとKeras勉強会#2","url":"https://soleildatadojo.doorkeeper.jp/events/102576","shortener_url":null,"started_at":"2020-01-23T19:30:00.000+09:00","ended_at":"2020-01-23T21:30:00.000+09:00","limit_number":5,"address":"大阪府大阪市北区西天満二丁目5番3号(堂島深川ビル3階)","place":"SCRIBBLE OSAKA LAB（SOL）（大阪メトロ御堂筋線「淀屋橋」駅から徒歩４分）","lat":34.6951,"lon":135.502,"state":"active","id":null},{"event_id":"102589","title":"『Python, Machine Learning \u0026 Raspberry PI』もくもく会#39","url":"https://soleildatadojo.doorkeeper.jp/events/102589","shortener_url":null,"started_at":"2020-01-21T19:30:00.000+09:00","ended_at":"2020-01-21T21:30:00.000+09:00","limit_number":8,"address":"大阪府大阪市北区西天満二丁目5番3号(堂島深川ビル3階)","place":"SCRIBBLE OSAKA LAB（SOL）（大阪メトロ御堂筋線「淀屋橋」駅から徒歩４分）","lat":34.6951,"lon":135.502,"state":"active","id":null},{"event_id":"101936","title":"動くチームの作り方","url":"https://swtokyo.doorkeeper.jp/events/101936","shortener_url":null,"started_at":"2020-01-29T19:00:00.000+09:00","ended_at":"2020-01-29T21:00:00.000+09:00","limit_number":10,"address":"東京都港区南青山6-10-11","place":"Wesley Center #201","lat":35.6597,"lon":139.716,"state":"active","id":null},{"event_id":"1406080","title":"はっとり♡かんなの似顔絵やさんin大阪(梅田HEP FIVE)","url":"http://hattori-kanna-nigaoe-hepfive.peatix.com","shortener_url":null,"started_at":"2020-01-30T14:00:00.000+09:00","ended_at":"2020-02-02T08:59:59.000+09:00","limit_number":null,"address":"大阪市北区角田町5−15","place":"HEP FIVE","lat":34.7041,"lon":135.5,"state":"active","id":null},{"event_id":"158290","title":"Firebase Startup #3 - Hackathon","url":"https://firebase-community.connpass.com/event/158290/","shortener_url":"https://bit.ly/2MtAYIu","started_at":"2020-01-19T10:00:00.000+09:00","ended_at":"2020-01-19T18:00:00.000+09:00","limit_number":80,"address":"","place":"todo","lat":35.6452,"lon":139.749,"state":"active","id":null},{"event_id":"160411","title":"Global Game Jam 2020 瀬戸内会場in香川","url":"https://okauni.connpass.com/event/160411/","shortener_url":"https://bit.ly/2NlDZex","started_at":"2020-01-31T17:00:00.000+09:00","ended_at":"2020-02-02T20:00:00.000+09:00","limit_number":21,"address":"香川県丸亀市柞原町５９６","place":"善照寺","lat":34.2735,"lon":133.804,"state":"active","id":null},{"event_id":"162589","title":"Kamakura Mok Mok Hack 67 - 鎌倉もくもく会","url":"https://kamkura-mokmok.connpass.com/event/162589/","shortener_url":null,"started_at":"2020-01-25T14:00:00.000+09:00","ended_at":"2020-01-25T17:00:00.000+09:00","limit_number":5,"address":"神奈川県 鎌倉市由比ガ浜1丁目12-8","place":"HOUSE YUIGAHAMA","lat":35.3143,"lon":139.545,"state":"active","id":null},{"event_id":"160426","title":"Kamakura Mok Mok Hack 66 - 鎌倉もくもく会","url":"https://kamkura-mokmok.connpass.com/event/160426/","shortener_url":null,"started_at":"2020-01-11T11:00:00.000+09:00","ended_at":"2020-01-11T13:30:00.000+09:00","limit_number":7,"address":"神奈川県 鎌倉市由比ガ浜1丁目12-8","place":"HOUSE YUIGAHAMA","lat":35.3143,"lon":139.545,"state":"active","id":null},{"event_id":"162583","title":"子どものためのプログラミングクラブ コーダー道場韮崎 #10","url":"https://coderdojo-nirasaki.connpass.com/event/162583/","shortener_url":null,"started_at":"2020-01-26T13:30:00.000+09:00","ended_at":"2020-01-26T15:40:00.000+09:00","limit_number":13,"address":"山梨県韮崎市若宮一丁目2番50号","place":"韮崎市民交流センター","lat":35.7117,"lon":138.45,"state":"active","id":null},{"event_id":"162582","title":"子どものためのプログラミングクラブ コーダー道場北杜 #9","url":"https://coderdojo-hokuto.connpass.com/event/162582/","shortener_url":null,"started_at":"2020-01-26T09:30:00.000+09:00","ended_at":"2020-01-26T11:40:00.000+09:00","limit_number":8,"address":"山梨県北杜市高根町村山北割３２８８","place":"北杜市高根町農村環境改善センター","lat":35.8375,"lon":138.412,"state":"active","id":null},{"event_id":"161591","title":"なんでもモクモク会＋プチ講座＠よこはま#16","url":"https://moku-moku-yokohama.connpass.com/event/161591/","shortener_url":null,"started_at":"2020-01-11T10:00:00.000+09:00","ended_at":"2020-01-11T18:00:00.000+09:00","limit_number":8,"address":"横浜市西区みなとみらい 3-7-1","place":"OCEAN GATE MINATO MIRAI@WeWork","lat":35.4581,"lon":139.634,"state":"active","id":null},{"event_id":"162388","title":"【東京】UX JAM × Design Matters","url":"https://uxmilk.connpass.com/event/162388/","shortener_url":null,"started_at":"2020-01-28T19:30:00.000+09:00","ended_at":"2020-01-28T22:00:00.000+09:00","limit_number":140,"address":"〒150-0002 東京都渋谷区渋谷1丁目23−21 (SPACE)","place":"Shibuya Cast","lat":35.6629,"lon":139.703,"state":"active","id":null},{"event_id":"159920","title":"【増枠】テストの宿泊型ワークショップWACATE2019冬参加報告【WACATE非参加でも聴講OK】","url":"https://d-cube.connpass.com/event/159920/","shortener_url":null,"started_at":"2020-01-23T19:00:00.000+09:00","ended_at":"2020-01-23T22:00:00.000+09:00","limit_number":80,"address":"東京都渋谷区渋谷2-15-1 渋谷クロスタワー 12F","place":"株式会社ビズリーチ","lat":35.6588,"lon":139.705,"state":"active","id":null},{"event_id":"160764","title":"【2020年ハッカソン初め！】 ProtoOut \u0026 ヒーローズリーグハッカソン","url":"https://protoout.connpass.com/event/160764/","shortener_url":null,"started_at":"2020-01-11T10:00:00.000+09:00","ended_at":"2020-01-11T19:00:00.000+09:00","limit_number":33,"address":"東京都千代田区神田小川町3-28-9 (三東ビル1F)","place":"TAM COWORKING TOKYO","lat":35.6955,"lon":139.763,"state":"active","id":null},{"event_id":"1389556","title":"VTuberハッカソン全国ツアー2019【プレミアム大会】","url":"http://vtuberhack2019premium.peatix.com","shortener_url":"https://bit.ly/2t90kVG","started_at":"2020-01-18T13:00:00.000+09:00","ended_at":"2020-01-21T08:59:59.000+09:00","limit_number":null,"address":"品川区上大崎2丁目13−30 8階 oak meguro","place":"株式会社アカツキ","lat":35.6345,"lon":139.718,"state":"active","id":null},{"event_id":"160060","title":"【大阪】UX JAM in OSAKA 03","url":"https://uxmilk.connpass.com/event/160060/","shortener_url":null,"started_at":"2020-01-16T19:15:00.000+09:00","ended_at":"2020-01-16T21:35:00.000+09:00","limit_number":80,"address":"ヤフー株式会社 大阪グランフロントオフィス","place":"大阪府大阪市北区大深町4-20 グランフロント大阪 タワーA 37階","lat":34.7039,"lon":135.495,"state":"active","id":null},{"event_id":"1395866","title":"Global Game Jam 2020 ビサイド 立川会場","url":"http://bxggj2020.peatix.com","shortener_url":"https://bit.ly/2sjCyG4","started_at":"2020-01-31T18:00:00.000+09:00","ended_at":"2020-02-03T08:59:59.000+09:00","limit_number":null,"address":"東京都立川市曙町2ー4ー3 TISビル2F","place":"株式会社ビサイド","lat":35.6992,"lon":139.412,"state":"active","id":null},{"event_id":"159541","title":"【増枠】Mix Leap Joint #33 - UX JAM in OSAKA 03","url":"https://yahoo-osaka.connpass.com/event/159541/","shortener_url":null,"started_at":"2020-01-16T19:15:00.000+09:00","ended_at":"2020-01-16T21:35:00.000+09:00","limit_number":75,"address":"〒530-0011 大阪市北区大深町4-20 (グランフロント大阪タワーA 37F)","place":"ヤフー株式会社 グランフロントオフィス","lat":34.7043,"lon":135.495,"state":"active","id":null},{"event_id":"162192","title":"株式会社ニトリのITアイデアソン「#N_HACK （エヌハック）」","url":"https://connpass.com/event/162192/","shortener_url":"https://bit.ly/30cfXbf","started_at":"2020-01-22T19:00:00.000+09:00","ended_at":"2020-01-22T22:00:00.000+09:00","limit_number":13,"address":"〒150-0033東京都渋谷区猿楽町10-1","place":"株式会社サイバード","lat":35.6504,"lon":139.703,"state":"active","id":null},{"event_id":"161868","title":"第655回Medical Data Hackathon(Kaggleメディカルデータ分析ハッカソン)","url":"https://teamai.connpass.com/event/161868/","shortener_url":"https://bit.ly/37Xhx37","started_at":"2020-01-25T16:00:00.000+09:00","ended_at":"2020-01-25T18:00:00.000+09:00","limit_number":22,"address":"","place":"Online","lat":35.6618,"lon":139.696,"state":"active","id":null},{"event_id":"161863","title":"第652回 Kaggle NLP Data Hackathon(自然言語データ分析ハッカソン)","url":"https://teamai.connpass.com/event/161863/","shortener_url":"https://bit.ly/2sgVN38","started_at":"2020-01-18T16:00:00.000+09:00","ended_at":"2020-01-18T18:00:00.000+09:00","limit_number":22,"address":"","place":"Online","lat":35.6618,"lon":139.696,"state":"active","id":null},{"event_id":"160331","title":"UDC三重2019年度-1月　第４回　ブラッシュアップ合宿","url":"https://udcmie.connpass.com/event/160331/","shortener_url":null,"started_at":"2020-01-25T13:00:00.000+09:00","ended_at":"2020-01-26T12:30:00.000+09:00","limit_number":10,"address":"〒517-0002 三重県鳥羽市答志町４１５","place":"美さき","lat":34.5276,"lon":136.903,"state":"active","id":null},{"event_id":"161281","title":"第22回 PCNひろしま こどもプログラミング教室","url":"https://pcn-hiroshima.connpass.com/event/161281/","shortener_url":null,"started_at":"2020-01-26T10:30:00.000+09:00","ended_at":"2020-01-26T12:30:00.000+09:00","limit_number":25,"address":"オンライン","place":"オンライン","lat":34.3941,"lon":132.459,"state":"active","id":null},{"event_id":"161034","title":"第60回 GGJ2020事前勉強会＋ゆるもく勉強会 in 岡山(KLab岡山事業所）","url":"https://okauni.connpass.com/event/161034/","shortener_url":null,"started_at":"2020-01-11T13:10:00.000+09:00","ended_at":"2020-01-11T18:00:00.000+09:00","limit_number":25,"address":"岡山県岡山市北区錦町5-10","place":"KLab岡山事業所","lat":34.6634,"lon":133.921,"state":"active","id":null},{"event_id":"1404363","title":"日立動画合宿事前勉強会！新米動画クリエーター募集！","url":"http://stand200115htitachi.peatix.com","shortener_url":"https://bit.ly/2taawgM","started_at":"2020-01-15T19:00:00.000+09:00","ended_at":"2020-01-18T08:59:59.000+09:00","limit_number":null,"address":"千代田区内神田1丁目15−10 番号 the C 地下 1 階","place":"C-Lounge","lat":35.6923,"lon":139.766,"state":"active","id":null},{"event_id":"151408","title":"第29回　CoderDojo横浜","url":"https://coderdojo-yokohama.connpass.com/event/151408/","shortener_url":null,"started_at":"2020-01-11T14:00:00.000+09:00","ended_at":"2020-01-11T16:00:00.000+09:00","limit_number":null,"address":"神奈川県横浜市神奈川区鶴屋町2-24-2","place":"かながわ県民センター","lat":35.4684,"lon":139.621,"state":"active","id":null},{"event_id":"1396182","title":"2夜連続 沖昌之「必死すぎるネコ」写真展 トークライブ／サンキュータツオ×沖昌之、Jam（パフェねこ）×沖昌之","url":"http://peatix.com/event/1396182","shortener_url":null,"started_at":"2020-01-29T19:30:00.000+09:00","ended_at":"2020-02-01T08:59:59.000+09:00","limit_number":null,"address":"中央区京橋3−6−6 エクスアートビル1F","place":"72gallery","lat":35.6753,"lon":139.77,"state":"active","id":null},{"event_id":"1395196","title":"エイゴえほんのじかん 小石川","url":"http://202001cekoishikawa.peatix.com","shortener_url":null,"started_at":"2020-01-18T10:30:00.000+09:00","ended_at":"2020-01-21T08:59:59.000+09:00","limit_number":null,"address":"文京区小石川3丁目26−10","place":"小石川モノガタリ","lat":35.713,"lon":139.749,"state":"active","id":null},{"event_id":"1395200","title":"エイゴえほんのじかん 市ヶ谷柳町","url":"http://202001ceichigayayanagicho2.peatix.com","shortener_url":null,"started_at":"2020-01-25T10:30:00.000+09:00","ended_at":"2020-01-28T08:59:59.000+09:00","limit_number":null,"address":"新宿区市谷柳町7","place":"みちくさくらす","lat":35.6995,"lon":139.727,"state":"active","id":null},{"event_id":"1395323","title":"”食”でわかるフィンランドのサスティナビリティ～フィンランド人の”幸福感”ってなんだろう～","url":"http://finland-sustainability-food.peatix.com","shortener_url":null,"started_at":"2020-01-17T19:00:00.000+09:00","ended_at":"2020-01-20T08:59:59.000+09:00","limit_number":null,"address":"東京都港区南青山","place":"東京メトロ「外苑前」駅徒歩1分のオフィスビル","lat":0.0,"lon":0.0,"state":"active","id":null},{"event_id":"1401972","title":"【子連れ可】香害ガイダンス：さいきん、香りがちょっときつくないですか？","url":"http://peatix.com/event/1401972","shortener_url":null,"started_at":"2020-01-25T13:00:00.000+09:00","ended_at":"2020-01-28T08:59:59.000+09:00","limit_number":null,"address":"東京都杉並区阿佐谷南3丁目2−19","place":"杉並区立 産業商工会館","lat":35.7018,"lon":139.635,"state":"active","id":null},{"event_id":"1400940","title":"初心者歓迎ボードゲーム会 in 囲碁ファースト飯田橋！【プロ棋士さんと遊びませんか？】","url":"http://bodocco201.peatix.com","shortener_url":null,"started_at":"2020-01-19T13:00:00.000+09:00","ended_at":"2020-01-22T08:59:59.000+09:00","limit_number":null,"address":"新宿区下宮比町1−1 相沢ビル 3F","place":"囲碁ファースト飯田橋","lat":35.703,"lon":139.744,"state":"active","id":null},{"event_id":"1405940","title":"デジタルセラピューティクス（DTx）新規参入セミナー　～あなたの技術で治療アプリを開発しませんか～","url":"http://dtxbiblio.peatix.com","shortener_url":null,"started_at":"2020-01-28T14:00:00.000+09:00","ended_at":"2020-01-31T08:59:59.000+09:00","limit_number":null,"address":"神奈川県横浜市西区みなとみらい3-7-1","place":"WeWorkオーシャンゲートみなとみらい","lat":35.458,"lon":139.634,"state":"active","id":null},{"event_id":"1404240","title":"T.Y.HARBOR BREWERY 　1/15(水)のみの開催となります。16.17.18日の開催はございません。#35","url":"http://peatix.com/event/1404240","shortener_url":null,"started_at":"2020-01-15T19:00:00.000+09:00","ended_at":"2020-01-18T08:59:59.000+09:00","limit_number":null,"address":"東京都品川区東品川2-1-3-1F","place":"T.Y. HARBOR BREWERY SHOP","lat":35.6226,"lon":139.747,"state":"active","id":null},{"event_id":"1406570","title":"山居是文のANDONラジオ　合同会社コトラボ代表岡部さんに聞く『まちづくり』を仕事にする 〜お金と楽しさのバランスをどう保つんだろう？〜","url":"http://peatix.com/event/1406570","shortener_url":null,"started_at":"2020-01-23T19:30:00.000+09:00","ended_at":"2020-01-26T08:59:59.000+09:00","limit_number":null,"address":"中央区日本橋本町3丁目11−10","place":"おむすびスタンドANDON","lat":35.6889,"lon":139.777,"state":"active","id":null},{"event_id":"1400844","title":"H3 第29回：「グロースハック入門」＠日本橋","url":"http://hhh29.peatix.com","shortener_url":"https://bit.ly/2uFbDFz","started_at":"2020-01-16T19:00:00.000+09:00","ended_at":"2020-01-19T08:59:59.000+09:00","limit_number":null,"address":"東京都中央区日本橋本町2-3-11","place":"日本橋ライフサイエンスビルディング 313号室","lat":35.6877,"lon":139.776,"state":"active","id":null},{"event_id":"1401551","title":"【Meet Curioscity】好きを仕事に！って最近聞くけれど、みんなどうやって見つけたの？～「天職」を見つけた彼女のお話聞いてみませんか～","url":"http://osaki0131.peatix.com","shortener_url":null,"started_at":"2020-01-31T19:30:00.000+09:00","ended_at":"2020-02-03T08:59:59.000+09:00","limit_number":null,"address":"品川区大崎2丁目10−1","place":"TSUTAYA 大崎駅前店","lat":35.6174,"lon":139.729,"state":"active","id":null},{"event_id":"1396637","title":"お正月新春企画、DMT動画お年玉バーゲン ~今までにない!!原因不明な下肢の症状を治せるようになる動画〜その下肢痛の原因は”神経“かもしれません〜","url":"https://peatix.com/event/1396637","shortener_url":null,"started_at":"2020-01-06T00:00:00.000+09:00","ended_at":"2020-01-08T08:59:59.000+09:00","limit_number":null,"address":"東京都港区南麻布4-5-48　フォーサイト南麻布４F","place":"一般社団法人 日本オランダ徒手療法協会事務局","lat":35.6493,"lon":139.725,"state":"active","id":null},{"event_id":"1399215","title":"【名古屋2020年1月開催】03：ユーザーのニーズとリテラシーを基準に考える〜UIデザイン","url":"http://peatix.com/event/1399215","shortener_url":null,"started_at":"2020-01-18T13:30:00.000+09:00","ended_at":"2020-01-21T08:59:59.000+09:00","limit_number":null,"address":"愛知県名古屋市中村区名駅3-22-4 名駅前みどりビル7階","place":"オフィスパーク名駅カンファレンスセンター","lat":35.1723,"lon":136.888,"state":"active","id":null},{"event_id":"1399220","title":"【名古屋2020年1月開催】04：直感的で快適なWEB環境を作る｢スマホ用UIデザイン｣","url":"http://peatix.com/event/1399220","shortener_url":null,"started_at":"2020-01-18T13:30:00.000+09:00","ended_at":"2020-01-21T08:59:59.000+09:00","limit_number":null,"address":"愛知県名古屋市中村区名駅3-22-4 名駅前みどりビル7階","place":"オフィスパーク名駅カンファレンスセンター","lat":35.1723,"lon":136.888,"state":"active","id":null},{"event_id":"1399225","title":"【名古屋2020年1月開催・個別】02：UIデザインの常識を改める「認知学から学ぶUIの基本」","url":"http://peatix.com/event/1399225","shortener_url":null,"started_at":"2020-01-18T09:15:00.000+09:00","ended_at":"2020-01-21T08:59:59.000+09:00","limit_number":null,"address":"愛知県名古屋市中村区名駅3-22-4 名駅前みどりビル7階","place":"オフィスパーク名駅カンファレンスセンター","lat":35.1723,"lon":136.888,"state":"active","id":null},{"event_id":"1399213","title":"【東京1月開催】03：ユーザーのニーズとリテラシーを基準に考える〜UIデザイン","url":"http://peatix.com/event/1399213","shortener_url":null,"started_at":"2020-01-26T17:30:00.000+09:00","ended_at":"2020-01-29T08:59:59.000+09:00","limit_number":null,"address":"千代田区内神田3丁目24−5","place":"エッサム神田ホール２号館","lat":35.6924,"lon":139.769,"state":"active","id":null},{"event_id":"1405314","title":"【東京1月開催】良い悪いが比べてわかる！ユーザー視点のUIデザイン①「ユーザー視点のナビゲーションデザイン編」","url":"http://peatix.com/event/1405314","shortener_url":null,"started_at":"2020-01-26T10:00:00.000+09:00","ended_at":"2020-01-29T08:59:59.000+09:00","limit_number":null,"address":"千代田区神田鍛冶町3丁目2−2","place":"エッサム神田ホール1号館","lat":35.6924,"lon":139.769,"state":"active","id":null},{"event_id":"1399375","title":"残席１【東京体験版1月】初心者歓迎！他では絶対教えてくれない！楽しく学ぶユーザー視点のUIデザイン","url":"http://peatix.com/event/1399375","shortener_url":null,"started_at":"2020-01-24T19:00:00.000+09:00","ended_at":"2020-01-27T08:59:59.000+09:00","limit_number":null,"address":"千代田区神田鍛冶町3丁目2−2","place":"エッサム神田ホール1号館","lat":35.6935,"lon":139.771,"state":"active","id":null},{"event_id":"1399218","title":"【東京1月開催】04：直感的で快適なWEB環境を作る｢スマホ用UIデザイン｣","url":"http://peatix.com/event/1399218","shortener_url":null,"started_at":"2020-01-26T13:00:00.000+09:00","ended_at":"2020-01-29T08:59:59.000+09:00","limit_number":null,"address":"千代田区内神田3丁目24−5","place":"エッサム神田ホール２号館","lat":35.6924,"lon":139.769,"state":"active","id":null},{"event_id":"1409266","title":"2020年春学期 4月4日開講！社会起業大学 学校説明会　社会起業の初めの一歩で必要なことを学びませんか？","url":"http://peatix.com/event/1409266","shortener_url":null,"started_at":"2020-01-20T19:00:00.000+09:00","ended_at":"2020-01-23T08:59:59.000+09:00","limit_number":null,"address":"東京都千代田区二番町2番平田ビル1階","place":"社会起業大学","lat":35.687,"lon":139.738,"state":"active","id":null},{"event_id":"1409303","title":"2020年春学期 4月4日開講！社会起業大学 学校説明会　社会起業の初めの一歩で必要なことを学びませんか？","url":"http://peatix.com/event/1409303","shortener_url":null,"started_at":"2020-01-27T19:00:00.000+09:00","ended_at":"2020-01-30T08:59:59.000+09:00","limit_number":null,"address":"東京都千代田区二番町2番平田ビル1階","place":"社会起業大学","lat":35.687,"lon":139.738,"state":"active","id":null},{"event_id":"1409337","title":"2020年春学期 4月4日開講！社会起業大学 学校説明会　社会起業の初めの一歩で必要なことを学びませんか？","url":"http://peatix.com/event/1409337","shortener_url":null,"started_at":"2020-01-27T20:00:00.000+09:00","ended_at":"2020-01-30T08:59:59.000+09:00","limit_number":null,"address":"東京都千代田区二番町2番平田ビル1階","place":"社会起業大学","lat":35.687,"lon":139.738,"state":"active","id":null},{"event_id":"1409327","title":"2020年春学期 4月4日開講！社会起業大学 学校説明会　社会起業の初めの一歩で必要なことを学びませんか？","url":"http://peatix.com/event/1409327","shortener_url":null,"started_at":"2020-01-20T20:00:00.000+09:00","ended_at":"2020-01-23T08:59:59.000+09:00","limit_number":null,"address":"東京都千代田区二番町2番平田ビル1階","place":"社会起業大学","lat":35.687,"lon":139.738,"state":"active","id":null},{"event_id":"102079","title":"WikipediaTown下田","url":"https://codeforfujinokuni.doorkeeper.jp/events/102079","shortener_url":null,"started_at":"2020-01-18T09:30:00.000+09:00","ended_at":"2020-01-18T12:00:00.000+09:00","limit_number":null,"address":"静岡県下田市四丁目6番16号","place":"下田市立中央公民館２階大会議室","lat":34.6737,"lon":138.941,"state":"active","id":null},{"event_id":"163149","title":"2020 世界に挑戦する全ての人へ / シリコンバレー開催テックカンファレンス参加報告会","url":"https://facebookdevelopercircle.connpass.com/event/163149/","shortener_url":"https://bit.ly/2TzplEe","started_at":"2020-01-31T18:30:00.000+09:00","ended_at":"2020-01-31T21:00:00.000+09:00","limit_number":null,"address":"東京都中央区銀座1-8−19 キラリトギンザ11F","place":"Binarystar","lat":35.6743,"lon":139.769,"state":"active","id":null},{"event_id":"1411393","title":"【この遺伝子セミナーを見る前に他の遺伝子検査を受けることは考えてはいけません！】遺伝子は語る！生活習慣に関連する遺伝子＆腸内フローラ検査からわかる将来の健康リスクと対処法とは？","url":"http://peatix.com/event/1411393","shortener_url":null,"started_at":"2020-01-31T19:00:00.000+09:00","ended_at":"2020-02-03T08:59:59.000+09:00","limit_number":null,"address":"世田谷区 粕谷4丁目19−6-2F","place":"トータルヘルスケアハーブ","lat":35.6646,"lon":139.603,"state":"active","id":null},{"event_id":"102937","title":"Startup Weekend Niigata mini Vol.1 in 十日町【先着10名限定】3日間の食事＋懇親会＋泊まりで3,000円!!","url":"https://swniigata.doorkeeper.jp/events/102937","shortener_url":null,"started_at":"2020-01-31T20:00:00.000+09:00","ended_at":"2020-02-02T22:00:00.000+09:00","limit_number":10,"address":"新潟県十日町市未甲263番地","place":"ギルドハウス十日町","lat":37.1262,"lon":138.809,"state":"active","id":null},{"event_id":"1401100","title":"【宮崎】駄菓子のあるオフィスでのびのびと仕事をしませんか？","url":"http://peatix.com/event/1401100","shortener_url":null,"started_at":"2020-01-20T19:30:00.000+09:00","ended_at":"2020-01-23T08:59:59.000+09:00","limit_number":null,"address":"宮崎県宮崎市橘通西5-1-24 矢野興業第二ビル6F","place":"みんなのマーケット株式会社","lat":0.0,"lon":0.0,"state":"active","id":null},{"event_id":"163581","title":"【電子デバイスGGJ直前！】Unity＋M5StickC連携ハンズオン！","url":"https://yuru-unity-e.connpass.com/event/163581/","shortener_url":null,"started_at":"2020-01-26T13:00:00.000+09:00","ended_at":"2020-01-26T17:00:00.000+09:00","limit_number":22,"address":"東京都台東区浅草橋１丁目１２−４(東履東峰会館 1F)","place":"技研ベース","lat":35.6972,"lon":139.784,"state":"active","id":null},{"event_id":"163920","title":"【IT業界に興味がある方向け】MESHでIoTプログラマ体験#1","url":"https://techseed.connpass.com/event/163920/","shortener_url":null,"started_at":"2020-01-28T12:00:00.000+09:00","ended_at":"2020-01-28T17:00:00.000+09:00","limit_number":10,"address":"千代田区神田富山町5-1 神田ビジネスキューブ 7F","place":"神田Room(会議室５)","lat":35.6939,"lon":139.773,"state":"active","id":null},{"event_id":"163925","title":"スクラム道関西 オープン・ジャム","url":"https://scrumdo-kansai.connpass.com/event/163925/","shortener_url":null,"started_at":"2020-01-27T19:30:00.000+09:00","ended_at":"2020-01-27T21:30:00.000+09:00","limit_number":30,"address":"大阪府大阪市北区鶴野町1-9(梅田ゲートタワー7階)","place":"株式会社ラクス","lat":34.7068,"lon":135.501,"state":"active","id":null},{"event_id":"163907","title":"なんでもモクモク会＋プチ講座＠よこはま#17","url":"https://moku-moku-yokohama.connpass.com/event/163907/","shortener_url":null,"started_at":"2020-01-25T10:00:00.000+09:00","ended_at":"2020-01-25T18:00:00.000+09:00","limit_number":9,"address":"横浜市西区みなとみらい 3-7-1","place":"OCEAN GATE MINATO MIRAI@WeWork","lat":35.4581,"lon":139.634,"state":"active","id":null},{"event_id":"1410430","title":"JAXA最新鋭の試験設備を御社で活用してみませんか =JAXA環境試験設備の多業種活用・新市場開拓の可能性=","url":"http://peatix.com/event/1410430","shortener_url":null,"started_at":"2020-01-30T18:30:00.000+09:00","ended_at":"2020-02-02T08:59:59.000+09:00","limit_number":null,"address":"つくば市吾妻2丁目5番地1","place":"つくば産業振興センター（つくばスタートアップパーク）","lat":36.085,"lon":140.109,"state":"active","id":null},{"event_id":"1411717","title":"【首都圏在住者向け】「通いやすい地域」で活動しませんか？ ( いちはら“福業”スクール 説明会⑤ )","url":"http://peatix.com/event/1411717","shortener_url":null,"started_at":"2020-01-27T18:00:00.000+09:00","ended_at":"2020-01-30T08:59:59.000+09:00","limit_number":null,"address":"千代田区丸の内1丁目9","place":"東京駅周辺（決まり次第ご連絡いたします）","lat":35.681,"lon":139.766,"state":"active","id":null},{"event_id":"1411351","title":"【Bar Minma】お酒を嗜みながらコンサルタントのお話聞いてみませんか？","url":"http://peatix.com/event/1411351","shortener_url":null,"started_at":"2020-01-29T19:00:00.000+09:00","ended_at":"2020-02-01T08:59:59.000+09:00","limit_number":null,"address":"品川区西五反田4丁目31−18 目黒テクノビル 3F","place":"みんなのマーケット株式会社","lat":35.6266,"lon":139.714,"state":"active","id":null},{"event_id":"111734","title":"le cosplay prévaudra également dans le monde entier","url":"https://atnd.org/events/111734","shortener_url":null,"started_at":"2020-01-15T00:30:00.000+09:00","ended_at":"2020-02-20T01:00:00.000+09:00","limit_number":null,"address":"","place":"","lat":null,"lon":null,"state":"closed","id":null},{"event_id":"1292999092574928896","title":"Janatahack: Independence Day 2020 ML Hackathon","url":"https://datahack.analyticsvidhya.com/contest/janatahack-independence-day-2020-ml-hackathon/","shortener_url":null,"started_at":"2020-01-01T20:59:00.000+09:00","ended_at":"2020-01-02T21:00:00.000+09:00","limit_number":null,"address":null,"place":"online","lat":null,"lon":null,"state":"active","id":null},{"event_id":"1294314637861752839","title":"sahat/hackathon-starter","url":"https://github.com/sahat/hackathon-starter","shortener_url":null,"started_at":"2020-01-03T12:02:00.000+09:00","ended_at":"2020-07-12T07:03:00.000+09:00","limit_number":null,"address":null,"place":"online","lat":null,"lon":null,"state":"active","id":null},{"event_id":"1295604725996347392","title":"The Babylon Project: A Blockchain Focused Hackathon and Commitment to Diversity \u0026 Inclusion","url":"https://www.benzinga.com/pressreleases/20/08/a17131668/the-babylon-project-a-blockchain-focused-hackathon-and-commitment-to-diversity-inclusion","shortener_url":null,"started_at":"2020-01-02T21:11:00.000+09:00","ended_at":"2020-01-02T23:59:59.000+09:00","limit_number":null,"address":null,"place":"online","lat":null,"lon":null,"state":"active","id":null},{"event_id":"1298861624275668992","title":"Janatahack: Healthcare Analytics II","url":"https://datahack.analyticsvidhya.com/contest/janatahack-healthcare-analytics-ii/","shortener_url":null,"started_at":"2020-01-01T20:59:00.000+09:00","ended_at":"2020-01-01T23:59:59.000+09:00","limit_number":null,"address":null,"place":"online","lat":null,"lon":null,"state":"active","id":null},{"event_id":"1301368692345769984","title":"Microsoft Azure Champions League-Hack 1 on HackerEarth","url":"https://www.hackerearth.com/challenges/hackathon/microsoft-azure-champions-league-hack-1/","shortener_url":null,"started_at":"2020-01-01T10:25:00.000+09:00","ended_at":"2020-01-01T20:55:00.000+09:00","limit_number":null,"address":null,"place":"online","lat":null,"lon":null,"state":"active","id":null},{"event_id":"1301240308534050818","title":"Hackathon da Nasa 2020: inscrições estão abertas para Salvador","url":"http://www.aldeianago.com.br/noticia-do-comportamento/24512-hackathon-da-nasa-2020-inscricoes-estao-abertas-para-salvador","shortener_url":"https://bit.ly/3bnhzEt","started_at":"2020-01-09T03:31:00.000+09:00","ended_at":"2020-09-04T03:31:00.000+09:00","limit_number":null,"address":null,"place":"online","lat":null,"lon":null,"state":"active","id":null},{"event_id":"1301210816025427969","title":"Silly Hacks","url":"https://sillyhacks.online/","shortener_url":"https://bit.ly/3bkKQj4","started_at":"2020-01-02T13:30:00.000+09:00","ended_at":"2020-09-11T21:30:00.000+09:00","limit_number":null,"address":null,"place":"online","lat":null,"lon":null,"state":"active","id":null},{"event_id":"1306289967774212096","title":"URI Creative Hacking and Designing","url":"https://web.uri.edu/hackathon/","shortener_url":null,"started_at":"2020-01-16T18:17:00.000+09:00","ended_at":"2020-01-17T06:00:00.000+09:00","limit_number":null,"address":null,"place":"online","lat":null,"lon":null,"state":"active","id":null},{"event_id":"1305486526453886977","title":"HR Hackathon online 202011 edition: Content Sessions Kick off - YouTube","url":"https://www.youtube.com/watch","shortener_url":null,"started_at":"2020-01-01T18:00:00.000+09:00","ended_at":"2020-09-14T18:00:00.000+09:00","limit_number":null,"address":null,"place":"online","lat":null,"lon":null,"state":"active","id":null},{"event_id":"1307310306780016642","title":"FOSS Hack 2020: Results","url":"https://forum.fossunited.org/t/foss-hack-2020-results/424","shortener_url":null,"started_at":"2020-01-06T07:25:00.000+09:00","ended_at":"2020-09-20T10:27:00.000+09:00","limit_number":null,"address":null,"place":"online","lat":null,"lon":null,"state":"active","id":null},{"event_id":"1307250189690904584","title":"Friendica Hackathon 2020","url":"https://forum.friendi.ca/display/f3ad7b1c-185f-2cef-3063-155776817736","shortener_url":null,"started_at":"2020-01-02T18:00:00.000+09:00","ended_at":"2020-09-20T13:21:00.000+09:00","limit_number":null,"address":null,"place":"online","lat":null,"lon":null,"state":"active","id":null},{"event_id":"1307899895198756864","title":"Federal Government of Nigeria (FGN) ETHLagos Virtual Hackathon 2020","url":"http://bestnigeriajobs.blogspot.com/2020/09/federal-government-of-nigeria-fgn.html","shortener_url":null,"started_at":"2020-01-01T10:00:00.000+09:00","ended_at":"2020-09-21T13:36:00.000+09:00","limit_number":null,"address":null,"place":"online","lat":null,"lon":null,"state":"active","id":null},{"event_id":"1309131992366288896","title":"HackAtom India: Build The Cosmos on HackerEarth","url":"https://www.hackerearth.com/challenges/hackathon/hackatom-india/","shortener_url":null,"started_at":"2020-01-01T10:25:00.000+09:00","ended_at":"2020-01-01T20:55:00.000+09:00","limit_number":null,"address":null,"place":"online","lat":null,"lon":null,"state":"active","id":null},{"event_id":"1310824950261932032","title":"土善旅館[弓道合宿・開発合宿・原稿合宿等の団体合宿・ワーケーション等] ≪GoTo対象宿≫","url":"http://www.dozenryokan.com/","shortener_url":null,"started_at":"2020-01-01T17:00:00.000+09:00","ended_at":"2020-09-28T07:00:00.000+09:00","limit_number":null,"address":"千葉県香取郡東庄町笹川い624","place":"千葉県香取郡東庄町笹川い624","lat":35.845,"lon":140.662,"state":"active","id":null},{"event_id":"1312421077830819841","title":"heise online","url":"https://www.heise.de/forum/heise-online/Kommentare/WirVsVirus-Bundesregierung-plant-naechsten-Hackathon/Was-sind-in-diesem-Kontext-bitte-schoen-1-5-Millionen-an-Foerdergelder/posting-37536511/show/","shortener_url":"https://bit.ly/2GB668S","started_at":"2020-01-04T13:18:00.000+09:00","ended_at":"2020-10-05T07:00:00.000+09:00","limit_number":null,"address":null,"place":"online","lat":null,"lon":null,"state":"active","id":null},{"event_id":"1314876165736345601","title":"Download the latest indie games","url":"https://ITCH.IO/","shortener_url":null,"started_at":"2020-01-08T01:19:00.000+09:00","ended_at":"2020-09-22T04:01:00.000+09:00","limit_number":null,"address":null,"place":"online","lat":null,"lon":null,"state":"active","id":null},{"event_id":"1320862988799250433","title":"MuleSoft Hackathon | MuleSoft","url":"https://www.mulesoft.com/hackathon2020","shortener_url":null,"started_at":"2020-01-02T03:00:00.000+09:00","ended_at":"2020-01-02T05:59:00.000+09:00","limit_number":null,"address":null,"place":"online","lat":null,"lon":null,"state":"active","id":null},{"event_id":"1319941249017806848","title":"Download the latest indie games","url":"https://Itch.io/","shortener_url":"https://bit.ly/3lUzebF","started_at":"2020-01-07T22:00:00.000+09:00","ended_at":"2020-11-01T13:01:00.000+09:00","limit_number":null,"address":null,"place":"online","lat":null,"lon":null,"state":"active","id":null},{"event_id":"1325176360080453633","title":"BetFury Bounty Campaign - DropsEarn","url":"https://dropsearn.com/events/betfury-bounty-campaign/","shortener_url":"https://bit.ly/36gq0PN","started_at":"2020-01-03T06:00:00.000+09:00","ended_at":"2021-01-03T06:00:00.000+09:00","limit_number":null,"address":null,"place":"online","lat":null,"lon":null,"state":"active","id":null},{"event_id":"1325089297528139776","title":"NIC Pakistan to host hackathon on agriculture","url":"https://pkdailyclick.blogspot.com/2020/11/nic-pakistan-to-host-hackathon-on.html","shortener_url":null,"started_at":"2020-01-01T23:00:00.000+09:00","ended_at":"2020-11-08T13:53:00.000+09:00","limit_number":null,"address":null,"place":"online","lat":null,"lon":null,"state":"active","id":null},{"event_id":"1324658930862182400","title":"O festiwalu – GovTech Festival","url":"https://www.govtechfestival.com/","shortener_url":null,"started_at":"2020-01-01T18:00:00.000+09:00","ended_at":"2020-01-02T08:59:59.000+09:00","limit_number":null,"address":null,"place":"online","lat":null,"lon":null,"state":"active","id":null},{"event_id":"1324534995357065218","title":"中高生アプリ開発コンテスト「アプリ甲子園2020」、優勝者決定！ | Techable(テッカブル)","url":"https://techable.jp/archives/141326","shortener_url":"https://bit.ly/3n4PpTi","started_at":"2020-01-01T18:00:00.000+09:00","ended_at":"2020-11-11T18:00:00.000+09:00","limit_number":null,"address":null,"place":"online","lat":null,"lon":null,"state":"active","id":null},{"event_id":"1324028672295247872","title":"Germanistisches Institut","url":"https://germanistik.blogs.ruhr-uni-bochum.de/mitmachen-beim-hackathon-am-12-13-november/","shortener_url":null,"started_at":"2020-01-02T05:08:00.000+09:00","ended_at":"2020-01-09T12:23:00.000+09:00","limit_number":null,"address":null,"place":"online","lat":null,"lon":null,"state":"active","id":null},{"event_id":"1323659502491586568","title":"Nasce ‘Alfathon’, il primo hackathon full digital di Alfasigma","url":"https://www.saluteh24.com/il_weblog_di_antonio/2020/11/nasce-alfathon-il-primo-hackathon-full-digital-di-alfasigma.html","shortener_url":"https://bit.ly/35aIQIE","started_at":"2020-01-02T11:13:00.000+09:00","ended_at":"2020-11-26T11:13:00.000+09:00","limit_number":null,"address":null,"place":"online","lat":null,"lon":null,"state":"active","id":null},{"event_id":"1323660180681154560","title":"MYHackathon 2020 - Digitalising Government Services","url":"https://myhackathon.com.my/","shortener_url":null,"started_at":"2020-01-01T18:00:00.000+09:00","ended_at":"2020-01-02T08:59:59.000+09:00","limit_number":null,"address":null,"place":"online","lat":null,"lon":null,"state":"active","id":null},{"event_id":"1322576639801270273","title":"中高生のアプリ開発コンテスト「アプリ甲子園2020」、11月1日にYouTube配信 | Techable(テッカブル)","url":"https://techable.jp/archives/140845","shortener_url":"https://bit.ly/3p9bG4s","started_at":"2020-01-01T18:00:00.000+09:00","ended_at":"2020-11-11T18:00:00.000+09:00","limit_number":null,"address":null,"place":"online","lat":null,"lon":null,"state":"active","id":null},{"event_id":"1325974364366516235","title":"Eastern Africa Youth Online Blockchain Challenge Onboard","url":"https://gitcoin.co/hackathon/unodc/onboard","shortener_url":null,"started_at":"2020-01-01T09:00:00.000+09:00","ended_at":"2020-01-01T23:59:59.000+09:00","limit_number":null,"address":null,"place":"online","lat":null,"lon":null,"state":"active","id":null},{"event_id":"1325913605364195329","title":"SoFlo Hackathon | CSTA Miami","url":"https://miami.csteachers.org/page/soflo-hackathon","shortener_url":null,"started_at":"2020-01-07T01:40:00.000+09:00","ended_at":"2020-01-07T23:59:59.000+09:00","limit_number":null,"address":null,"place":"online","lat":null,"lon":null,"state":"active","id":null},{"event_id":"1324066405168406531","title":"Hacking Decentralized Commerce Onboard","url":"https://gitcoin.co/hackathon/conflux-hack/onboard","shortener_url":null,"started_at":"2020-01-01T09:00:00.000+09:00","ended_at":"2020-01-01T23:59:59.000+09:00","limit_number":null,"address":null,"place":"online","lat":null,"lon":null,"state":"active","id":null},{"event_id":"1325815558755979265","title":"Hacking Decentralized Commerce","url":"https://gitcoin.co/hackathon/conflux-hack/","shortener_url":null,"started_at":"2020-01-01T09:00:00.000+09:00","ended_at":"2020-01-01T23:59:59.000+09:00","limit_number":null,"address":null,"place":"online","lat":null,"lon":null,"state":"active","id":null},{"event_id":"1325796794647932930","title":"Sögur Bug Bounty \u0026 Hackathon","url":"https://gitcoin.co/hackathon/sogur/","shortener_url":null,"started_at":"2020-01-01T09:00:00.000+09:00","ended_at":"2020-01-01T23:59:59.000+09:00","limit_number":null,"address":null,"place":"online","lat":null,"lon":null,"state":"active","id":null},{"event_id":"1325753751492128772","title":"I-BiDaaS - Telefonica Research Online Hackathon | i-BiDaaS","url":"https://www.ibidaas.eu/blog/Telefonica-Research-Online-Hackathon/","shortener_url":null,"started_at":"2020-01-01T09:00:00.000+09:00","ended_at":"2020-09-07T09:00:00.000+09:00","limit_number":null,"address":null,"place":"online","lat":null,"lon":null,"state":"active","id":null},{"event_id":"1325690893043605506","title":"Salud Noticias: Hackathon Salud 21 de noviembre","url":"https://www.robinspost.com/news/noticias/salud/1239855-salud-noticias-hackathon-salud-21-de-noviembre.html","shortener_url":null,"started_at":"2020-01-01T09:00:00.000+09:00","ended_at":"2020-11-10T02:41:00.000+09:00","limit_number":null,"address":null,"place":"online","lat":null,"lon":null,"state":"active","id":null},{"event_id":"1326344105417351169","title":"Majalah ICT   – PT Synnex Metrodata Indonesia dan Intel Kembali Selenggarakan Kompetisi OpenVINO Hackathon 2020","url":"https://www.majalahict.com/pt-synnex-metrodata-indonesia-dan-intel-kembali-selenggarakan-kompetisi-openvino-hackathon-2020/","shortener_url":null,"started_at":"2020-01-01T21:44:00.000+09:00","ended_at":"2020-01-01T23:59:59.000+09:00","limit_number":null,"address":null,"place":"online","lat":null,"lon":null,"state":"active","id":null},{"event_id":"1326209585846378497","title":"Media Release - 2020 Virtual AgriTech Hackathon draws global attendance","url":"https://lincoln.ca/news/2020/11/media-release-2020-virtual-agritech-hackathon-draws-global-attendance","shortener_url":null,"started_at":"2020-01-01T09:00:00.000+09:00","ended_at":"2020-11-10T09:00:00.000+09:00","limit_number":null,"address":null,"place":"online","lat":null,"lon":null,"state":"active","id":null},{"event_id":"1326174020459323393","title":"Detail","url":"https://www.uni-potsdam.de/de/medieninformationen/detail/2020-11-10-henriette-herz-hackathons-universitaet-potsdam-erhaelt-preis-fuer-innovatives-rekrutieru","shortener_url":null,"started_at":"2020-01-01T09:00:00.000+09:00","ended_at":"2020-11-10T09:00:00.000+09:00","limit_number":null,"address":null,"place":"online","lat":null,"lon":null,"state":"active","id":null},{"event_id":"1326117841049935874","title":"Rockwell Automation anuncia los ganadores del hackathon virtual 24toCode con Cisco | | Automatización Industrial, Robótica e Industria 4.0","url":"https://soloindustria.com/rockwell-automation-anuncia-los-ganadores-del-hackathon-virtual-24tocode-con-cisco/","shortener_url":null,"started_at":"2020-01-01T09:00:00.000+09:00","ended_at":"2020-01-01T23:59:59.000+09:00","limit_number":null,"address":null,"place":"online","lat":null,"lon":null,"state":"active","id":null},{"event_id":"1326040818172350467","title":"Majalah ICT   – PT Synnex Metrodata Indonesia dan Intel Kembali Selenggarakan Kompetisi OpenVINO Hackathon 2020","url":"http://www.majalahict.com/pt-synnex-metrodata-indonesia-dan-intel-kembali-selenggarakan-kompetisi-openvino-hackathon-2020/","shortener_url":null,"started_at":"2020-01-01T21:44:00.000+09:00","ended_at":"2020-01-01T23:59:59.000+09:00","limit_number":null,"address":null,"place":"online","lat":null,"lon":null,"state":"active","id":null},{"event_id":"1325844413071777793","title":"Windows 10, iOS14 Ubuntu, Hacked in China’s Biggest Hackathon","url":"https://www.tellforceblog.com/2020/11/windows-10-ios14-ubuntu-hacked-in-chinas-biggest-hackathon.html","shortener_url":null,"started_at":"2020-01-01T09:00:00.000+09:00","ended_at":"2020-01-01T23:59:59.000+09:00","limit_number":null,"address":null,"place":"online","lat":null,"lon":null,"state":"active","id":null},{"event_id":"1326626284407943170","title":"Hack The Horizon Onboard","url":"https://gitcoin.co/hackathon/hack-the-horizon/onboard","shortener_url":null,"started_at":"2020-01-01T09:00:00.000+09:00","ended_at":"2020-01-01T23:59:59.000+09:00","limit_number":null,"address":null,"place":"online","lat":null,"lon":null,"state":"active","id":null},{"event_id":"1326535785512906752","title":"Chasing The Ghost: Network Security Hackathon","url":"https://gitcoin.co/hackathon/etc-security","shortener_url":null,"started_at":"2020-01-01T09:00:00.000+09:00","ended_at":"2020-01-01T23:59:59.000+09:00","limit_number":null,"address":null,"place":"online","lat":null,"lon":null,"state":"active","id":null},{"event_id":"1328231925933215745","title":"HackMakers – Virtual hackathon specialists","url":"https://hackmakers.com/","shortener_url":null,"started_at":"2020-01-02T13:00:00.000+09:00","ended_at":"2020-10-05T17:59:00.000+09:00","limit_number":null,"address":null,"place":"online","lat":null,"lon":null,"state":"active","id":null},{"event_id":"1327320739784093696","title":"The Skydb Debut Onboard","url":"https://gitcoin.co/hackathon/skydb/onboard","shortener_url":null,"started_at":"2020-01-01T18:00:00.000+09:00","ended_at":"2020-01-02T08:59:59.000+09:00","limit_number":null,"address":null,"place":"online","lat":null,"lon":null,"state":"active","id":null},{"event_id":"1327223640493068291","title":"Hackathon Chiesi","url":"https://hackathon.chiesi.com.br","shortener_url":null,"started_at":"2020-01-10T13:00:00.000+09:00","ended_at":"2020-01-11T08:59:59.000+09:00","limit_number":null,"address":null,"place":"online","lat":null,"lon":null,"state":"active","id":null},{"event_id":"1327189849477181442","title":"r/technology - Join Us for 2020's Virtual Aaron Swartz Day Hackathon","url":"https://www.reddit.com/r/technology/comments/jt12kj/join_us_for_2020s_virtual_aaron_swartz_day/","shortener_url":null,"started_at":"2020-01-01T18:00:00.000+09:00","ended_at":"2020-01-02T08:59:59.000+09:00","limit_number":null,"address":null,"place":"online","lat":null,"lon":null,"state":"active","id":null},{"event_id":"1326884122581676032","title":"Foro Indie Dev en Español - Página principal","url":"https://foroindiedev.org/","shortener_url":null,"started_at":"2020-01-02T18:00:00.000+09:00","ended_at":"2020-11-14T13:58:00.000+09:00","limit_number":null,"address":null,"place":"online","lat":null,"lon":null,"state":"active","id":null},{"event_id":"1329486785836040193","title":"Latest News, Analytical News, India News ~ News Aur Chai","url":"https://newsaurchai.com/","shortener_url":null,"started_at":"2020-01-01T09:00:00.000+09:00","ended_at":"2020-11-09T09:00:00.000+09:00","limit_number":null,"address":null,"place":"online","lat":null,"lon":null,"state":"active","id":null},{"event_id":"1328734849511813120","title":"Hack-ED v1.0 on HackerEarth","url":"https://www.hackerearth.com/challenges/hackathon/hack-ed-v10/","shortener_url":null,"started_at":"2020-01-01T15:00:00.000+09:00","ended_at":"2020-01-01T20:30:00.000+09:00","limit_number":null,"address":null,"place":"online","lat":null,"lon":null,"state":"active","id":null},{"event_id":"1328674199590887431","title":"Arweave Open Web Fellowship Onboard","url":"https://gitcoin.co/hackathon/arweave-owf/onboard","shortener_url":null,"started_at":"2020-01-01T09:00:00.000+09:00","ended_at":"2020-01-01T23:59:59.000+09:00","limit_number":null,"address":null,"place":"online","lat":null,"lon":null,"state":"active","id":null},{"event_id":"1329922697363664899","title":"Baseline Protocol 2020 Hackathon Onboard","url":"https://gitcoin.co/hackathon/baseline/onboard","shortener_url":null,"started_at":"2020-01-01T09:00:00.000+09:00","ended_at":"2020-01-01T23:59:59.000+09:00","limit_number":null,"address":null,"place":"online","lat":null,"lon":null,"state":"active","id":null},{"event_id":"1329897165792178176","title":"FPGA Hackathon \u0026 Conference | 20-22/11/2020 | Join us!","url":"https://fpgahackathon.com/","shortener_url":null,"started_at":"2020-01-01T17:45:00.000+09:00","ended_at":"2020-01-02T01:15:00.000+09:00","limit_number":null,"address":null,"place":"online","lat":null,"lon":null,"state":"active","id":null},{"event_id":"1330499901239791616","title":"“Civic Hackathon 2020” - \"AgaKhan\" Nuzzel Newsletter by Shoukat Dharani on Sun, Nov 22 2020","url":"https://nuzzel.com/Pakitter/agakhan/2020/11/22","shortener_url":null,"started_at":"2020-01-01T13:06:00.000+09:00","ended_at":"2020-11-23T13:37:00.000+09:00","limit_number":null,"address":null,"place":"online","lat":null,"lon":null,"state":"active","id":null},{"event_id":"1331513936991186945","title":"SUP Free hackathon | Μονάδα Καινοτομίας Επιχειρηματικότητας","url":"https://epixeireite.duth.gr/","shortener_url":"https://bit.ly/2JdvB1s","started_at":"2020-01-06T09:00:00.000+09:00","ended_at":"2020-12-11T08:28:00.000+09:00","limit_number":null,"address":null,"place":"online","lat":null,"lon":null,"state":"active","id":null},{"event_id":"1332015314717061122","title":"EU: Africa The Post Crisis Journey | Home","url":"https://www.euafricathejourney.com/","shortener_url":null,"started_at":"2020-01-01T10:01:00.000+09:00","ended_at":"2020-01-01T23:59:59.000+09:00","limit_number":null,"address":null,"place":"online","lat":null,"lon":null,"state":"active","id":null},{"event_id":"1332913439300333569","title":"Sögur Bug Bounty \u0026 Hackathon Onboard","url":"https://gitcoin.co/hackathon/sogur/onboard","shortener_url":null,"started_at":"2020-01-01T09:00:00.000+09:00","ended_at":"2020-10-21T09:00:00.000+09:00","limit_number":null,"address":null,"place":"online","lat":null,"lon":null,"state":"active","id":null},{"event_id":"1333608918765998080","title":"The Process of Organizing a Hackathon in a Successful Manner","url":"https://www.the-next-tech.com/mobile-apps/the-process-of-organizing-a-hackathon-in-a-successful-manner/","shortener_url":null,"started_at":"2020-01-01T09:00:00.000+09:00","ended_at":"2020-08-15T18:01:00.000+09:00","limit_number":null,"address":null,"place":"online","lat":null,"lon":null,"state":"active","id":null},{"event_id":"1333513816198557708","title":"Grand Prix z Effie má hackathon #znamkamarada","url":"https://www.mediar.cz/grand-prix-z-effie-ma-hackathon-znamkamarada/","shortener_url":null,"started_at":"2020-01-01T09:00:00.000+09:00","ended_at":"2020-01-01T23:59:59.000+09:00","limit_number":null,"address":null,"place":"online","lat":null,"lon":null,"state":"active","id":null},{"event_id":"1333456550078373890","title":"Federale Politie – Hackathon","url":"https://police-hackathon.be/nl/","shortener_url":null,"started_at":"2020-01-01T09:00:00.000+09:00","ended_at":"2020-11-20T09:00:00.000+09:00","limit_number":null,"address":null,"place":"online","lat":null,"lon":null,"state":"active","id":null},{"event_id":"1333389967310118938","title":"EnPatín, un plan para mejorar las compras en el comercio local, primer premio del hackathon de Torrevieja","url":"https://alicanteplaza.es/enpatin-un-plan-para-mejorar-las-compras-en-el-comercio-local-primer-premio-del-hackathon-de-torrevieja","shortener_url":null,"started_at":"2020-01-01T09:00:00.000+09:00","ended_at":"2020-11-12T09:00:00.000+09:00","limit_number":null,"address":null,"place":"online","lat":null,"lon":null,"state":"active","id":null},{"event_id":"1333321134008365058","title":"Golem Network Hackathon Onboard","url":"https://gitcoin.co/hackathon/golem/onboard","shortener_url":null,"started_at":"2020-01-01T09:00:00.000+09:00","ended_at":"2020-11-24T09:00:00.000+09:00","limit_number":null,"address":null,"place":"online","lat":null,"lon":null,"state":"active","id":null},{"event_id":"1333335248306720768","title":"AI-enabled Education Hackathon, Big Data Society, Macquarie University, Australia","url":"https://data-science-group.github.io/BigDataSociety/Hackathon/2020-12/index.html","shortener_url":null,"started_at":"2020-01-02T18:00:00.000+09:00","ended_at":"2020-01-03T02:00:00.000+09:00","limit_number":null,"address":null,"place":"online","lat":null,"lon":null,"state":"active","id":null},{"event_id":"1333991075384487937","title":"Majalah ICT   – IMPACT Hackathon: Game to the Rescue","url":"https://www.majalahict.com/impact-hackathon-game-to-the-rescue/","shortener_url":null,"started_at":"2020-01-01T18:38:00.000+09:00","ended_at":"2020-01-02T18:38:00.000+09:00","limit_number":null,"address":null,"place":"online","lat":null,"lon":null,"state":"active","id":null},{"event_id":"1333760260444712966","title":"El proyecto 'Book a Slot' se alza con el primer premio del Valenciaport Hackathon","url":"https://valenciaplaza.com/el-proyecto-book-a-slot-se-alza-con-el-primer-premio-del-valenciaport-hackathon","shortener_url":null,"started_at":"2020-01-01T09:00:00.000+09:00","ended_at":"2020-11-30T09:00:00.000+09:00","limit_number":null,"address":null,"place":"online","lat":null,"lon":null,"state":"active","id":null},{"event_id":"1333783835452948480","title":"Majalah ICT   – IMPACT Hackathon: Game to the Rescue","url":"http://www.majalahict.com/impact-hackathon-game-to-the-rescue/","shortener_url":null,"started_at":"2020-01-01T18:38:00.000+09:00","ended_at":"2020-01-02T18:38:00.000+09:00","limit_number":null,"address":null,"place":"online","lat":null,"lon":null,"state":"active","id":null},{"event_id":"1334358701692637186","title":"Grants Round 8 Hackathon Onboard","url":"https://gitcoin.co/hackathon/gr8/onboard","shortener_url":null,"started_at":"2020-01-02T09:00:00.000+09:00","ended_at":"2020-10-18T09:00:00.000+09:00","limit_number":null,"address":null,"place":"online","lat":null,"lon":null,"state":"active","id":null},{"event_id":"1334213246136569858","title":"Un geolocalizador de caballitos de mar, a la final de los premios Ocean Hackathon 2020","url":"https://murciaplaza.com/caballito-mar-premios-ocean-hackaton","shortener_url":"https://bit.ly/3lDqvsJ","started_at":"2020-01-01T09:00:00.000+09:00","ended_at":"2020-12-30T09:00:00.000+09:00","limit_number":null,"address":null,"place":"online","lat":null,"lon":null,"state":"active","id":null},{"event_id":"1334222440713641989","title":"Speciale Hackaton di Italia Longobardi - Maratona digitale longobarda","url":"https://www.italialongobardi.it/","shortener_url":null,"started_at":"2020-01-01T19:00:00.000+09:00","ended_at":"2020-01-03T06:00:00.000+09:00","limit_number":null,"address":null,"place":"online","lat":null,"lon":null,"state":"active","id":null},{"event_id":"1334675525814472704","title":"NucleoTide Hackathon","url":"http://nucleotidehack.com/","shortener_url":null,"started_at":"2020-01-02T11:25:00.000+09:00","ended_at":"2020-01-02T21:00:00.000+09:00","limit_number":null,"address":null,"place":"online","lat":null,"lon":null,"state":"active","id":null},{"event_id":"1334456093481832449","title":"MicroStream - Next Generation Java Serialization and Java Native Persistence","url":"https://hackathon.microstream.one/index.html","shortener_url":"https://bit.ly/3lG7mqn","started_at":"2020-01-08T19:00:00.000+09:00","ended_at":"2021-01-10T06:00:00.000+09:00","limit_number":null,"address":null,"place":"online","lat":null,"lon":null,"state":"active","id":null},{"event_id":"1334841323535396866","title":"Ocean Hackathon® 2020 Final: Save the date!","url":"https://www.campusmer.fr/News-3537-242-0-0.html","shortener_url":null,"started_at":"2020-01-04T12:00:00.000+09:00","ended_at":"2020-01-05T14:00:00.000+09:00","limit_number":null,"address":null,"place":"online","lat":null,"lon":null,"state":"active","id":null},{"event_id":"1336036955197493249","title":"Federale Politie – Hackathon","url":"https://police-hackathon.be/en/","shortener_url":"https://bit.ly/2VSpzXi","started_at":"2020-01-01T09:00:00.000+09:00","ended_at":"2020-12-20T09:00:00.000+09:00","limit_number":null,"address":null,"place":"online","lat":null,"lon":null,"state":"active","id":null},{"event_id":"1335863006727692291","title":"Hack4RegTech – Kavlak Academy","url":"https://academy.kavlak.av.tr/hack4regtech/","shortener_url":"https://bit.ly/3mWpqho","started_at":"2020-01-01T19:00:00.000+09:00","ended_at":"2021-01-09T08:59:00.000+09:00","limit_number":null,"address":null,"place":"online","lat":null,"lon":null,"state":"active","id":null},{"event_id":"1336385058593251328","title":"UPEI students shine at Policy Hackathon 2020 | University of Prince Edward Island","url":"https://www.upei.ca/communications/spotlight/2020/11/upei-students-shine-at-policy-hackathon","shortener_url":null,"started_at":"2020-01-01T09:00:00.000+09:00","ended_at":"2020-01-02T09:00:00.000+09:00","limit_number":null,"address":null,"place":"online","lat":null,"lon":null,"state":"active","id":null},{"event_id":"1336835317114970112","title":"優勝は10歳が開発したAI活用“SDGs”教育アプリ、小学生プログラミングコンテスト - 2020年12月10日 IT関連Newsピックアップ","url":"https://saberlion.com/itnews/","shortener_url":"https://bit.ly/3gzxqSW","started_at":"2020-01-02T09:00:00.000+09:00","ended_at":"2020-12-20T09:00:00.000+09:00","limit_number":null,"address":null,"place":"online","lat":null,"lon":null,"state":"active","id":null},{"event_id":"1337380677520658434","title":"Innovación agtech: equipos resolvieron desafíos agronómicos en un hackatón online con US$ 3.000 en premios","url":"https://www.infocampo.com.ar/innovacion-agtech-equipos-resolvieron-desafios-agronomicos-en-un-hackaton-online-con-us-3-000-en-premios/","shortener_url":null,"started_at":"2020-01-01T09:00:00.000+09:00","ended_at":"2020-11-29T09:00:00.000+09:00","limit_number":null,"address":null,"place":"online","lat":null,"lon":null,"state":"active","id":null},{"event_id":"1338670769421729792","title":"令和2年度「パテントコンテスト・デザインパテントコンテスト」の特許庁長官賞を決定しました （METI/経済産業省）","url":"https://www.meti.go.jp/press/2020/12/20201214001/20201214001.html","shortener_url":"https://bit.ly/3mgb9el","started_at":"2020-01-02T09:00:00.000+09:00","ended_at":"2020-12-20T09:00:00.000+09:00","limit_number":null,"address":null,"place":"online","lat":null,"lon":null,"state":"active","id":null},{"event_id":"1338578416463982595","title":"Social Entrepreneurs Devise Solutions to Problems at Civic Hackathon 2020 – Daily News","url":"https://dailynewspk.com/social-entrepreneurs-devise-solutions-to-problems-at-civic-hackathon-2020/","shortener_url":null,"started_at":"2020-01-02T09:00:00.000+09:00","ended_at":"2020-12-14T09:00:00.000+09:00","limit_number":null,"address":null,"place":"online","lat":null,"lon":null,"state":"active","id":null},{"event_id":"1339117742935293952","title":"メーリングリスト詳細","url":"https://www.ai-gakkai.or.jp/jsaiml/index.cgi","shortener_url":"https://bit.ly/38hAeAj","started_at":"2020-01-09T01:58:00.000+09:00","ended_at":"2021-01-19T01:58:00.000+09:00","limit_number":null,"address":"東京都千代田区四番町5-3科学技術振興機構バイオサイエンスデータベースセンター建石由佳TEL03-6261-0311FAX03-5214-8470","place":"東京都千代田区四番町5-3科学技術振興機構バイオサイエンスデータベースセンター建石由佳TEL03-6261-0311FAX03-5214-8470","lat":35.6888,"lon":139.738,"state":"active","id":null},{"event_id":"1340108325514485760","title":"「COVID-19クラスター防止策アイデアソン」が開催されました｜地域｜ニュース｜熊本学園大学｜熊本で学ぶ、九州を創る。","url":"https://www.kumagaku.ac.jp/news/archives/2723","shortener_url":null,"started_at":"2020-01-01T09:00:00.000+09:00","ended_at":"2020-12-18T09:00:00.000+09:00","limit_number":null,"address":"熊本県や熊本市のサイトでも公開されています。今回のアイデアソンは、医療現場・市民・大学関係者がオンライン上で集い、新型コロナ感染症防止対策に有効なWebアプリケーションやサービスのニーズを共有することを目的に企画されたもので、本学学生・教職員を含む約30名が参加しました。","place":"熊本県や熊本市のサイトでも公開されています。今回のアイデアソンは、医療現場・市民・大学関係者がオンライン上で集い、新型コロナ感染症防止対策に有効なWebアプリケーションやサービスのニーズを共有することを目的に企画されたもので、本学学生・教職員を含む約30名が参加しました。\r","lat":32.8032,"lon":130.708,"state":"active","id":null},{"event_id":"1340845158917496832","title":"Majalah ICT   – Virtual Hackathon Indosat Ooredoo Hasilkan Masing-Masing Tiga Pemenang dari 3 Program","url":"https://www.majalahict.com/virtual-hackathon-indosat-ooredoo-hasilkan-masing-masing-tiga-pemenang-dari-3-program/","shortener_url":null,"started_at":"2020-01-02T10:14:00.000+09:00","ended_at":"2020-01-02T23:59:59.000+09:00","limit_number":null,"address":null,"place":"online","lat":null,"lon":null,"state":"active","id":null},{"event_id":"1340541881696960513","title":"Majalah ICT   – Virtual Hackathon Indosat Ooredoo Hasilkan Masing-Masing Tiga Pemenang dari 3 Program","url":"http://www.majalahict.com/virtual-hackathon-indosat-ooredoo-hasilkan-masing-masing-tiga-pemenang-dari-3-program/","shortener_url":null,"started_at":"2020-01-02T10:14:00.000+09:00","ended_at":"2020-01-02T23:59:59.000+09:00","limit_number":null,"address":null,"place":"online","lat":null,"lon":null,"state":"active","id":null},{"event_id":"1341604453305094144","title":"Team MoAAAtch crowned champion of inaugural Sarawak BugCrusher 2020 Junior Hackathon","url":"https://miricommunity.net/t/team-moaaatch-crowned-champion-of-inaugural-sarawak-bugcrusher-2020-junior-hackathon/147121","shortener_url":null,"started_at":"2020-01-02T13:22:00.000+09:00","ended_at":"2020-12-23T13:36:00.000+09:00","limit_number":null,"address":null,"place":"online","lat":null,"lon":null,"state":"active","id":null},{"event_id":"1341444576461111297","title":"Datastax Holiday Hackathon on HackerEarth","url":"https://datastaxastra.hackerearth.com/","shortener_url":"https://bit.ly/3rggRQW","started_at":"2020-01-02T10:55:00.000+09:00","ended_at":"2021-01-01T21:00:00.000+09:00","limit_number":null,"address":null,"place":"online","lat":null,"lon":null,"state":"active","id":null},{"event_id":"1341463399297810432","title":"Babylon Project issues Immutable Certificates to Hackathon Participants using Certificado","url":"http://www.jcnnewswire.com/pressrelease/63634/3","shortener_url":"https://bit.ly/2WDTDGj","started_at":"2020-01-01T12:14:00.000+09:00","ended_at":"2020-12-24T02:20:00.000+09:00","limit_number":null,"address":null,"place":"online","lat":null,"lon":null,"state":"active","id":null},{"event_id":"1341656967505457153","title":"Team MoAAAtch crowned champion of inaugural Sarawak BugCrusher 2020 Junior Hackathon","url":"https://mymonetizer2020.blogspot.com/2020/12/team-moaaatch-crowned-champion-of.html","shortener_url":null,"started_at":"2020-01-01T17:00:00.000+09:00","ended_at":"2020-12-24T06:24:00.000+09:00","limit_number":null,"address":null,"place":"online","lat":null,"lon":null,"state":"active","id":null},{"event_id":"1343418206820524032","title":"Majalah ICT   – Synnex Metrodata Indonesia \u0026 Intel Umumkan Pemenang Kompetisi OpenVINO Hackathon 2020 #ComputerVision","url":"https://www.majalahict.com/synnex-metrodata-indonesia-intel-umumkan-pemenang-kompetisi-openvino-hackathon-2020-computervision/","shortener_url":null,"started_at":"2020-01-02T20:01:00.000+09:00","ended_at":"2020-01-02T23:59:59.000+09:00","limit_number":null,"address":null,"place":"online","lat":null,"lon":null,"state":"active","id":null},{"event_id":"1345345445934067718","title":"Hackathon na kampaň na očkování bude v lednu","url":"https://www.mediar.cz/hackathon-na-kampan-na-ockovani-bude-v-lednu/","shortener_url":null,"started_at":"2020-01-02T09:00:00.000+09:00","ended_at":"2020-01-02T23:59:59.000+09:00","limit_number":null,"address":null,"place":"online","lat":null,"lon":null,"state":"active","id":null},{"event_id":"1346111286346723328","title":"Odio on line, via al Civic Hackathon: scuole si sfidano su progetti di comunicazione //  Umbria24.it","url":"http://www.umbria24.it/cultura/odio-on-line-via-al-civic-hackathon-scuole-si-sfidano-su-progetti-di-comunicazione","shortener_url":"https://bit.ly/3b7Xd40","started_at":"2020-01-02T09:00:00.000+09:00","ended_at":"2021-01-30T09:00:00.000+09:00","limit_number":null,"address":null,"place":"online","lat":null,"lon":null,"state":"active","id":null},{"event_id":"1347622325626273792","title":"5th Annual Hack@CEWIT: Innovating Through the Pandemic | CEWIT","url":"https://www.cewit.org/programs/events/hack.php","shortener_url":null,"started_at":"2020-01-09T09:00:00.000+09:00","ended_at":"2020-01-09T23:59:59.000+09:00","limit_number":null,"address":null,"place":"online","lat":null,"lon":null,"state":"active","id":null},{"event_id":"1349000325169098756","title":"Hackathon for inclusion: 4 scuole umbre vincitrici della maratona //  Umbria24.it","url":"http://www.umbria24.it/cultura/hackathon-for-inclusion-4-scuole-umbre-vincitrici-della-maratona","shortener_url":"https://bit.ly/35BIkTV","started_at":"2020-01-02T09:00:00.000+09:00","ended_at":"2021-01-30T09:00:00.000+09:00","limit_number":null,"address":null,"place":"online","lat":null,"lon":null,"state":"active","id":null},{"event_id":"1348874523370729472","title":"Africa Blockchain Institute (ABI) Campus Blockchain Hackathon 2021 (Fully-Funded to Rwanda) | Opportunities for Cameroonians | Bringing G...","url":"https://opportunitiesforcameroonians.com/africa-blockchain-institute-abi-campus-blockchain-hackathon-2021-fully-funded-to-rwanda/","shortener_url":null,"started_at":"2020-01-01T09:00:00.000+09:00","ended_at":"2020-01-03T04:11:00.000+09:00","limit_number":null,"address":null,"place":"online","lat":null,"lon":null,"state":"active","id":null},{"event_id":"1349665064803033088","title":"Realtime collaboration inside the Forge viewer: a hackathon project","url":"https://www.keanw.com/2021/01/realtime-collaboration-inside-the-forge-viewer-a-hackathon-project.html","shortener_url":null,"started_at":"2020-01-01T20:02:00.000+09:00","ended_at":"2020-01-02T20:02:00.000+09:00","limit_number":null,"address":null,"place":"online","lat":null,"lon":null,"state":"active","id":null},{"event_id":"1349674595436163081","title":"Evento online de innovación educativa a nivel nacional: Hackathon FP PRO | Cultura Emprendedora Málaga","url":"https://blogsaverroes.juntadeandalucia.es/culturaemprendedoramalaga/2021/01/14/evento-online-de-innovacion-educativa-a-nivel-nacional-hackathon-fp-pro/","shortener_url":null,"started_at":"2020-01-01T09:00:00.000+09:00","ended_at":"2021-01-14T09:00:00.000+09:00","limit_number":null,"address":null,"place":"online","lat":null,"lon":null,"state":"active","id":null},{"event_id":"1350356285913497601","title":"EduHack 2021","url":"https://eduhack2021.eu","shortener_url":null,"started_at":"2020-01-02T10:30:00.000+09:00","ended_at":"2021-01-15T04:00:00.000+09:00","limit_number":null,"address":null,"place":"online","lat":null,"lon":null,"state":"active","id":null},{"event_id":"1349943252120727559","title":"Goodbye Gutwhale (2020)","url":"http://symmetricaldatasecurity.blogspot.com/2021/01/goodbye-gutwhale-2020.html","shortener_url":null,"started_at":"2020-01-01T16:37:00.000+09:00","ended_at":"2021-01-15T04:37:00.000+09:00","limit_number":null,"address":null,"place":"online","lat":null,"lon":null,"state":"active","id":null},{"event_id":"1351588254617923584","title":"Global Game Jam Online","url":"https://globalgamejam.org","shortener_url":null,"started_at":"2020-01-02T09:00:00.000+09:00","ended_at":"2020-01-02T23:59:59.000+09:00","limit_number":null,"address":null,"place":"online","lat":null,"lon":null,"state":"active","id":null},{"event_id":"1352282372339769346","title":"GovTech Hackathon","url":"https://www.calendata.com/2021/01/govtech-hackathon.html","shortener_url":null,"started_at":"2020-01-01T09:00:00.000+09:00","ended_at":"2020-01-01T23:59:59.000+09:00","limit_number":null,"address":null,"place":"online","lat":null,"lon":null,"state":"active","id":null},{"event_id":"1351915938774351873","title":"Babylon Project issues immutable Certificate of Participation to all 2020 Hackathon participants – BlockChain News Today","url":"https://blockchainnewstoday.com/2021/01/20/babylon-project-issues-immutable-certificate-of-participation-to-all-2020-hackathon-participants/","shortener_url":null,"started_at":"2020-01-01T09:00:00.000+09:00","ended_at":"2021-01-20T09:00:00.000+09:00","limit_number":null,"address":null,"place":"online","lat":null,"lon":null,"state":"active","id":null},{"event_id":"1354408932035407874","title":"#ArtSocial21","url":"https://artsocial21.org/","shortener_url":"https://bit.ly/3a9E7s3","started_at":"2020-01-02T09:00:00.000+09:00","ended_at":"2021-01-30T09:00:00.000+09:00","limit_number":null,"address":null,"place":"online","lat":null,"lon":null,"state":"active","id":null},{"event_id":"1355231375293558784","title":"Remote DB Regio Data Hack 12.\u002613. März 2021 – GoBeta","url":"https://gobeta.de/veranstaltungen/remote-regio-hack-2021/","shortener_url":null,"started_at":"2020-01-01T09:00:00.000+09:00","ended_at":"2020-01-19T09:00:00.000+09:00","limit_number":null,"address":null,"place":"online","lat":null,"lon":null,"state":"active","id":null},{"event_id":"1355826490974359552","title":"#ArtSocial21","url":"https://artsocial21.org","shortener_url":null,"started_at":"2020-01-02T09:00:00.000+09:00","ended_at":"2021-01-30T09:00:00.000+09:00","limit_number":null,"address":null,"place":"online","lat":null,"lon":null,"state":"active","id":null},{"event_id":"1356535452048719872","title":"Ocean Hackathon®, 48 hours to decode the sea - Campus mondial de la mer","url":"https://www.campusmer.fr/Ocean-Hackathon_-3567-0-0-0.html","shortener_url":null,"started_at":"2020-01-05T09:00:00.000+09:00","ended_at":"2020-01-05T23:59:59.000+09:00","limit_number":null,"address":null,"place":"online","lat":null,"lon":null,"state":"active","id":null},{"event_id":"1356910354316591105","title":"Hacking the BL from home","url":"https://blogs.bl.uk/digital-scholarship/2021/01/hacking-the-bl-from-home.html","shortener_url":null,"started_at":"2020-01-01T18:55:00.000+09:00","ended_at":"2020-01-02T18:55:00.000+09:00","limit_number":null,"address":null,"place":"online","lat":null,"lon":null,"state":"active","id":null},{"event_id":"1356897446228422657","title":"MineCraft Hackathon - Tìm Kiếm Tài Năng Công Nghệ Nhí","url":"http://minecraft-hackathon.com","shortener_url":null,"started_at":"2020-01-01T09:00:00.000+09:00","ended_at":"2020-11-13T09:00:00.000+09:00","limit_number":null,"address":null,"place":"online","lat":null,"lon":null,"state":"active","id":null},{"event_id":"1357410855915298816","title":"GDG Sivas ve DSC Sivas “Online Hackathon” | BİLİM ŞENLİĞİ","url":"https://www.bilimsenligi.com/gdg-sivas-ve-dsc-sivas-online-hackathon.html/","shortener_url":null,"started_at":"2020-01-01T09:00:00.000+09:00","ended_at":"2020-01-01T23:59:59.000+09:00","limit_number":null,"address":null,"place":"online","lat":null,"lon":null,"state":"active","id":null},{"event_id":"1357284263767527425","title":"#hacksexism – Social Hackathon gegen Sexismus und sexualisierte Gewalt auf Festivals – Social Hackathon gegen Sexismus und sexualisierte ...","url":"https://hacksexism.de/","shortener_url":null,"started_at":"2020-01-02T09:00:00.000+09:00","ended_at":"2021-01-20T09:00:00.000+09:00","limit_number":null,"address":null,"place":"online","lat":null,"lon":null,"state":"active","id":null},{"event_id":"1357643681541419009","title":"株式会社WEIN","url":"https://wein.co.jp","shortener_url":null,"started_at":"2020-01-01T09:00:00.000+09:00","ended_at":"2020-11-16T09:00:00.000+09:00","limit_number":null,"address":null,"place":"online","lat":null,"lon":null,"state":"active","id":null},{"event_id":"1358029619409035264","title":"zoomアイデアソン 地方の未来を変えるアイデア共創イベント｜SDGs×地方創生 ローカルイノベンチャーズ","url":"https://peraichi.com/landing_pages/view/lisintro/","shortener_url":null,"started_at":"2020-01-02T05:00:00.000+09:00","ended_at":"2020-01-02T07:00:00.000+09:00","limit_number":null,"address":"大阪府大阪市鶴見区今津中5丁目8番17号","place":"大阪府大阪市鶴見区今津中5丁目8番17号","lat":34.6911,"lon":135.579,"state":"active","id":null},{"event_id":"1360203145016725506","title":"Tulevaisuus on droonien","url":"https://luottokumppani.blogspot.com/2021/02/tulevaisuus-on-droonien.html","shortener_url":null,"started_at":"2020-01-01T11:45:00.000+09:00","ended_at":"2021-02-12T17:00:00.000+09:00","limit_number":null,"address":null,"place":"online","lat":null,"lon":null,"state":"active","id":null},{"event_id":"1361734814467043333","title":"MicroStream - Next Generation Java Serialization and Java Native Persistence","url":"https://hackathon.microstream.one","shortener_url":null,"started_at":"2020-01-08T19:00:00.000+09:00","ended_at":"2021-01-10T06:00:00.000+09:00","limit_number":null,"address":null,"place":"online","lat":null,"lon":null,"state":"active","id":null},{"event_id":"1361721858182291459","title":"Dalhousie University","url":"https://www.dal.ca/news/today/2021/02/16/climate_change_hackathon_feb_26_28.html","shortener_url":"https://bit.ly/3ap7ZCg","started_at":"2020-01-01T10:00:00.000+09:00","ended_at":"2021-02-18T21:30:00.000+09:00","limit_number":null,"address":null,"place":"online","lat":null,"lon":null,"state":"active","id":null},{"event_id":"1362884437529288705","title":"HackLBS 2021 - HackLBS 2021","url":"https://hacklbs.org/","shortener_url":"https://bit.ly/3dwG2KS","started_at":"2020-01-02T11:10:00.000+09:00","ended_at":"2021-02-22T11:13:00.000+09:00","limit_number":null,"address":null,"place":"online","lat":null,"lon":null,"state":"active","id":null},{"event_id":"1365213391455883267","title":"Alumni Startup Wins India Australia Circular Economy Hackathon – The KGP Chronicle","url":"https://kgpchronicle.iitkgp.ac.in/alumni-startup-wins-india-australia-circular-economy-hackathon/","shortener_url":null,"started_at":"2020-01-01T09:00:00.000+09:00","ended_at":"2021-02-27T00:52:00.000+09:00","limit_number":null,"address":null,"place":"online","lat":null,"lon":null,"state":"active","id":null},{"event_id":"1366241624238419974","title":"fermataとは","url":"https://hellofermata.com/pages/about-fermata","shortener_url":null,"started_at":"2020-01-01T09:00:00.000+09:00","ended_at":"2021-02-17T09:00:00.000+09:00","limit_number":null,"address":"愛知県名古屋市生まれ。大学卒業後、株式会社デンソーに入社。オープンイノベーション推進の部署にて様々なスタートアップに出会うなか、特に日本においては「伝える」デザイン力が低く勿体なさを感じ、独学でデザインを学び始める。その後退職し、Mistletoe株式会社(現Mistletoe Japan合同会社)に参画。2018年に独立し、主にスタートアップを対象にデザイン制作およびディレクションを行う。","place":"愛知県名古屋市生まれ。大学卒業後、株式会社デンソーに入社。オープンイノベーション推進の部署にて様々なスタートアップに出会うなか、特に日本においては「伝える」デザイン力が低く勿体なさを感じ、独学でデザインを学び始める。その後退職し、Mistletoe株式会社(現Mistletoe Japan合同会社)に参画。2018年に独立し、主にスタートアップを対象にデザイン制作およびディレクションを行う。","lat":35.1814,"lon":136.907,"state":"active","id":null},{"event_id":"1366822909063348227","title":"Hackathon — Communauté de la Fabrique des Mobilites","url":"https://wiki.lafabriquedesmobilites.fr/wiki/Hackathon","shortener_url":null,"started_at":"2020-01-01T18:04:00.000+09:00","ended_at":"2021-03-03T04:06:00.000+09:00","limit_number":null,"address":null,"place":"online","lat":null,"lon":null,"state":"active","id":null},{"event_id":"1366816577803452418","title":"SME’s Interested in Access to Justice? Hackathon 19, 24 \u002631 March | Bristol Law Society","url":"https://www.bristollawsociety.com/smes-interested-in-access-to-justice-hackathon-19-24-31-march/","shortener_url":null,"started_at":"2020-01-02T09:00:00.000+09:00","ended_at":"2020-02-01T09:00:00.000+09:00","limit_number":null,"address":null,"place":"online","lat":null,"lon":null,"state":"active","id":null},{"event_id":"1366641913042923522","title":"地域の魅力発信ARアプリ「ええR」に、日本遺産・日根荘が登場！ | Techable(テッカブル)","url":"https://techable.jp/archives/149432","shortener_url":"https://bit.ly/3qakwOB","started_at":"2020-01-02T09:00:00.000+09:00","ended_at":"2021-03-13T09:00:00.000+09:00","limit_number":null,"address":"大阪府泉佐野市からの委託を受けて、日本遺産・日根荘の魅力を楽しめるARアプリを企画・開発。","place":"大阪府泉佐野市からの委託を受けて、日本遺産・日根荘の魅力を楽しめるARアプリを企画・開発。\r","lat":34.3582,"lon":135.368,"state":"active","id":null},{"event_id":"1367543770733043719","title":"News | Information Systems  | Walton College | University of Arkansas","url":"https://walton.uark.edu/departments/information-systems/news.php","shortener_url":null,"started_at":"2020-01-02T20:30:00.000+09:00","ended_at":"2021-01-26T20:30:00.000+09:00","limit_number":null,"address":null,"place":"online","lat":null,"lon":null,"state":"active","id":null},{"event_id":"1367464351616004100","title":"Hackathon Expert Group","url":"https://hackathon.expert/","shortener_url":null,"started_at":"2020-01-01T09:00:00.000+09:00","ended_at":"2020-02-04T09:00:00.000+09:00","limit_number":null,"address":null,"place":"online","lat":null,"lon":null,"state":"active","id":null},{"event_id":"1370794874790944773","title":"Home - Geoawesomeness","url":"https://geoawesomeness.com","shortener_url":null,"started_at":"2020-01-01T09:00:00.000+09:00","ended_at":"2021-03-14T08:21:00.000+09:00","limit_number":null,"address":null,"place":"online","lat":null,"lon":null,"state":"active","id":null},{"event_id":"1371244833881300997","title":"Newton LigerBots’ Virtual Hackathon for Grades 4-8, Apr. 3 | NewtonSTEM","url":"https://newtonstem.org/2021/03/newton-ligerbots-virtual-hackathon-for-grades-4-8-apr-3/","shortener_url":null,"started_at":"2020-01-01T16:40:00.000+09:00","ended_at":"2021-03-12T16:40:00.000+09:00","limit_number":null,"address":null,"place":"online","lat":null,"lon":null,"state":"active","id":null},{"event_id":"1371837584394092545","title":"Demystifying The Dark Web: Hackers To Compete At The Biggest Hackathon By Kerala Police Cyberdome - The420","url":"https://www.the420.in/demystifying-the-dark-web-hackers-to-compete-at-the-biggest-hackathon-by-kerala-police-cyberdome/","shortener_url":null,"started_at":"2020-01-02T09:00:00.000+09:00","ended_at":"2021-03-17T05:10:00.000+09:00","limit_number":null,"address":null,"place":"online","lat":null,"lon":null,"state":"active","id":null},{"event_id":"1373667563285184516","title":"Hackathon for kids hosted by the Newton LigerBots | Newton South PTSO","url":"http://newtonsouthptso.org/2021/03/21/hackathon-for-kids-hosted-by-the-newton-ligerbots/","shortener_url":"https://bit.ly/3d0jDU1","started_at":"2020-01-01T13:00:00.000+09:00","ended_at":"2021-04-01T04:00:00.000+09:00","limit_number":null,"address":null,"place":"online","lat":null,"lon":null,"state":"active","id":null},{"event_id":"1372601559746547715","title":"UPDATE — Pushpay Invests in Digital Innovation of the Church with Sponsorship of Code for the Kingdom Virtual Hackathon Event – NEWS.FREE...","url":"https://news.freeptomaineradio.com/","shortener_url":null,"started_at":"2020-01-01T18:16:00.000+09:00","ended_at":"2020-08-17T18:16:00.000+09:00","limit_number":null,"address":null,"place":"online","lat":null,"lon":null,"state":"active","id":null},{"event_id":"1375114542397718528","title":"Promoting Diversity and Inclusion through Engagement: The APSA 2018 Hackathon | PS: Political Science \u0026amp; Politics | Cambridge Core","url":"https://www.cambridge.org/core/journals/ps-political-science-and-politics/article/promoting-diversity-and-inclusion-through-engagement-the-apsa-2018-hackathon/93094B139F8F2AAD460CE2D74D6247EE","shortener_url":null,"started_at":"2020-01-08T13:53:00.000+09:00","ended_at":"2021-03-26T13:53:00.000+09:00","limit_number":null,"address":null,"place":"online","lat":null,"lon":null,"state":"active","id":null},{"event_id":"1376379141910577155","title":"TNI AL Gandeng Telkom Group Optimalkan Maritime Hackathon","url":"https://www.smartcityindo.com/2021/03/tni-al-gandeng-telkom-group-optimalkan.html","shortener_url":null,"started_at":"2020-01-03T11:26:00.000+09:00","ended_at":"2021-03-30T07:58:00.000+09:00","limit_number":null,"address":null,"place":"online","lat":null,"lon":null,"state":"active","id":null},{"event_id":"1378656264624996354","title":"Aeternity (AE) - Hackathon","url":"https://coinmarketcal.com/en/event/hackathon-65078","shortener_url":"https://bit.ly/3mhPggj","started_at":"2020-01-01T15:10:00.000+09:00","ended_at":"2021-04-07T01:30:00.000+09:00","limit_number":null,"address":null,"place":"online","lat":null,"lon":null,"state":"active","id":null},{"event_id":"1382687892087128071","title":"HackMakers – Virtual hackathon specialists","url":"https://hackmakers.com","shortener_url":null,"started_at":"2020-01-02T10:01:00.000+09:00","ended_at":"2021-04-16T07:30:00.000+09:00","limit_number":null,"address":null,"place":"online","lat":null,"lon":null,"state":"active","id":null},{"event_id":"1389584380968927232","title":"Open call for participation in the online Open Data Hackathon | Meta.mk","url":"https://meta.mk/en/open-call-for-participation-in-the-online-open-data-hackathon/","shortener_url":null,"started_at":"2020-01-02T09:00:00.000+09:00","ended_at":"2021-05-04T05:22:00.000+09:00","limit_number":null,"address":null,"place":"online","lat":null,"lon":null,"state":"active","id":null},{"event_id":"1391747936548134918","title":"#TeamGoodBoy encourages youth: Make a difference, join 5G Hackathon","url":"https://mymovieworld-coolman0304.blogspot.com/2021/05/teamgoodboy-encourages-youth-make.html","shortener_url":null,"started_at":"2020-01-01T17:00:00.000+09:00","ended_at":"2021-05-11T06:31:00.000+09:00","limit_number":null,"address":null,"place":"online","lat":null,"lon":null,"state":"active","id":null},{"event_id":"1394138478447792133","title":"修成のブログ - 原宿竹下通り－OMO Shop Designアイデアソン－","url":"https://www.syusei.ac.jp/blog/","shortener_url":null,"started_at":"2020-01-01T21:41:00.000+09:00","ended_at":"2021-05-17T21:41:00.000+09:00","limit_number":null,"address":null,"place":"online","lat":null,"lon":null,"state":"active","id":null},{"event_id":"1395851466426945544","title":"Tezos (XTZ) - Hackathon","url":"https://coinmarketcal.com/en/event/hackathon-73094","shortener_url":null,"started_at":"2020-01-01T11:00:00.000+09:00","ended_at":"2021-05-24T02:00:00.000+09:00","limit_number":null,"address":null,"place":"online","lat":null,"lon":null,"state":"active","id":null},{"event_id":"1397935997594259462","title":"MediaHack 2021 Online Hackathon","url":"https://www.mediahack.co/","shortener_url":null,"started_at":"2020-01-02T09:00:00.000+09:00","ended_at":"2020-01-03T08:59:00.000+09:00","limit_number":null,"address":null,"place":"online","lat":null,"lon":null,"state":"active","id":null},{"event_id":"1400601100554702852","title":"ICT教育ニュース - ICT教育分野における最新ニュース発信 -","url":"https://ict-enews.net","shortener_url":null,"started_at":"2020-01-02T01:00:00.000+09:00","ended_at":"2021-06-11T01:00:00.000+09:00","limit_number":null,"address":"埼玉県戸田市、ALSOKと連携協定を締結し市内300箇所に見守り防犯カメラを設置(2021年6月9日)AI型教材「Qubena」、東京・世田谷区内の全小中学校90校が導入(2021年6月7日)","place":"埼玉県戸田市、ALSOKと連携協定を締結し市内300箇所に見守り防犯カメラを設置(2021年6月9日)AI型教材「Qubena」、東京・世田谷区内の全小中学校90校が導入(2021年6月7日)\t\t\t\t","lat":35.8127,"lon":139.665,"state":"active","id":null},{"event_id":"1400107414439989252","title":"La Municipalidad habilitó la inscripción online para el primer Hackathon Sostenible – Nuevo Digital de Escobar","url":"http://www.nuevodigitaldeescobar.com.ar/2021/06/la-municipalidad-habilito-la-inscripcion-online-para-el-primer-hackathon-sostenible/","shortener_url":null,"started_at":"2020-01-02T09:00:00.000+09:00","ended_at":"2021-01-20T09:00:00.000+09:00","limit_number":null,"address":null,"place":"online","lat":null,"lon":null,"state":"active","id":null},{"event_id":"1403366612493869060","title":"DWP Digital hackathon to help jobseekers find work","url":"https://pressroom.journolink.com/dwp-digital/release/dwp_digital_hackathon_to_help_jobseekers_find_work_9164","shortener_url":null,"started_at":"2020-01-09T02:15:00.000+09:00","ended_at":"2021-01-09T03:30:00.000+09:00","limit_number":null,"address":null,"place":"online","lat":null,"lon":null,"state":"active","id":null},{"event_id":"1403381493997711360","title":"Digital marketing | Bristol | b.digital","url":"https://b.digital/","shortener_url":null,"started_at":"2020-01-02T09:00:00.000+09:00","ended_at":"2020-08-15T09:00:00.000+09:00","limit_number":null,"address":null,"place":"online","lat":null,"lon":null,"state":"active","id":null},{"event_id":"1405986465453125632","title":"HackOnLisk, Our First Online Hackathon","url":"https://allcrypto.video/hackonlisk-our-first-online-hackathon_03c942f16.html","shortener_url":null,"started_at":"2020-01-01T10:45:00.000+09:00","ended_at":"2021-06-19T08:09:00.000+09:00","limit_number":null,"address":null,"place":"online","lat":null,"lon":null,"state":"active","id":null},{"event_id":"1406282494299803650","title":"Hackathon Sostenible: el martes 22 habrá una tutoría online sobre preparación de proyectos – Nuevo Digital de Escobar","url":"http://www.nuevodigitaldeescobar.com.ar/2021/06/el-martes-22-aprende-a-preparar-un-proyecto-para-el-hackathon-sostenible/","shortener_url":null,"started_at":"2020-01-02T09:00:00.000+09:00","ended_at":"2021-06-20T09:00:00.000+09:00","limit_number":null,"address":null,"place":"online","lat":null,"lon":null,"state":"active","id":null},{"event_id":"1407328722001305604","title":"I failed in the recent AV hackathon and learned two things","url":"https://shyambhu20.blogspot.com/2021/03/i-failed-in-recent-av-hackathon-and.html","shortener_url":null,"started_at":"2020-01-01T09:00:00.000+09:00","ended_at":"2020-01-02T09:00:00.000+09:00","limit_number":null,"address":null,"place":"online","lat":null,"lon":null,"state":"active","id":null},{"event_id":"1407037586946801664","title":"Dolmetscher für einfache Sprache und Navi zur Hinderniserkennung / Gerlach prämiert Siegerprojekte bei Hackathon #codebarrierefrei | Staa...","url":"https://www.stmd.bayern.de/dolmetscher-fuer-einfache-sprache-und-navi-zur-hinderniserkennung-gerlach-praemiert-siegerprojekte-bei-hackathon-codebarrierefrei/","shortener_url":null,"started_at":"2020-01-01T09:00:00.000+09:00","ended_at":"2020-01-01T23:59:59.000+09:00","limit_number":null,"address":null,"place":"online","lat":null,"lon":null,"state":"active","id":null},{"event_id":"1407077996004007947","title":"Join in the Azure Sentinel Hackathon 2021!","url":"http://blog.mir.net/2021/06/join-in-azure-sentinel-hackathon-2021.html","shortener_url":null,"started_at":"2020-01-01T13:00:00.000+09:00","ended_at":"2021-06-22T01:32:00.000+09:00","limit_number":null,"address":null,"place":"online","lat":null,"lon":null,"state":"active","id":null},{"event_id":"1410505155083124738","title":"集英社がゲーム企画のコンテスト　賞金は100万円＋開発資金、ジャンル問わず","url":"http://mono2.ajimofu.com/blog/2021/07/01/%e9%9b%86%e8%8b%b1%e7%a4%be%e3%81%8c%e3%82%b2%e3%83%bc%e3%83%a0%e4%bc%81%e7%94%bb%e3%81%ae%e3%82%b3%e3%83%b3%e3%83%86%e3%82%b9%e3%83%88%e3%80%80%e8%b3%9e%e9%87%91%e3%81%af100%e4%b8%87%e5%86%86/","shortener_url":null,"started_at":"2020-01-01T09:00:00.000+09:00","ended_at":"2021-07-02T09:00:00.000+09:00","limit_number":null,"address":null,"place":"online","lat":null,"lon":null,"state":"active","id":null},{"event_id":"1407848309096652800","title":"Pushpay Invests in Student Technology Program, Sponsors Mission InspirEd's Virtual Hackathon Event - GlobeNewswire","url":"https://netwala.blogspot.com/2021/06/pushpay-invests-in-student-technology.html","shortener_url":null,"started_at":"2020-01-01T09:00:00.000+09:00","ended_at":"2020-01-02T09:00:00.000+09:00","limit_number":null,"address":null,"place":"online","lat":null,"lon":null,"state":"active","id":null},{"event_id":"1410887332820099073","title":"call: Nabi Online Hackathon | netEX - calls \u0026 deadlines","url":"http://netex.nmartproject.net/","shortener_url":null,"started_at":"2020-01-01T09:00:00.000+09:00","ended_at":"2021-07-01T09:00:00.000+09:00","limit_number":null,"address":null,"place":"online","lat":null,"lon":null,"state":"active","id":null},{"event_id":"1409564070299176962","title":"Join the first ever hackathon about Marine Biotechnology!","url":"https://www.ocean4biotech.eu/2021/06/17/join-the-first-ever-hackathon-about-marine-biotechnology/","shortener_url":null,"started_at":"2020-01-01T09:00:00.000+09:00","ended_at":"2021-06-25T09:00:00.000+09:00","limit_number":null,"address":null,"place":"online","lat":null,"lon":null,"state":"active","id":null},{"event_id":"1414160918741622785","title":"Ipertensione arteriosa polmonare, empPAtHy vince la prima edizione dell’ hackathon “HACK for PAH” di Janssen Italia","url":"https://www.saluteh24.com/il_weblog_di_antonio/2021/07/ipertensione-arteriosa-polmonare-emppathy-vince-la-prima-edizione-dell-hackathon-hack-for-pah-di-jan.html","shortener_url":null,"started_at":"2020-01-01T20:53:00.000+09:00","ended_at":"2020-01-02T20:53:00.000+09:00","limit_number":null,"address":null,"place":"online","lat":null,"lon":null,"state":"active","id":null},{"event_id":"1415348140975198214","title":"Continúa abierta la inscripción online para el primer Hackathon Sostenible en el partido de Escobar – Nuevo Digital de Escobar","url":"http://www.nuevodigitaldeescobar.com.ar/2021/07/continua-abierta-la-inscripcion-online-para-el-primer-hackathon-sostenible-en-el-partido-de-escobar/","shortener_url":"https://bit.ly/3hHC7MW","started_at":"2020-01-02T09:00:00.000+09:00","ended_at":"2021-07-20T09:00:00.000+09:00","limit_number":null,"address":null,"place":"online","lat":null,"lon":null,"state":"active","id":null},{"event_id":"1417039279155421187","title":"Hackathons.lk | Sri Lanka's Hub for Hackathons","url":"https://Hackathons.lk/","shortener_url":"https://bit.ly/2VVcwaF","started_at":"2020-01-01T09:00:00.000+09:00","ended_at":"2021-10-24T09:00:00.000+09:00","limit_number":null,"address":null,"place":"online","lat":null,"lon":null,"state":"active","id":null},{"event_id":"1418205431105605637","title":"Χ-τύπος, Εβδομαδιαία Εφημερίδα Τοπικής Αυτοδιοίκησης","url":"https://www.xtypos.gr/","shortener_url":null,"started_at":"2020-01-01T11:00:00.000+09:00","ended_at":"2021-07-23T05:59:00.000+09:00","limit_number":null,"address":null,"place":"online","lat":null,"lon":null,"state":"active","id":null},{"event_id":"1419825705773256705","title":"Unboxing #DinoHack - Mulling IT Over 2","url":"https://pcmcreative.typepad.com/my_weblog/2021/07/unboxing-dinohack-1.html","shortener_url":null,"started_at":"2020-01-02T09:00:00.000+09:00","ended_at":"2020-01-02T23:59:59.000+09:00","limit_number":null,"address":null,"place":"online","lat":null,"lon":null,"state":"active","id":null},{"event_id":"1420215074807943170","title":"Crypto Startup Solana Launches Hackathons For Indians With Rs 60 Lakh Prize Money","url":"https://www.moneycontrol.com/news/business/crypto-startup-solana-launches-hackathons-for-indians-with-rs-60-lakh-prize-money-7236001.html","shortener_url":null,"started_at":"2020-01-01T19:11:00.000+09:00","ended_at":"2021-07-12T19:11:00.000+09:00","limit_number":null,"address":null,"place":"online","lat":null,"lon":null,"state":"active","id":null},{"event_id":"1421561885422342148","title":"【告知】地域課題解決に向けたアイデアソン・ハッカソンの開催 | NINE-NAIST起業部","url":"https://nine-naist.org/2021/07/14/nscc2021/","shortener_url":null,"started_at":"2020-01-02T09:00:00.000+09:00","ended_at":"2021-07-20T09:00:00.000+09:00","limit_number":null,"address":"奈良県田原本町 代表理事 松島靖朗)と奈良工業高等専門学校竹原研究室(代表 竹原信也)の共同主催企画「奈良ソーシャルクリエイションキャラバン2021」に協力団体として参加します。「貧困問題の解決」をテーマに、学生や地元企業が集い、4日間に渡ってアイデアソン・ハッカソンを実施します。","place":"奈良県田原本町 代表理事 松島靖朗)と奈良工業高等専門学校竹原研究室(代表 竹原信也)の共同主催企画「奈良ソーシャルクリエイションキャラバン2021」に協力団体として参加します。「貧困問題の解決」をテーマに、学生や地元企業が集い、4日間に渡ってアイデアソン・ハッカソンを実施します。","lat":34.5567,"lon":135.795,"state":"active","id":null},{"event_id":"1422085312734507008","title":"Angkat Tema \"Robotic Process Automation\", ICStar Hackathon 2021 Resmi Digelar","url":"https://www.smartcityindo.com/2021/08/angkat-tema-robotic-process-automation.html","shortener_url":null,"started_at":"2020-01-03T11:26:00.000+09:00","ended_at":"2021-08-02T08:14:00.000+09:00","limit_number":null,"address":null,"place":"online","lat":null,"lon":null,"state":"active","id":null},{"event_id":"1426547439608152066","title":"WCC NEWS: WCC gathers youth for “hackathon” on climate emergency","url":"https://thenettrans.blogspot.com/2021/08/wcc-news-wcc-gathers-youth-for.html","shortener_url":null,"started_at":"2020-01-01T16:00:00.000+09:00","ended_at":"2021-08-15T04:14:00.000+09:00","limit_number":null,"address":null,"place":"online","lat":null,"lon":null,"state":"active","id":null},{"event_id":"1433704579489697799","title":"ハッカソン - Wikipedia","url":"https://ja.wikipedia.org/wiki/%E3%83%8F%E3%83%83%E3%82%AB%E3%82%BD%E3%83%B3","shortener_url":null,"started_at":"2020-01-08T09:00:00.000+09:00","ended_at":"2021-08-19T09:00:00.000+09:00","limit_number":null,"address":null,"place":"online","lat":null,"lon":null,"state":"active","id":null},{"event_id":"1433798729572683783","title":"Fundação Grupo Boticário: Hackathon premia soluções de proteção do cerrado do Nordeste Goiano","url":"https://www.blogantoniocarlos.com/2021/09/fundacao-grupo-boticario-hackathon.html","shortener_url":null,"started_at":"2020-01-01T12:00:00.000+09:00","ended_at":"2021-09-03T20:26:00.000+09:00","limit_number":null,"address":null,"place":"online","lat":null,"lon":null,"state":"active","id":null},{"event_id":"1435385534453485570","title":"六甲山上、泊まれる森のシェアオフィス | ROKKONOMAD - Smart Rokko City","url":"https://rokkonomad.org/","shortener_url":null,"started_at":"2020-01-02T18:30:00.000+09:00","ended_at":"2021-08-31T04:30:00.000+09:00","limit_number":null,"address":"兵庫県神戸市灘区六甲山町西谷山187848","place":"兵庫県神戸市灘区六甲山町西谷山187848","lat":34.7491,"lon":135.248,"state":"active","id":null},{"event_id":"1438518110928060423","title":"September 21: Kong/KANSAS-CITY - ?‍? Kong Summit Virtual HACKATHON! ?‍?   \u003e\u003e Earn T-shirts \u0026 prizes!","url":"https://www.kansascityusergroups.com/2021/09/september-21-kongkansas-city-kong.html","shortener_url":null,"started_at":"2020-01-01T18:00:00.000+09:00","ended_at":"2021-08-18T20:59:00.000+09:00","limit_number":null,"address":null,"place":"online","lat":null,"lon":null,"state":"active","id":null},{"event_id":"1439575073225121794","title":"September 21: Kong/KANSAS-CITY - ?‍? Kong Summit Virtual HACKATHON! ?‍?   \u003e\u003e Earn T-shirts \u0026 prizes!","url":"https://www.kansascityusergroups.com/2021/09/september-21-kongkansas-city-kong_19.html","shortener_url":null,"started_at":"2020-01-01T17:00:00.000+09:00","ended_at":"2021-08-18T20:59:00.000+09:00","limit_number":null,"address":null,"place":"online","lat":null,"lon":null,"state":"active","id":null},{"event_id":"1440825826669318145","title":"Updated list of Pi Network Hackathon finalists!","url":"https://dev-rockcesar.blogspot.com/2021/09/updated-list-of-pi-network-hackathon.html","shortener_url":null,"started_at":"2020-01-01T16:00:00.000+09:00","ended_at":"2021-09-23T01:03:00.000+09:00","limit_number":null,"address":null,"place":"online","lat":null,"lon":null,"state":"active","id":null},{"event_id":"1440676585560961028","title":"A Hackathon to Develop Solutions That Can Help SMBs","url":"https://www.globalsmallbusinessblog.com/2021/09/a-hackathon-to-develop-solutions-that.html","shortener_url":null,"started_at":"2020-01-01T14:00:00.000+09:00","ended_at":"2021-09-22T16:10:00.000+09:00","limit_number":null,"address":null,"place":"online","lat":null,"lon":null,"state":"active","id":null},{"event_id":"1441510942592798725","title":"Hackathons","url":"https://gitcoin.co/hackathon","shortener_url":null,"started_at":"2020-01-09T09:00:00.000+09:00","ended_at":"2021-10-23T08:59:00.000+09:00","limit_number":null,"address":null,"place":"online","lat":null,"lon":null,"state":"active","id":null},{"event_id":"1443281529757655046","title":"Organizer of Cyberchain Conference to reward five Nigerian youths in Hackathon competition | ITPulse.com.ng","url":"https://itpulse.com.ng/2021/09/29/organizer-of-cyberchain-conference-to-reward-five-nigerian-youths-in-hackathon-competition/","shortener_url":null,"started_at":"2020-01-01T09:00:00.000+09:00","ended_at":"2021-09-29T09:00:00.000+09:00","limit_number":null,"address":null,"place":"online","lat":null,"lon":null,"state":"active","id":null},{"event_id":"1443103636373000194","title":"Lewat Hackathon 2021, BPJS Kesehatan Jaring Bakat Teknologi Informasi Kesehatan","url":"https://www.smartcityindo.com/2021/09/lewat-hackathon-2021-bpjs-kesehatan.html","shortener_url":null,"started_at":"2020-01-03T11:26:00.000+09:00","ended_at":"2021-09-29T07:58:00.000+09:00","limit_number":null,"address":null,"place":"online","lat":null,"lon":null,"state":"active","id":null},{"event_id":"1448381750728531970","title":"Brasileiros se destacam em Hackathon no AU 2021 – Por Dentro da Autodesk Brasil","url":"https://blogs.autodesk.com/por-dentro-da-autodesk-brasil/2021/10/13/brasileiros-se-destacam-em-hackathon-no-au-2021/","shortener_url":null,"started_at":"2020-01-02T09:00:00.000+09:00","ended_at":"2021-10-13T09:00:00.000+09:00","limit_number":null,"address":null,"place":"online","lat":null,"lon":null,"state":"active","id":null},{"event_id":"1448583269604372483","title":"MONICA Hackathon aiming to enhance experience at the stadium | CNet Svenska AB","url":"https://www.cnet.se/news/monica-hackathon-aiming-to-enhance-experience-at-the-stadium/","shortener_url":null,"started_at":"2020-01-01T09:00:00.000+09:00","ended_at":"2020-01-02T09:00:00.000+09:00","limit_number":null,"address":null,"place":"online","lat":null,"lon":null,"state":"active","id":null},{"event_id":"1451076586254389252","title":"大阪にある月額制プログラミングスクール『コードクリエイト』","url":"https://code-create.tech/","shortener_url":null,"started_at":"2020-01-05T09:00:00.000+09:00","ended_at":"2020-10-31T02:02:00.000+09:00","limit_number":null,"address":"大阪府大阪市西区北堀江1丁目124 四ツ橋近商ビル 3階B号室","place":"大阪府大阪市西区北堀江1丁目124 四ツ橋近商ビル 3階B号室","lat":34.6741,"lon":135.497,"state":"active","id":null},{"event_id":"1454376117712744450","title":"UIDAI to conduct ‘Aadhar Hackathon’ from Thursday","url":"https://www.indianewsnetwork.com/20211026/uidai-to-conduct-aadhar-hackathon-from-thursday","shortener_url":null,"started_at":"2020-01-01T09:00:00.000+09:00","ended_at":"2021-10-26T09:00:00.000+09:00","limit_number":null,"address":null,"place":"online","lat":null,"lon":null,"state":"active","id":null},{"event_id":"1456047298979446785","title":"地域活性化目指し　クリエイターがアプリ開発コンテスト　　静岡・三島市 | ニュース | テレビ静岡","url":"https://www.sut-tv.com/news/indiv/12959/","shortener_url":null,"started_at":"2020-01-01T09:00:00.000+09:00","ended_at":"2021-11-04T09:00:00.000+09:00","limit_number":null,"address":"静岡県三島市で始まりました。","place":"静岡県三島市で始まりました。\r","lat":35.1517,"lon":138.981,"state":"active","id":null},{"event_id":"1456179135710175232","title":"Developers and creators to win $700,000 USD in Facebook’s XR Hackathon | ITPulse.com.ng","url":"https://itpulse.com.ng/2021/11/04/developers-and-creators-to-win-700000-usd-in-facebooks-xr-hackathon/","shortener_url":null,"started_at":"2020-01-01T09:00:00.000+09:00","ended_at":"2021-11-04T09:00:00.000+09:00","limit_number":null,"address":null,"place":"online","lat":null,"lon":null,"state":"active","id":null},{"event_id":"1457744175366033419","title":"Global Game Jam","url":"https://globalgamejam.org/","shortener_url":null,"started_at":"2020-01-02T09:00:00.000+09:00","ended_at":"2021-01-01T09:00:00.000+09:00","limit_number":null,"address":null,"place":"online","lat":null,"lon":null,"state":"active","id":null},{"event_id":"1457938660645429249","title":"ロジザード、タイの大学で物流アプリコンテスト","url":"https://www.logi-today.com/463790","shortener_url":null,"started_at":"2020-01-01T19:00:00.000+09:00","ended_at":"2021-11-19T03:00:00.000+09:00","limit_number":null,"address":"千葉県流山市下中谷806‐1 延床面積:15万5094平方メートル 募集面積:2939平方メートル~(分割は応相談) 成約率:77%(残り2万9597平方メートル) 入居時期:即入居可 ■アクセス ・常磐自動車道「流山IC」近接 ・首都高速6号三郷線/常磐自動車道「三郷IC」6キロ ・東武野田線「初石駅」約1.8キロ 詳細・申込ページへのリンク","place":"千葉県流山市下中谷806‐1 延床面積:15万5094平方メートル 募集面積:2939平方メートル~(分割は応相談) 成約率:77%(残り2万9597平方メートル) 入居時期:即入居可 ■アクセス ・常磐自動車道「流山IC」近接 ・首都高速6号三郷線/常磐自動車道「三郷IC」6キロ ・東武野田線「初石駅」約1.8キロ 詳細・申込ページへのリンク","lat":35.8563,"lon":139.903,"state":"active","id":null},{"event_id":"1459564951396184069","title":"Aaron Swartz Day 2021 – Speaker Schedule and Hackathon Details | Aaron Swartz Day and International Hackathon","url":"https://www.aaronswartzday.org/asd-2021/","shortener_url":null,"started_at":"2020-01-01T09:00:00.000+09:00","ended_at":"2021-01-01T09:00:00.000+09:00","limit_number":null,"address":null,"place":"online","lat":null,"lon":null,"state":"active","id":null},{"event_id":"1459506403190706183","title":"November 15: TIBCO Kansas City User Group - TIBCO LABS IoT and Sustainability Hackathon","url":"https://www.kansascityusergroups.com/2021/11/november-15-tibco-kansas-city-user.html","shortener_url":null,"started_at":"2020-01-01T16:00:00.000+09:00","ended_at":"2021-08-18T20:00:00.000+09:00","limit_number":null,"address":null,"place":"online","lat":null,"lon":null,"state":"active","id":null},{"event_id":"1460506798109212674","title":"HackEPS, el Hackathon de la Universidad de Lleida (27 y 28 de Noviembre)","url":"https://www.elladodelmal.com/2021/11/hackeps-el-hackathon-de-la-universidad.html","shortener_url":null,"started_at":"2020-01-01T17:13:00.000+09:00","ended_at":"2021-10-09T17:13:00.000+09:00","limit_number":null,"address":null,"place":"online","lat":null,"lon":null,"state":"active","id":null},{"event_id":"1460886537600913409","title":"アスカネットが空中結像プレートを題材に「あったらいいな」を考える「ＡＳＫＡ３Ｄアイデアソン」を開催 | 株式投資情報　総合　日本インタビュ新聞","url":"http://media-ir.com/news/","shortener_url":null,"started_at":"2020-01-01T19:30:00.000+09:00","ended_at":"2022-01-16T02:24:00.000+09:00","limit_number":null,"address":null,"place":"online","lat":null,"lon":null,"state":"active","id":null},{"event_id":"1461774950218575877","title":"Data and Storage Hackathon 2022","url":"https://adbu-eee-worldnews.blogspot.com/2021/11/data-and-storage-hackathon-2022.html","shortener_url":null,"started_at":"2020-01-01T09:01:00.000+09:00","ended_at":"2021-11-20T08:51:00.000+09:00","limit_number":null,"address":null,"place":"online","lat":null,"lon":null,"state":"active","id":null},{"event_id":"1462831918903406592","title":"BIAL Genie Hackathon","url":"https://adbu-eee-worldnews.blogspot.com/2021/11/bial-genie-hackathon.html","shortener_url":null,"started_at":"2020-01-01T09:01:00.000+09:00","ended_at":"2021-11-23T05:51:00.000+09:00","limit_number":null,"address":null,"place":"online","lat":null,"lon":null,"state":"active","id":null},{"event_id":"1462722894744674305","title":"Digital Encode reiterates commitment to security of Nigeria’s cyberspace, rewards Cyberchain Hackathon winners | ITPulse.com.ng","url":"https://itpulse.com.ng/2021/11/22/digital-encode-reiterates-commitment-to-security-of-nigerias-cyberspace-rewards-cyberchain-hackathon-winners/","shortener_url":null,"started_at":"2020-01-01T09:00:00.000+09:00","ended_at":"2021-11-22T09:00:00.000+09:00","limit_number":null,"address":null,"place":"online","lat":null,"lon":null,"state":"active","id":null},{"event_id":"1465888799339122690","title":"Looker社主催のハッカソンで、モンストエンジニアが世界2位に！｜ミクシル","url":"https://mixil.mixi.co.jp/people/13181","shortener_url":null,"started_at":"2020-01-02T03:00:00.000+09:00","ended_at":"2021-12-10T05:00:00.000+09:00","limit_number":null,"address":null,"place":"online","lat":null,"lon":null,"state":"active","id":null},{"event_id":"1466255806110838791","title":"リモートで社内ゲームジャムを開催しました","url":"https://www.klab.com/jp/blog/tech/2021/20211202-gamejam-report.html","shortener_url":null,"started_at":"2020-01-02T19:00:00.000+09:00","ended_at":"2021-12-03T05:00:00.000+09:00","limit_number":null,"address":null,"place":"online","lat":null,"lon":null,"state":"active","id":null},{"event_id":"1467146715874664452","title":"December 14: Kong/KANSAS-CITY - ? Kong Gateway Monthly Meetup:  Hackathon winner showcase ?","url":"https://www.kansascityusergroups.com/2021/12/december-14-kongkansas-city-kong.html","shortener_url":null,"started_at":"2020-01-01T18:00:00.000+09:00","ended_at":"2021-08-18T21:00:00.000+09:00","limit_number":null,"address":null,"place":"online","lat":null,"lon":null,"state":"active","id":null},{"event_id":"81791387241","title":"Registered Nursing Degree Virtual Information Session","url":"https://www.eventbrite.com/e/registered-nursing-degree-virtual-information-session-tickets-81791387241","shortener_url":null,"started_at":"2020-01-15T06:00:00.000+09:00","ended_at":"2022-06-07T00:30:00.000+09:00","limit_number":null,"address":null,"place":"online","lat":null,"lon":null,"state":"active","id":null},{"event_id":"81382080995","title":"Interprofessional Healthcare Certificate  Information Session","url":"https://www.eventbrite.com/e/interprofessional-healthcare-certificate-information-session-tickets-81382080995","shortener_url":null,"started_at":"2020-01-08T02:00:00.000+09:00","ended_at":"2022-06-29T07:30:00.000+09:00","limit_number":null,"address":null,"place":"online","lat":null,"lon":null,"state":"active","id":null},{"event_id":"81776268019","title":"Advanced Placement RN Information Session- Current LPN, Paramedic \u0026 Veteran","url":"https://www.eventbrite.com/e/advanced-placement-rn-information-session-current-lpn-paramedic-veteran-tickets-81776268019","shortener_url":null,"started_at":"2020-01-15T07:00:00.000+09:00","ended_at":"2022-06-09T05:30:00.000+09:00","limit_number":null,"address":null,"place":"online","lat":null,"lon":null,"state":"active","id":null},{"event_id":"1468958676169867273","title":"December 14: Kong/KANSAS-CITY - ? Kong Gateway Monthly Meetup:  Hackathon winner showcase ?","url":"https://www.kansascityusergroups.com/2021/12/december-14-kongkansas-city-kong_9.html","shortener_url":null,"started_at":"2020-01-01T18:00:00.000+09:00","ended_at":"2021-08-18T21:00:00.000+09:00","limit_number":null,"address":null,"place":"online","lat":null,"lon":null,"state":"active","id":null},{"event_id":"1470015626752233473","title":"December 14: Kong/KANSAS-CITY - ? Kong Gateway Monthly Meetup:  Hackathon winner showcase ?","url":"https://www.kansascityusergroups.com/2021/12/december-14-kongkansas-city-kong_12.html","shortener_url":null,"started_at":"2020-01-01T16:00:00.000+09:00","ended_at":"2021-08-18T21:00:00.000+09:00","limit_number":null,"address":null,"place":"online","lat":null,"lon":null,"state":"active","id":null},{"event_id":"81791387241","title":"Registered Nursing Degree  Information Session","url":"https://www.eventbrite.com/e/registered-nursing-degree-information-session-tickets-81791387241","shortener_url":null,"started_at":"2020-01-15T06:00:00.000+09:00","ended_at":"2022-06-07T00:30:00.000+09:00","limit_number":null,"address":null,"place":"online","lat":null,"lon":null,"state":"active","id":null},{"event_id":"1471022233824944136","title":"Hackathon Bitci için başvurular başladı – Akıllı Gündem","url":"https://www.akilligundem.com/hackathon-bitci-icin-basvurular-basladi/","shortener_url":null,"started_at":"2020-01-01T15:02:00.000+09:00","ended_at":"2021-01-02T19:40:00.000+09:00","limit_number":null,"address":null,"place":"online","lat":null,"lon":null,"state":"active","id":null},{"event_id":"15227783711","title":"FREE Webinar: ROCKET METHOD TRADING","url":"https://www.eventbrite.sg/e/free-webinar-rocket-methodtm-trading-tickets-15227783711","shortener_url":null,"started_at":"2020-01-15T20:30:00.000+09:00","ended_at":"2022-07-27T23:00:00.000+09:00","limit_number":null,"address":null,"place":"online","lat":null,"lon":null,"state":"active","id":null},{"event_id":"1473654650842845186","title":"January 11: TIBCO Kansas City User Group - TIBCO LABS IoT and Sustainability Hackathon","url":"https://www.kansascityusergroups.com/2021/12/january-11-tibco-kansas-city-user-group.html","shortener_url":null,"started_at":"2020-01-01T17:00:00.000+09:00","ended_at":"2021-08-18T21:00:00.000+09:00","limit_number":null,"address":null,"place":"online","lat":null,"lon":null,"state":"active","id":null},{"event_id":"85209831901","title":"BNI A-Team","url":"https://www.eventbrite.com.au/e/bni-a-team-tickets-85209831901","shortener_url":null,"started_at":"2020-01-24T08:30:00.000+09:00","ended_at":"2022-12-16T10:00:00.000+09:00","limit_number":null,"address":null,"place":"online","lat":null,"lon":null,"state":"active","id":null},{"event_id":"85461348193","title":"BNI Achievers","url":"https://www.eventbrite.com.au/e/bni-achievers-tickets-85461348193","shortener_url":null,"started_at":"2020-01-22T05:15:00.000+09:00","ended_at":"2022-12-14T07:00:00.000+09:00","limit_number":null,"address":null,"place":"online","lat":null,"lon":null,"state":"active","id":null},{"event_id":"85459380307","title":"BNI Storm","url":"https://www.eventbrite.com.au/e/bni-storm-tickets-85459380307","shortener_url":null,"started_at":"2020-01-22T05:30:00.000+09:00","ended_at":"2022-12-14T07:00:00.000+09:00","limit_number":null,"address":null,"place":"online","lat":null,"lon":null,"state":"active","id":null},{"event_id":"81398708729","title":"HOW TO ADU (Accessory Dwelling Unit) DESIGN. FINANCE. CONSTRUCT. LEASE. PRO","url":"https://www.eventbrite.com/e/how-to-adu-accessory-dwelling-unit-design-finance-construct-lease-pro-tickets-81398708729","shortener_url":null,"started_at":"2020-01-17T12:00:00.000+09:00","ended_at":"2022-12-08T14:00:00.000+09:00","limit_number":null,"address":null,"place":"online","lat":null,"lon":null,"state":"active","id":null},{"event_id":"90676125733","title":"OK | Tulsa Metro Area Virtual Networking","url":"https://www.eventbrite.com/e/ok-tulsa-metro-area-virtual-networking-tickets-90676125733","shortener_url":null,"started_at":"2020-01-25T02:30:00.000+09:00","ended_at":"2022-12-17T03:30:00.000+09:00","limit_number":null,"address":null,"place":"online","lat":null,"lon":null,"state":"active","id":null},{"event_id":"90817600889","title":"Zoom Webinar - Real Estate for Wealth Building","url":"https://www.eventbrite.com/e/zoom-webinar-real-estate-for-wealth-building-tickets-90817600889","shortener_url":null,"started_at":"2020-01-23T10:00:00.000+09:00","ended_at":"2022-12-29T12:00:00.000+09:00","limit_number":null,"address":null,"place":"online","lat":null,"lon":null,"state":"active","id":null},{"event_id":"159541","title":"【増枠】Mix Leap Joint #33 - UX JAM in OSAKA 03","url":"https://lycorp-osaka-jp.connpass.com/event/159541/","shortener_url":null,"started_at":"2020-01-16T19:15:00.000+09:00","ended_at":"2020-01-16T21:35:00.000+09:00","limit_number":75,"address":"〒530-0011 大阪市北区大深町4-20 (グランフロント大阪タワーA 37F)","place":"ヤフー株式会社 グランフロントオフィス","lat":34.7043,"lon":135.495,"state":"active","id":null}]