[{"event_id":"99470","title":"GPSなどの電波をジャミングする","url":"https://atnd.org/events/99470","shortener_url":null,"started_at":"2020-04-16T01:00:00.000+09:00","ended_at":"2020-04-18T08:59:59.000+09:00","limit_number":null,"address":"","place":"","lat":null,"lon":null,"state":"closed","id":null},{"event_id":"1361751","title":"一括受講割引【北海道・札幌2020年4月開催】他では絶対教えてくれないUIデザインのワザをたっぷり学ぶ《基礎・応用編》","url":"http://peatix.com/event/1361751","shortener_url":null,"started_at":"2020-04-04T09:30:00.000+09:00","ended_at":"2020-04-07T08:59:59.000+09:00","limit_number":null,"address":"札幌市中央区北4条西5丁目アスティ−45-12F・16F","place":"ACU-A 【アキュ】","lat":43.0661,"lon":141.348,"state":"active","id":null},{"event_id":"1361776","title":"一括受講割引【福岡・博多2020年4月開催】他では絶対教えてくれないUIデザインのワザをたっぷり学ぶ《基礎・応用編》","url":"http://peatix.com/event/1361776","shortener_url":null,"started_at":"2020-04-18T09:15:00.000+09:00","ended_at":"2020-04-21T08:59:59.000+09:00","limit_number":null,"address":"福岡市博多区博多駅前2-20-1","place":"リファレンス大博多ビル","lat":33.5926,"lon":130.416,"state":"active","id":null},{"event_id":"1361758","title":"【北海道・札幌2020年4月開催：個別05】ユーザー視点で作る「UI性能が高いサイト設計＆提案書」","url":"http://peatix.com/event/1361758","shortener_url":null,"started_at":"2020-04-05T13:30:00.000+09:00","ended_at":"2020-04-08T08:59:59.000+09:00","limit_number":null,"address":"北海道札幌市中央区北四条西5丁目","place":"ACU-Y","lat":43.0659,"lon":141.348,"state":"active","id":null},{"event_id":"1361781","title":"【福岡・博多2020年4月開催：個別05】ユーザー視点で作る「UI性能が高いサイト設計＆提案書」","url":"http://peatix.com/event/1361781","shortener_url":null,"started_at":"2020-04-19T13:15:00.000+09:00","ended_at":"2020-04-22T08:59:59.000+09:00","limit_number":null,"address":"福岡市博多区博多駅前2-20-1","place":"リファレンス大博多ビル","lat":33.5926,"lon":130.416,"state":"active","id":null},{"event_id":"1395319","title":"第14回「14時間で作る新規事業案」ブロックチェーンビジネスハッカソン","url":"http://blockchainbusinesshackathon202004.peatix.com","shortener_url":"https://bit.ly/38MlI33","started_at":"2020-04-17T19:00:00.000+09:00","ended_at":"2020-04-20T08:59:59.000+09:00","limit_number":null,"address":"中央区1丁目8−19 キラリトギンザ 11階","place":"BINARYSTAR 株式会社","lat":35.6744,"lon":139.769,"state":"active","id":null},{"event_id":"1399217","title":"【福岡・博多2020年4月開催・個別】03：ユーザーのニーズとリテラシーを基準に考える〜UIデザイン","url":"http://peatix.com/event/1399217","shortener_url":null,"started_at":"2020-04-18T13:30:00.000+09:00","ended_at":"2020-04-21T08:59:59.000+09:00","limit_number":null,"address":"福岡市博多区博多駅前2-20-1","place":"リファレンス大博多ビル","lat":33.5926,"lon":130.416,"state":"active","id":null},{"event_id":"1399227","title":"【北海道・札幌2020年4月開催・個別】02：UIデザインの常識を改める「認知学から学ぶUIの基本」","url":"http://peatix.com/event/1399227","shortener_url":null,"started_at":"2020-04-04T09:30:00.000+09:00","ended_at":"2020-04-07T08:59:59.000+09:00","limit_number":null,"address":"札幌市中央区北4条西5丁目アスティ−45-12F・16F","place":"ACU-A 【アキュ】","lat":43.0661,"lon":141.348,"state":"active","id":null},{"event_id":"1399216","title":"【北海道・札幌2020年4月開催・個別】03：ユーザーのニーズとリテラシーを基準に考える〜UIデザイン","url":"http://peatix.com/event/1399216","shortener_url":null,"started_at":"2020-04-04T13:30:00.000+09:00","ended_at":"2020-04-07T08:59:59.000+09:00","limit_number":null,"address":"札幌市中央区北4条西5丁目アスティ−45-12F・16F","place":"ACU-A 【アキュ】","lat":43.0661,"lon":141.348,"state":"active","id":null},{"event_id":"1399222","title":"【北海道・札幌2020年4月開催・個別】04：直感的で快適なWEB環境を作る｢スマホ用UIデザイン｣","url":"http://peatix.com/event/1399222","shortener_url":null,"started_at":"2020-04-04T17:30:00.000+09:00","ended_at":"2020-04-07T08:59:59.000+09:00","limit_number":null,"address":"札幌市中央区北4条西5丁目アスティ−45-12F・16F","place":"ACU-A 【アキュ】","lat":43.0661,"lon":141.348,"state":"active","id":null},{"event_id":"1399223","title":"【福岡・博多2020年4月開催・個別】04：直感的で快適なWEB環境を作る｢スマホ用UIデザイン｣","url":"http://peatix.com/event/1399223","shortener_url":null,"started_at":"2020-04-18T17:30:00.000+09:00","ended_at":"2020-04-21T08:59:59.000+09:00","limit_number":null,"address":"福岡市博多区博多駅前2-20-1","place":"リファレンス大博多ビル","lat":33.5926,"lon":130.416,"state":"active","id":null},{"event_id":"1399228","title":"【福岡・博多2020年4月開催・個別】02：UIデザインの常識を改める「認知学から学ぶUIの基本」","url":"http://peatix.com/event/1399228","shortener_url":null,"started_at":"2020-04-18T09:15:00.000+09:00","ended_at":"2020-04-21T08:59:59.000+09:00","limit_number":null,"address":"福岡市博多区博多駅前2-20-1","place":"リファレンス大博多ビル","lat":33.5926,"lon":130.416,"state":"active","id":null},{"event_id":"1421098","title":"【ぶっちゃけ途上国支援で飯くってけるんですか？】NPO代表がお答えします。 =NPO/国際協力のリアルトーク＝ in大阪","url":"http://realseminar0426.peatix.com","shortener_url":null,"started_at":"2020-04-26T15:45:00.000+09:00","ended_at":"2020-04-29T08:59:59.000+09:00","limit_number":null,"address":"大阪市中央区3 中央区中央区 道修町3丁目3-10 日宝道修町ビル5階(案内掲示場所","place":"プラトンセンター淀屋橋","lat":34.6882,"lon":135.502,"state":"active","id":null},{"event_id":"1426896","title":"第3回 あつかんDRAGON単独お笑いライブ  高知アカデミー笑(SHOW)","url":"http://atsukankarupo2020.peatix.com","shortener_url":null,"started_at":"2020-04-25T13:30:00.000+09:00","ended_at":"2020-04-28T08:59:59.000+09:00","limit_number":null,"address":"高知県高知市九反田2−1","place":"高知市文化プラザ・かるぽーと（大ホール）","lat":33.5582,"lon":133.547,"state":"active","id":null},{"event_id":"104116","title":"※コロナウィルス感染防止のため中止※Startup Weekend えひめ vol.10（スタートアップ ウイークエンド愛媛） ","url":"https://swehime.doorkeeper.jp/events/104116","shortener_url":null,"started_at":"2020-04-10T18:30:00.000+09:00","ended_at":"2020-04-12T21:00:00.000+09:00","limit_number":65,"address":"愛媛県松山市二番町3丁目7番地12","place":"サイボウズ株式会社　松山オフィス","lat":33.8399,"lon":132.769,"state":"active","id":null},{"event_id":"1424278","title":"STARRY NIGHT JAM vol.59　星語り 春の星空散歩　～南の空の星座たち～","url":"http://snj59.peatix.com","shortener_url":null,"started_at":"2020-04-04T17:00:00.000+09:00","ended_at":"2020-04-07T08:59:59.000+09:00","limit_number":null,"address":"福岡市中央区 六本松4丁目2−1","place":"福岡市科学館","lat":33.5774,"lon":130.378,"state":"active","id":null},{"event_id":"166377","title":".NETラボ 勉強会 2020年4月","url":"https://dotnetlab.connpass.com/event/166377/","shortener_url":"https://bit.ly/2ViXlpr","started_at":"2020-04-25T22:30:00.000+09:00","ended_at":"2020-04-26T03:00:00.000+09:00","limit_number":10000,"address":"東京都港区港南 2-16-3","place":"日本マイクロソフト 品川本社","lat":35.6266,"lon":139.741,"state":"active","id":null},{"event_id":"1437786","title":"【開催中止。詳細文をご確認ください】千葉柏開催 股関節痛を抱えるランナーのための痛み改善教室(4名限定少人数制開催。走りません) リンクフィットネス主催","url":"http://peatix.com/event/1437786","shortener_url":null,"started_at":"2020-04-18T13:00:00.000+09:00","ended_at":"2020-04-21T08:59:59.000+09:00","limit_number":null,"address":"千葉県柏市柏4-4-5メープル柏201","place":"【集合/受付】千葉県柏市 鍼灸マッサージ院FLAT柏","lat":35.863,"lon":139.974,"state":"active","id":null},{"event_id":"1434488","title":"オンライン同時開催【東京4月開催】03：ユーザーのニーズとリテラシーを基準に考える〜UIデザイン","url":"http://peatix.com/event/1434488","shortener_url":null,"started_at":"2020-04-12T13:00:00.000+09:00","ended_at":"2020-04-15T08:59:59.000+09:00","limit_number":null,"address":"千代田区神田鍛冶町3丁目2−2","place":"エッサム神田ホール1号館","lat":35.6935,"lon":139.771,"state":"active","id":null},{"event_id":"1434491","title":"オンライン同時開催【東京4月開催】04：直感的で快適なWEB環境を作る｢スマホ用UIデザイン｣","url":"http://peatix.com/event/1434491","shortener_url":null,"started_at":"2020-04-12T16:45:00.000+09:00","ended_at":"2020-04-15T08:59:59.000+09:00","limit_number":null,"address":"千代田区神田鍛冶町3丁目2−2","place":"エッサム神田ホール1号館","lat":35.6935,"lon":139.771,"state":"active","id":null},{"event_id":"1440396","title":"【4/4(土)】桜の東山 花びらあつめ　桜の季節を迎えた東山を峰から峰へ、桜から桜へ！いつもと違う場所から京都を眺めてみませんか？","url":"http://peatix.com/event/1440396","shortener_url":null,"started_at":"2020-04-04T09:00:00.000+09:00","ended_at":"2020-04-07T08:59:59.000+09:00","limit_number":null,"address":"XQJ9+GX 京都市、京都府","place":"集合場所:京阪電車・JR奈良線「東福寺」駅","lat":34.9813,"lon":135.77,"state":"active","id":null},{"event_id":"1438364","title":"ボイトレのプロが教える、 カラオケ上達術！其の二　腹式呼吸・胸式呼吸編","url":"http://jamws2.peatix.com","shortener_url":null,"started_at":"2020-04-04T16:00:00.000+09:00","ended_at":"2020-04-07T08:59:59.000+09:00","limit_number":null,"address":"墨田区両国4丁目27−13 FONT両国ビル 5F","place":"JAM音楽教室｜ボーカル、ギター、ピアノ","lat":35.6941,"lon":139.795,"state":"active","id":null},{"event_id":"1443332","title":"【満員御礼！！】第１回 オンライン学生ハッカソン","url":"http://remotehackathon.peatix.com","shortener_url":"https://bit.ly/2PSanqg","started_at":"2020-04-25T10:00:00.000+09:00","ended_at":"2020-04-28T08:59:59.000+09:00","limit_number":null,"address":"","place":"xxxonlineeventxxx","lat":0.0,"lon":0.0,"state":"active","id":null},{"event_id":"1443163","title":"こころのお掃除スナック　〜心にすきま、つくりませんか？〜","url":"http://peatix.com/event/1443163","shortener_url":null,"started_at":"2020-04-04T19:00:00.000+09:00","ended_at":"2020-04-07T08:59:59.000+09:00","limit_number":null,"address":"練馬区豊玉北5丁目15−1 ヒルズ京栄6番館 402","place":"《Neriba》コンテンツバー／カフェコワーキング","lat":35.7357,"lon":139.655,"state":"active","id":null},{"event_id":"104991","title":"【4/2（木）・9（木）】初心者向け・２回で学ぶシリーズ①『PythonとJupyterNotebookの基礎』","url":"https://soleildatadojo.doorkeeper.jp/events/104991","shortener_url":null,"started_at":"2020-04-02T19:30:00.000+09:00","ended_at":"2020-04-09T21:30:00.000+09:00","limit_number":5,"address":"大阪府大阪市北区西天満二丁目5番3号(堂島深川ビル3階)","place":"SCRIBBLE OSAKA LAB（SOL）（大阪メトロ御堂筋線「淀屋橋」駅から徒歩４分）","lat":34.6951,"lon":135.502,"state":"active","id":null},{"event_id":"1444448","title":"5月延期決定【BlockchainWorldValley】4月BCアカデミー\u0026アイデアソン　開校説明会\u0026実装社ピッチ","url":"http://peatix.com/event/1444448","shortener_url":"https://bit.ly/2TzWZJQ","started_at":"2020-04-01T06:30:00.000+09:00","ended_at":"2020-04-03T08:59:59.000+09:00","limit_number":null,"address":"東京都千代田区平河町1-4-3 平河町伏見ビル 2F","place":"Co-CreationLABO　18:00開場　半蔵門駅5分","lat":35.6828,"lon":139.739,"state":"active","id":null},{"event_id":"170611","title":"熊ゆに Unityもくもく会　2020/04/05（日）","url":"https://kumauni.connpass.com/event/170611/","shortener_url":null,"started_at":"2020-04-05T13:00:00.000+09:00","ended_at":"2020-04-05T16:00:00.000+09:00","limit_number":10,"address":"熊本県熊本市 中央区下通１丁目１２−２７","place":"未来会議室","lat":32.7999,"lon":130.708,"state":"active","id":null},{"event_id":"1446643","title":"【ハイステータスな出会いのある婚活】最高のパートナーとワンランク上のデートしませんか？","url":"http://chane-0411ginza.peatix.com","shortener_url":null,"started_at":"2020-04-11T15:00:00.000+09:00","ended_at":"2020-04-14T08:59:59.000+09:00","limit_number":null,"address":"東京都中央区銀座1-5-13","place":"ゼットエックス銀座ビル10F〜パノラマラウンジ〜","lat":35.6748,"lon":139.767,"state":"active","id":null},{"event_id":"1446634","title":"貴方の遺伝子はウイルスに抵抗できるのか？！【この遺伝子セミナーを見る前に他の遺伝子検査を受けることは考えてはいけません！】遺伝子は語る！生活習慣に関連する遺伝子＆腸内フローラ検査からわかる将来の健康リスクと対処法とは？","url":"http://peatix.com/event/1446634","shortener_url":null,"started_at":"2020-04-14T19:00:00.000+09:00","ended_at":"2020-04-17T08:59:59.000+09:00","limit_number":null,"address":"世田谷区 粕谷4丁目19−6-2F","place":"トータルヘルスケアハーブ","lat":35.6646,"lon":139.603,"state":"active","id":null},{"event_id":"105086","title":"StartupWeekend関門2ndキックオフ","url":"https://swkanmon.doorkeeper.jp/events/105086","shortener_url":null,"started_at":"2020-04-04T15:00:00.000+09:00","ended_at":"2020-04-04T17:00:00.000+09:00","limit_number":20,"address":"福岡県北九州市門司区東港町4-68","place":"ZATTA ZISSE","lat":33.9517,"lon":130.964,"state":"active","id":null},{"event_id":"105104","title":"【4/3（金）・4/10（金）】初心者向け・２回で学ぶシリーズ②『Pandasによるデータ前処理と可視化の基礎』","url":"https://soleildatadojo.doorkeeper.jp/events/105104","shortener_url":null,"started_at":"2020-04-03T19:30:00.000+09:00","ended_at":"2020-04-10T21:30:00.000+09:00","limit_number":4,"address":"大阪府大阪市北区西天満二丁目5番3号(堂島深川ビル3階)","place":"SCRIBBLE OSAKA LAB（SOL）（大阪メトロ御堂筋線「淀屋橋」駅から徒歩４分）","lat":34.6951,"lon":135.502,"state":"active","id":null},{"event_id":"171102","title":"【IT業界に興味がある方向け】MESHでIoTプログラマ体験#8","url":"https://techseed.connpass.com/event/171102/","shortener_url":null,"started_at":"2020-04-21T12:00:00.000+09:00","ended_at":"2020-04-21T17:00:00.000+09:00","limit_number":10,"address":"千代田区神田富山町5-1 神田ビジネスキューブ 7F","place":"神田Room(会議室５)","lat":35.6939,"lon":139.773,"state":"active","id":null},{"event_id":"171100","title":"【IT業界に興味がある方向け】MESHでIoTプログラマ体験#7","url":"https://techseed.connpass.com/event/171100/","shortener_url":null,"started_at":"2020-04-09T12:00:00.000+09:00","ended_at":"2020-04-09T17:00:00.000+09:00","limit_number":10,"address":"千代田区神田富山町5-1 神田ビジネスキューブ 8F","place":"神田Room(会議室2)","lat":35.6939,"lon":139.773,"state":"active","id":null},{"event_id":"105195","title":"★2カ月で実装力を磨く！TensorFlowとKeras勉強会#4","url":"https://soleildatadojo.doorkeeper.jp/events/105195","shortener_url":null,"started_at":"2020-04-07T19:30:00.000+09:00","ended_at":"2020-04-07T21:30:00.000+09:00","limit_number":8,"address":"大阪府大阪市北区西天満二丁目5番3号(堂島深川ビル3階)","place":"SCRIBBLE OSAKA LAB（SOL）（大阪メトロ御堂筋線「淀屋橋」駅から徒歩４分）","lat":34.6951,"lon":135.502,"state":"active","id":null},{"event_id":"1449407","title":"【オンライン開催】まさみんの筆文字セミナー","url":"http://peatix.com/event/1449407","shortener_url":null,"started_at":"2020-04-07T10:00:00.000+09:00","ended_at":"2020-04-10T08:59:59.000+09:00","limit_number":null,"address":"","place":"xxxonlineeventxxx","lat":0.0,"lon":0.0,"state":"active","id":null},{"event_id":"1449028","title":"【全職種対象】kay me採用イベント～グローバル展開するD2Cベンチャー、kay meの働き方についてお茶しながら語りませんか？～","url":"http://kayme-recruit0419.peatix.com","shortener_url":null,"started_at":"2020-04-19T11:00:00.000+09:00","ended_at":"2020-04-22T08:59:59.000+09:00","limit_number":null,"address":"新宿区新宿3丁目13−5","place":"kay me Lounge（新宿）","lat":35.6921,"lon":139.706,"state":"active","id":null},{"event_id":"1449844","title":"【オンライン読書会】私たちは死んだらどうなるのかを、世界の宗教の歴史から考えてみる。『人は「死後の世界」をどう考えてきたか』を読む。４月の「本で遊ぶじかん」","url":"http://peatix.com/event/1449844","shortener_url":null,"started_at":"2020-04-15T19:00:00.000+09:00","ended_at":"2020-04-18T08:59:59.000+09:00","limit_number":null,"address":"","place":"xxxonlineeventxxx","lat":0.0,"lon":0.0,"state":"active","id":null},{"event_id":"1449946","title":"はらだんが阿佐ヶ谷ロフトAでガヤガヤする会～はらガヤ会～","url":"http://haragayakai.peatix.com","shortener_url":null,"started_at":"2020-04-12T19:30:00.000+09:00","ended_at":"2020-04-15T08:59:59.000+09:00","limit_number":null,"address":"杉並区阿佐谷南1丁目36−19","place":"Asagaya/Loft A","lat":35.7034,"lon":139.637,"state":"active","id":null},{"event_id":"1446554","title":"【3社限定＆無料】WHITE役員が孤独な新規事業担当者のお悩みなんでもアドバイス＆アイデアブレストお手伝い(オンライン開催)","url":"http://peatix.com/event/1446554","shortener_url":null,"started_at":"2020-04-13T13:00:00.000+09:00","ended_at":"2020-04-16T08:59:59.000+09:00","limit_number":null,"address":"","place":"xxxonlineeventxxx","lat":0.0,"lon":0.0,"state":"active","id":null},{"event_id":"1449971","title":"オンライン【4月開催】著名企業のUIデザインを性能で比較する①「ユーザー視点のインタフェース編」","url":"http://peatix.com/event/1449971","shortener_url":null,"started_at":"2020-04-04T14:00:00.000+09:00","ended_at":"2020-04-07T08:59:59.000+09:00","limit_number":null,"address":"","place":"xxxonlineeventxxx","lat":0.0,"lon":0.0,"state":"active","id":null},{"event_id":"1450216","title":"オンライン一括受講割引【福岡・博多2020年4月開催】他では絶対教えてくれないUIデザインのワザをたっぷり学ぶ《基礎・応用編》","url":"http://peatix.com/event/1450216","shortener_url":null,"started_at":"2020-04-18T09:15:00.000+09:00","ended_at":"2020-04-21T08:59:59.000+09:00","limit_number":null,"address":"","place":"xxxonlineeventxxx","lat":0.0,"lon":0.0,"state":"active","id":null},{"event_id":"1450219","title":"オンライン【福岡・博多4月開催・個別】03：ユーザーのニーズとリテラシーを基準に考える〜UIデザイン","url":"http://peatix.com/event/1450219","shortener_url":null,"started_at":"2020-04-18T13:30:00.000+09:00","ended_at":"2020-04-21T08:59:59.000+09:00","limit_number":null,"address":"","place":"xxxonlineeventxxx","lat":0.0,"lon":0.0,"state":"active","id":null},{"event_id":"1450218","title":"オンライン【福岡・博多4月開催・個別】02：UIデザインの常識を改める「認知学から学ぶUIの基本」","url":"http://peatix.com/event/1450218","shortener_url":null,"started_at":"2020-04-18T09:15:00.000+09:00","ended_at":"2020-04-21T08:59:59.000+09:00","limit_number":null,"address":"","place":"xxxonlineeventxxx","lat":0.0,"lon":0.0,"state":"active","id":null},{"event_id":"1450220","title":"オンライン【福岡・博多4月開催・個別】04：直感的で快適なWEB環境を作る｢スマホ用UIデザイン｣","url":"http://peatix.com/event/1450220","shortener_url":null,"started_at":"2020-04-18T17:30:00.000+09:00","ended_at":"2020-04-21T08:59:59.000+09:00","limit_number":null,"address":"","place":"xxxonlineeventxxx","lat":0.0,"lon":0.0,"state":"active","id":null},{"event_id":"171596","title":"【中止】第698回 Zapier/Slack業務自動化ハッカソン(AIで時間や工数を短縮しよう)","url":"https://teamai.connpass.com/event/171596/","shortener_url":"https://bit.ly/2xijpGM","started_at":"2020-04-08T19:30:00.000+09:00","ended_at":"2020-04-08T21:30:00.000+09:00","limit_number":22,"address":"","place":"Online","lat":35.6618,"lon":139.696,"state":"active","id":null},{"event_id":"1451289","title":"もうただの御1人様とは呼ばせませんてbar 〜バレンタインデー△/ホワイトデー△/ブラックデー◯〜","url":"http://peatix.com/event/1451289","shortener_url":null,"started_at":"2020-04-13T20:00:00.000+09:00","ended_at":"2020-04-16T08:59:59.000+09:00","limit_number":null,"address":"練馬区豊玉北5丁目15−1 ヒルズ京栄6番館 402","place":"《Neriba》コンテンツバー／カフェコワーキング","lat":35.7357,"lon":139.655,"state":"active","id":null},{"event_id":"171577","title":"プレ最強ゲームジャム","url":"https://sanuki-gamen.connpass.com/event/171577/","shortener_url":"https://bit.ly/39lINbW","started_at":"2020-04-18T19:00:00.000+09:00","ended_at":"2020-04-20T02:00:00.000+09:00","limit_number":null,"address":"高松市亀井町10番地3","place":"燈屋","lat":34.3393,"lon":134.049,"state":"active","id":null},{"event_id":"1452089","title":"Bar通い、始めてみませんか？　英仏エクセレントガイドのBarオーナーによるBar入門編。　（座学＋ティスティング）","url":"http://bar-0409.peatix.com","shortener_url":null,"started_at":"2020-04-09T16:00:00.000+09:00","ended_at":"2020-04-12T08:59:59.000+09:00","limit_number":null,"address":"東京都目黒区自由が丘1-10-5","place":"ミントンハウス　（タイガービル　Ｂ１Ｆ）","lat":35.6077,"lon":139.669,"state":"active","id":null},{"event_id":"1452079","title":"Bar通い、始めてみませんか？　英仏エクセレントガイドのBarオーナーによるBar入門編。　（座学＋ティスティング）","url":"http://bar-0407.peatix.com","shortener_url":null,"started_at":"2020-04-07T16:00:00.000+09:00","ended_at":"2020-04-10T08:59:59.000+09:00","limit_number":null,"address":"東京都目黒区自由が丘1-10-5","place":"ミントンハウス　（タイガービル　Ｂ１Ｆ）","lat":35.6077,"lon":139.669,"state":"active","id":null},{"event_id":"1452124","title":"【募集終了】千葉柏開催 腰痛を抱えるランナーのための痛み改善教室(4名限定少人数制開催。走りません) リンクフィットネス主催","url":"http://peatix.com/event/1452124","shortener_url":null,"started_at":"2020-04-04T13:00:00.000+09:00","ended_at":"2020-04-07T08:59:59.000+09:00","limit_number":null,"address":"千葉県柏市柏4-4-5メープル柏201","place":"【集合/受付】千葉県柏市 鍼灸マッサージ院FLAT柏","lat":35.863,"lon":139.974,"state":"active","id":null},{"event_id":"172171","title":"【リモート（Zoom）で再開】なんでもモクモク会＋プチ講座＠よこはま#21","url":"https://moku-moku-yokohama.connpass.com/event/172171/","shortener_url":null,"started_at":"2020-04-04T10:00:00.000+09:00","ended_at":"2020-04-04T18:00:00.000+09:00","limit_number":13,"address":"横浜市西区みなとみらい 3-7-1","place":"OCEAN GATE MINATO MIRAI@WeWork","lat":35.4581,"lon":139.634,"state":"active","id":null},{"event_id":"1453320","title":"Firebase Online Study Jam \u0026 Office Hour","url":"http://gdgkl-study-jam-2020.peatix.com","shortener_url":null,"started_at":"2020-04-04T10:00:00.000+09:00","ended_at":"2020-04-07T08:59:59.000+09:00","limit_number":null,"address":"","place":"xxxonlineeventxxx","lat":0.0,"lon":0.0,"state":"active","id":null},{"event_id":"1454243","title":"[1日限定]グリーンサービスプロデューサーアイデアソン","url":"http://peatix.com/event/1454243","shortener_url":"https://bit.ly/2UCJppz","started_at":"2020-04-11T10:00:00.000+09:00","ended_at":"2020-04-14T08:59:59.000+09:00","limit_number":null,"address":"","place":"xxxonlineeventxxx","lat":0.0,"lon":0.0,"state":"active","id":null},{"event_id":"1453641","title":"自分理念・経営理念形成攻略合宿","url":"http://huntercityzy.peatix.com","shortener_url":null,"started_at":"2020-04-05T10:00:00.000+09:00","ended_at":"2020-04-08T08:59:59.000+09:00","limit_number":null,"address":"","place":"xxxonlineeventxxx","lat":0.0,"lon":0.0,"state":"active","id":null},{"event_id":"105717","title":"［オンライン］Startup Weekend Cebu座談会","url":"https://swtokyo.doorkeeper.jp/events/105717","shortener_url":null,"started_at":"2020-04-04T22:00:00.000+09:00","ended_at":"2020-04-04T23:00:00.000+09:00","limit_number":10,"address":"Zoom","place":"Zoom","lat":null,"lon":null,"state":"active","id":null},{"event_id":"1448336","title":"※皆様、現在開催を再検討しております。ご迷惑おかけして申し訳ありません。　マーキュリーアカデミー第65回　本物の『醤油を知る!!』 ～木桶で仕込んだ嗜好品としての味わい～","url":"http://peatix.com/event/1448336","shortener_url":null,"started_at":"2020-04-09T19:00:00.000+09:00","ended_at":"2020-04-12T08:59:59.000+09:00","limit_number":null,"address":"千代田区神田駿河台3丁目2−11","place":"連合会館","lat":35.6958,"lon":139.765,"state":"active","id":null},{"event_id":"169408","title":"Oracleのビッグデータ系サーバレス・サービスを吟味しよう！","url":"https://oracle-code-tokyo-dev.connpass.com/event/169408/","shortener_url":null,"started_at":"2020-04-24T18:30:00.000+09:00","ended_at":"2020-04-24T21:00:00.000+09:00","limit_number":null,"address":"オンライン","place":"Zoom","lat":null,"lon":null,"state":"active","id":null},{"event_id":"172515","title":"CoderDojo伊勢 オンライン勉強会(自宅で参加するプログラミング勉強会)","url":"https://coderdojo-ise.connpass.com/event/172515/","shortener_url":null,"started_at":"2020-04-12T13:30:00.000+09:00","ended_at":"2020-04-12T14:10:00.000+09:00","limit_number":10,"address":"","place":"","lat":null,"lon":null,"state":"active","id":null},{"event_id":"1455177","title":"[1日限定]グリーンサービスプロデューサーアイデアソン","url":"http://gsp0425.peatix.com","shortener_url":"https://bit.ly/3aPhHvi","started_at":"2020-04-25T14:00:00.000+09:00","ended_at":"2020-04-28T08:59:59.000+09:00","limit_number":null,"address":"","place":"xxxonlineeventxxx","lat":0.0,"lon":0.0,"state":"active","id":null},{"event_id":"1456049","title":"オンライン【東京4月開催】02：UIデザインの常識を改める「認知学から学ぶUIの基本」","url":"http://peatix.com/event/1456049","shortener_url":null,"started_at":"2020-04-11T15:45:00.000+09:00","ended_at":"2020-04-14T08:59:59.000+09:00","limit_number":null,"address":"","place":"xxxonlineeventxxx","lat":0.0,"lon":0.0,"state":"active","id":null},{"event_id":"172694","title":"【中止】【オンライン】Kaggle メディカルデータ分析ハッカソン【開始時間注意】16:00からです","url":"https://teamai.connpass.com/event/172694/","shortener_url":"https://bit.ly/2Xm1YAh","started_at":"2020-04-18T16:00:00.000+09:00","ended_at":"2020-04-18T18:00:00.000+09:00","limit_number":24,"address":"Online(Zoom)","place":"Online(Zoom)","lat":37.0902,"lon":-95.7129,"state":"active","id":null},{"event_id":"172678","title":"【リモート（Zoom）で再開】なんでもモクモク会＋プチ講座＠よこはま#22","url":"https://moku-moku-yokohama.connpass.com/event/172678/","shortener_url":null,"started_at":"2020-04-11T10:00:00.000+09:00","ended_at":"2020-04-11T18:00:00.000+09:00","limit_number":13,"address":"横浜市西区みなとみらい 3-7-1","place":"OCEAN GATE MINATO MIRAI@WeWork","lat":35.4581,"lon":139.634,"state":"active","id":null},{"event_id":"172619","title":"スクラム道関西 オープン・ジャム・オンライン","url":"https://scrumdo-kansai.connpass.com/event/172619/","shortener_url":null,"started_at":"2020-04-15T19:30:00.000+09:00","ended_at":"2020-04-15T21:30:00.000+09:00","limit_number":17,"address":"オンライン","place":"オンライン","lat":null,"lon":null,"state":"active","id":null},{"event_id":"1455491","title":"あなたの英語の発音をネイティブな発音に矯正しませんか？ #1","url":"http://world-ed1.peatix.com","shortener_url":null,"started_at":"2020-04-17T14:00:00.000+09:00","ended_at":"2020-04-20T08:59:59.000+09:00","limit_number":null,"address":"","place":"xxxonlineeventxxx","lat":0.0,"lon":0.0,"state":"active","id":null},{"event_id":"1455694","title":"【英会話】あなたの英語の発音をネイティブな発音に矯正しませんか？ #2","url":"http://world-ed2.peatix.com","shortener_url":null,"started_at":"2020-04-24T14:00:00.000+09:00","ended_at":"2020-04-27T08:59:59.000+09:00","limit_number":null,"address":"","place":"xxxonlineeventxxx","lat":0.0,"lon":0.0,"state":"active","id":null},{"event_id":"1456565","title":"パラキャリ酒場Online #1 外出できない今こそ、SNSをテコ入れしませんか？【無料/要予約】","url":"http://parakyari0412.peatix.com","shortener_url":null,"started_at":"2020-04-12T20:00:00.000+09:00","ended_at":"2020-04-15T08:59:59.000+09:00","limit_number":null,"address":"無料チケットをご予約の方にURLをお送りします","place":"zoomにてオンライン開催！","lat":0.0,"lon":0.0,"state":"active","id":null},{"event_id":"1457630","title":"【組織作り】レスリング日本一10回・アジア2位の知見を、組織作り・採用戦略に活かしてみませんか？ #1","url":"http://peatix.com/event/1457630","shortener_url":null,"started_at":"2020-04-11T13:00:00.000+09:00","ended_at":"2020-04-14T08:59:59.000+09:00","limit_number":null,"address":"","place":"xxxonlineeventxxx","lat":0.0,"lon":0.0,"state":"active","id":null},{"event_id":"105804","title":"［WEB座談会］アフターコロナにおけるアニメビジネスの可能性","url":"https://swtokyo.doorkeeper.jp/events/105804","shortener_url":null,"started_at":"2020-04-25T22:00:00.000+09:00","ended_at":"2020-04-25T23:00:00.000+09:00","limit_number":10,"address":"Zoom","place":"","lat":null,"lon":null,"state":"active","id":null},{"event_id":"1457186","title":"ゆかりんひかりんと！おうちでのんびりんタイム ♯１","url":"http://peatix.com/event/1457186","shortener_url":null,"started_at":"2020-04-09T15:00:00.000+09:00","ended_at":"2020-04-12T08:59:59.000+09:00","limit_number":null,"address":"","place":"xxxonlineeventxxx","lat":0.0,"lon":0.0,"state":"active","id":null},{"event_id":"1456410","title":"私が受けたいオンライン講座 #1  〜お試し企画　自宅からドイツへ繋がりませんか？　編〜","url":"http://watashino-online.peatix.com","shortener_url":null,"started_at":"2020-04-12T20:00:00.000+09:00","ended_at":"2020-04-15T08:59:59.000+09:00","limit_number":null,"address":"","place":"xxxonlineeventxxx","lat":0.0,"lon":0.0,"state":"active","id":null},{"event_id":"105856","title":"【オンライン】ウェブ解析士協会コンテンツハッカソン - グローバルナビをハックせよ","url":"https://web-mining.doorkeeper.jp/events/105856","shortener_url":"https://bit.ly/2ViyrVn","started_at":"2020-04-29T10:00:00.000+09:00","ended_at":"2020-04-29T15:00:00.000+09:00","limit_number":10,"address":"オンライン(Zoom)","place":"","lat":null,"lon":null,"state":"active","id":null},{"event_id":"1457638","title":"コミュニティトーク〜好奇心がさせることってなんだろ編〜","url":"http://kokishin-hajimari.peatix.com","shortener_url":null,"started_at":"2020-04-13T12:00:00.000+09:00","ended_at":"2020-04-16T08:59:59.000+09:00","limit_number":null,"address":"","place":"xxxonlineeventxxx","lat":0.0,"lon":0.0,"state":"active","id":null},{"event_id":"1458209","title":"【オンライン飲み会】ビールおねえさん古賀麻里沙のビール時間。みんなで乾杯しませんか？＜第一回＞","url":"http://ienomi-arisa.peatix.com","shortener_url":null,"started_at":"2020-04-17T19:00:00.000+09:00","ended_at":"2020-04-20T08:59:59.000+09:00","limit_number":null,"address":"","place":"xxxonlineeventxxx","lat":0.0,"lon":0.0,"state":"active","id":null},{"event_id":"173175","title":"【リモートで再開】なんでもモクモク会＋プチ講座＠よこはま#23","url":"https://moku-moku-yokohama.connpass.com/event/173175/","shortener_url":null,"started_at":"2020-04-12T10:00:00.000+09:00","ended_at":"2020-04-12T18:00:00.000+09:00","limit_number":13,"address":"横浜市西区みなとみらい 3-7-1","place":"OCEAN GATE MINATO MIRAI@WeWork","lat":35.4581,"lon":139.634,"state":"active","id":null},{"event_id":"105904","title":"【女性限定/オンライン】第1回 Java女子部ぽんしゅ館 #javajo","url":"https://javajo.doorkeeper.jp/events/105904","shortener_url":null,"started_at":"2020-04-19T14:00:00.000+09:00","ended_at":"2020-04-19T17:00:00.000+09:00","limit_number":15,"address":"オンライン","place":"zoom かTeams でやります(未定)","lat":null,"lon":null,"state":"active","id":null},{"event_id":"105865","title":"［WEB］Startup Weekend 名古屋 座談会","url":"https://swnagoya.doorkeeper.jp/events/105865","shortener_url":null,"started_at":"2020-04-18T22:00:00.000+09:00","ended_at":"2020-04-18T23:00:00.000+09:00","limit_number":10,"address":"Zoom","place":"","lat":null,"lon":null,"state":"active","id":null},{"event_id":"173196","title":"CoderDojo伊勢 オンライン勉強会(自宅で参加するプログラミング勉強会)","url":"https://coderdojo-ise.connpass.com/event/173196/","shortener_url":null,"started_at":"2020-04-19T13:30:00.000+09:00","ended_at":"2020-04-19T15:30:00.000+09:00","limit_number":10,"address":"オンライン","place":"各自の自宅など","lat":null,"lon":null,"state":"active","id":null},{"event_id":"105948","title":"Startup Weekend Niigata mini Vol.3 in 十日町【10名限定】オンライン参加も可能！","url":"https://swniigata.doorkeeper.jp/events/105948","shortener_url":null,"started_at":"2020-04-24T20:00:00.000+09:00","ended_at":"2020-04-26T22:00:00.000+09:00","limit_number":10,"address":"新潟県十日町市未甲263番地","place":"ギルドハウス十日町","lat":37.1262,"lon":138.809,"state":"active","id":null},{"event_id":"172817","title":"cluster広島LT大会 #1 〜コロナなんかに負けないぜ！","url":"https://hmcn.connpass.com/event/172817/","shortener_url":null,"started_at":"2020-04-25T18:00:00.000+09:00","ended_at":"2020-04-25T19:15:00.000+09:00","limit_number":null,"address":"","place":"オンライン","lat":null,"lon":null,"state":"active","id":null},{"event_id":"173948","title":"学びを止めるな！オンラインアイデアソン～衛星データ入門編～","url":"https://startupgarage.connpass.com/event/173948/","shortener_url":"https://bit.ly/34KwtRX","started_at":"2020-04-30T13:30:00.000+09:00","ended_at":"2020-04-30T15:30:00.000+09:00","limit_number":45,"address":"愛知県豊橋市西幸町333-1","place":"StartupGarage","lat":34.7216,"lon":137.412,"state":"active","id":null},{"event_id":"173978","title":"【リモートで再開】なんでもモクモク会＋プチ講座＠よこはま#24","url":"https://moku-moku-yokohama.connpass.com/event/173978/","shortener_url":null,"started_at":"2020-04-19T10:00:00.000+09:00","ended_at":"2020-04-19T18:00:00.000+09:00","limit_number":13,"address":"横浜市西区みなとみらい 3-7-1","place":"OCEAN GATE MINATO MIRAI@WeWork","lat":35.4581,"lon":139.634,"state":"active","id":null},{"event_id":"173842","title":"UX JAM Online #03","url":"https://uxmilk.connpass.com/event/173842/","shortener_url":null,"started_at":"2020-04-23T19:30:00.000+09:00","ended_at":"2020-04-23T21:30:00.000+09:00","limit_number":1200,"address":"","place":"オンライン","lat":null,"lon":null,"state":"active","id":null},{"event_id":"173155","title":"PCNひろしま スタッフ勉強会 オンライン","url":"https://pcn-hiroshima.connpass.com/event/173155/","shortener_url":null,"started_at":"2020-04-22T19:00:00.000+09:00","ended_at":"2020-04-22T21:00:00.000+09:00","limit_number":20,"address":"広島県広島市南区松原町９−１ 福屋広島駅前店 11F","place":"コワーキングスペースShakeHands 福屋広島駅前店","lat":34.3964,"lon":132.474,"state":"active","id":null},{"event_id":"1462339","title":"ミレニアルとZの狭間で ～ねぇ優しさってなんだと思う？～","url":"http://yasashisa.peatix.com","shortener_url":null,"started_at":"2020-04-25T20:00:00.000+09:00","ended_at":"2020-04-28T08:59:59.000+09:00","limit_number":null,"address":"","place":"xxxonlineeventxxx","lat":0.0,"lon":0.0,"state":"active","id":null},{"event_id":"1462026","title":"Bonin Cafe 第0回 〜小笠原諸島の好きなところ、語りませんか？〜","url":"http://bonincafe-0.peatix.com","shortener_url":null,"started_at":"2020-04-19T10:00:00.000+09:00","ended_at":"2020-04-22T08:59:59.000+09:00","limit_number":null,"address":"","place":"xxxonlineeventxxx","lat":0.0,"lon":0.0,"state":"active","id":null},{"event_id":"1458269","title":"人生会議 ～人生の最終段階における医療・ケアについて話し合ってみませんか","url":"http://peatix.com/event/1458269","shortener_url":null,"started_at":"2020-04-19T13:00:00.000+09:00","ended_at":"2020-04-22T08:59:59.000+09:00","limit_number":null,"address":"","place":"xxxonlineeventxxx","lat":0.0,"lon":0.0,"state":"active","id":null},{"event_id":"1460891","title":"zoomで開催！みんなで知的に話そう◆テーマ『ゴーストレストランてなーんだ？』からはじまるデザイナーズトーク Number 1","url":"http://peatix.com/event/1460891","shortener_url":null,"started_at":"2020-04-18T19:30:00.000+09:00","ended_at":"2020-04-21T08:59:59.000+09:00","limit_number":null,"address":"","place":"xxxonlineeventxxx","lat":0.0,"lon":0.0,"state":"active","id":null},{"event_id":"1461802","title":"【満席】アートと対話のあいだ～視点が拡がる瞬間～","url":"http://artdialog-001.peatix.com","shortener_url":null,"started_at":"2020-04-19T08:00:00.000+09:00","ended_at":"2020-04-21T08:59:59.000+09:00","limit_number":null,"address":"詳細はお申し込みいただいた方に直接お伝えします。","place":"ZOOM","lat":0.0,"lon":0.0,"state":"active","id":null},{"event_id":"1462121","title":"Hack Care - COVID-19 Mental Resilience Mini Hackathon","url":"http://hackcare1.peatix.com","shortener_url":"https://bit.ly/2XOADXx","started_at":"2020-04-30T16:00:00.000+09:00","ended_at":"2020-05-03T08:59:59.000+09:00","limit_number":null,"address":"","place":"xxxonlineeventxxx","lat":0.0,"lon":0.0,"state":"active","id":null},{"event_id":"1463660","title":"オンライン旅人Bar - with コロナ時代に旅人ができることってなんだ？","url":"http://travelersbar-online202004.peatix.com","shortener_url":null,"started_at":"2020-04-23T20:00:00.000+09:00","ended_at":"2020-04-26T08:59:59.000+09:00","limit_number":null,"address":"","place":"xxxonlineeventxxx","lat":0.0,"lon":0.0,"state":"active","id":null},{"event_id":"1463592","title":"オンライン：第3回文蔵組落語会　ゲスト：立川談春師匠　※アーカイブ対応は行いません","url":"http://bunzougumi3.peatix.com","shortener_url":null,"started_at":"2020-04-22T19:30:00.000+09:00","ended_at":"2020-04-25T08:59:59.000+09:00","limit_number":null,"address":"","place":"xxxonlineeventxxx","lat":0.0,"lon":0.0,"state":"active","id":null},{"event_id":"1462985","title":"お家で手帳タイム！イエチッタしませんか？","url":"http://citta20200425.peatix.com","shortener_url":null,"started_at":"2020-04-25T09:00:00.000+09:00","ended_at":"2020-04-28T08:59:59.000+09:00","limit_number":null,"address":"","place":"xxxonlineeventxxx","lat":0.0,"lon":0.0,"state":"active","id":null},{"event_id":"1465608","title":"2020年春学期 ５月開講！社会起業大学 学校説明会　社会起業の初めの一歩で必要なことを学びませんか？【オンライン開催】","url":"http://peatix.com/event/1465608","shortener_url":null,"started_at":"2020-04-23T19:00:00.000+09:00","ended_at":"2020-04-26T08:59:59.000+09:00","limit_number":null,"address":"東京都千代田区二番町2番平田ビル1階","place":"社会起業大学","lat":35.687,"lon":139.738,"state":"active","id":null},{"event_id":"1465616","title":"2020年春学期 ５月開講！社会起業大学 学校説明会　社会起業の初めの一歩で必要なことを学びませんか？【オンライン開催】","url":"http://peatix.com/event/1465616","shortener_url":null,"started_at":"2020-04-23T20:00:00.000+09:00","ended_at":"2020-04-26T08:59:59.000+09:00","limit_number":null,"address":"東京都千代田区二番町2番平田ビル1階","place":"社会起業大学","lat":35.687,"lon":139.738,"state":"active","id":null},{"event_id":"1463115","title":"★オンライン朝活に参加して、テレワーク中もスキルアップしませんか？「職場の人間関係を良好にしたいあなたへ」自然と周囲に人が集まる【とっておきの3つのコツ】伝授。＼30名様限定／診断＆アドバイスつき","url":"http://peatix.com/event/1463115","shortener_url":null,"started_at":"2020-04-26T11:00:00.000+09:00","ended_at":"2020-04-29T08:59:59.000+09:00","limit_number":null,"address":"","place":"xxxonlineeventxxx","lat":0.0,"lon":0.0,"state":"active","id":null},{"event_id":"173044","title":"【Dojo番外編】IBM Developer Online Lab: Seoul and Tokyo","url":"https://ibm-developer.connpass.com/event/173044/","shortener_url":null,"started_at":"2020-04-28T19:00:00.000+09:00","ended_at":"2020-04-28T21:00:00.000+09:00","limit_number":null,"address":"イベント説明欄参照","place":"オンライン","lat":null,"lon":null,"state":"active","id":null},{"event_id":"1464142","title":"オンライン講座5：スマホサイトを快適にするナビゲーション性能","url":"http://peatix.com/event/1464142","shortener_url":null,"started_at":"2020-04-26T19:00:00.000+09:00","ended_at":"2020-04-29T08:59:59.000+09:00","limit_number":null,"address":"","place":"xxxonlineeventxxx","lat":0.0,"lon":0.0,"state":"active","id":null},{"event_id":"1464119","title":"【オンライン開催3回コース】05：提案の説得力を高める「ユーザー視点のUI設計＆提案書」","url":"http://peatix.com/event/1464119","shortener_url":null,"started_at":"2020-04-28T19:00:00.000+09:00","ended_at":"2020-05-01T08:59:59.000+09:00","limit_number":null,"address":"","place":"xxxonlineeventxxx","lat":0.0,"lon":0.0,"state":"active","id":null},{"event_id":"1464136","title":"オンライン講座４：良い悪いが比べてわかる！使いやすいナビゲーション","url":"http://peatix.com/event/1464136","shortener_url":null,"started_at":"2020-04-26T17:00:00.000+09:00","ended_at":"2020-04-29T08:59:59.000+09:00","limit_number":null,"address":"","place":"xxxonlineeventxxx","lat":0.0,"lon":0.0,"state":"active","id":null},{"event_id":"1466556","title":"AEハッカソン 02","url":"http://aetenkaichi02.peatix.com","shortener_url":"https://bit.ly/3eMpM6n","started_at":"2020-04-24T22:00:00.000+09:00","ended_at":"2020-04-27T08:59:59.000+09:00","limit_number":null,"address":"","place":"xxxonlineeventxxx","lat":0.0,"lon":0.0,"state":"active","id":null},{"event_id":"1467225","title":"【オンラインBAR】エラマ哲学バー #2 フィンランドの教育ってどんなん？","url":"http://20200425elamabar.peatix.com","shortener_url":null,"started_at":"2020-04-25T19:00:00.000+09:00","ended_at":"2020-04-28T08:59:59.000+09:00","limit_number":null,"address":"","place":"xxxonlineeventxxx","lat":0.0,"lon":0.0,"state":"active","id":null},{"event_id":"174534","title":"【リモートで再開】なんでもモクモク会＋プチ講座＠よこはま#25","url":"https://moku-moku-yokohama.connpass.com/event/174534/","shortener_url":null,"started_at":"2020-04-26T10:00:00.000+09:00","ended_at":"2020-04-26T18:00:00.000+09:00","limit_number":13,"address":"横浜市西区みなとみらい 3-7-1","place":"OCEAN GATE MINATO MIRAI@WeWork","lat":35.4581,"lon":139.634,"state":"active","id":null},{"event_id":"1468215","title":"2020年春学期 ５月開講！社会起業大学 学校説明会　社会起業の初めの一歩で必要なことを学びませんか？【オンライン開催】","url":"http://peatix.com/event/1468215","shortener_url":null,"started_at":"2020-04-30T20:00:00.000+09:00","ended_at":"2020-05-03T08:59:59.000+09:00","limit_number":null,"address":"東京都千代田区二番町2番平田ビル1階","place":"社会起業大学","lat":35.687,"lon":139.738,"state":"active","id":null},{"event_id":"1468211","title":"2020年春学期 ５月開講！社会起業大学 学校説明会　社会起業の初めの一歩で必要なことを学びませんか？【オンライン開催】","url":"http://peatix.com/event/1468211","shortener_url":null,"started_at":"2020-04-30T19:00:00.000+09:00","ended_at":"2020-05-03T08:59:59.000+09:00","limit_number":null,"address":"東京都千代田区二番町2番平田ビル1階","place":"社会起業大学","lat":35.687,"lon":139.738,"state":"active","id":null},{"event_id":"1470320","title":"「くびれ作りませんか？」シェイプアップトレーニング(4/30)","url":"http://peatix.com/event/1470320","shortener_url":null,"started_at":"2020-04-30T19:30:00.000+09:00","ended_at":"2020-05-03T08:59:59.000+09:00","limit_number":null,"address":"","place":"xxxonlineeventxxx","lat":0.0,"lon":0.0,"state":"active","id":null},{"event_id":"1468845","title":"4/30木　ゆるゆる気功でわたしになるBe myselfじかん","url":"http://200430.peatix.com","shortener_url":null,"started_at":"2020-04-30T10:00:00.000+09:00","ended_at":"2020-05-03T08:59:59.000+09:00","limit_number":null,"address":"","place":"xxxonlineeventxxx","lat":0.0,"lon":0.0,"state":"active","id":null},{"event_id":"1471991","title":"オンライン講座６：スマホサイト〜ハンバーガーメニューの理想と現実","url":"http://peatix.com/event/1471991","shortener_url":null,"started_at":"2020-04-29T17:00:00.000+09:00","ended_at":"2020-05-02T08:59:59.000+09:00","limit_number":null,"address":"","place":"xxxonlineeventxxx","lat":0.0,"lon":0.0,"state":"active","id":null},{"event_id":"1472005","title":"オンライン講座７：スマホサイト〜レスポンシブデザインの理想と現実","url":"http://peatix.com/event/1472005","shortener_url":null,"started_at":"2020-04-29T20:00:00.000+09:00","ended_at":"2020-05-02T08:59:59.000+09:00","limit_number":null,"address":"","place":"xxxonlineeventxxx","lat":0.0,"lon":0.0,"state":"active","id":null},{"event_id":"106388","title":"［WEB］リモート日越SW飲み","url":"https://swtokyo.doorkeeper.jp/events/106388","shortener_url":null,"started_at":"2020-04-29T20:30:00.000+09:00","ended_at":"2020-04-29T22:00:00.000+09:00","limit_number":20,"address":"Remo及びZoom","place":"","lat":null,"lon":null,"state":"active","id":null},{"event_id":null,"title":"Theta Hackathon","url":"https://theta-labs.devpost.com/","shortener_url":"https://bit.ly/33JdsB1","started_at":"2020-04-22T01:15:00.000+09:00","ended_at":"2020-08-15T09:00:00.000+09:00","limit_number":null,"address":null,"place":"Online","lat":null,"lon":null,"state":"active","id":null},{"event_id":"1294228940458991616","title":"Sourcing.Games – Games For Recruiters and Sourcers","url":"https://sourcing.games/","shortener_url":null,"started_at":"2020-04-02T09:00:00.000+09:00","ended_at":"2020-04-02T17:18:00.000+09:00","limit_number":null,"address":null,"place":"online","lat":null,"lon":null,"state":"active","id":null},{"event_id":"1302595779765268481","title":"U-22 プログラミング・コンテスト2020","url":"https://u22procon.com/","shortener_url":"https://bit.ly/3hcSb5S","started_at":"2020-04-02T01:50:00.000+09:00","ended_at":"2020-11-30T02:30:00.000+09:00","limit_number":null,"address":null,"place":"online","lat":null,"lon":null,"state":"active","id":null},{"event_id":"1303818048609148934","title":"Ideathon - Startup Intelligence Observatory","url":"https://www.fsitaliane.it/content/fsitaliane/it/media/eventi/2020/9/10/ideathon---startup-intelligence-observatory.html","shortener_url":null,"started_at":"2020-04-24T09:00:00.000+09:00","ended_at":"2020-09-03T09:00:00.000+09:00","limit_number":null,"address":null,"place":"online","lat":null,"lon":null,"state":"active","id":null},{"event_id":"1318433803149324288","title":"Upcoming Events – UAceIt","url":"https://uaceit.com/events/","shortener_url":null,"started_at":"2020-04-17T12:30:00.000+09:00","ended_at":"2020-10-12T14:00:00.000+09:00","limit_number":null,"address":null,"place":"online","lat":null,"lon":null,"state":"active","id":null},{"event_id":"1323224385570877440","title":"An die Computer, fertig, los(gehackt)!\n\t\t\t\t\t-\n\t\t\t\t\t\t\t\tZDIN","url":"https://www.zdin.de/aktuelles/e-hackathon-2020","shortener_url":null,"started_at":"2020-04-20T18:00:00.000+09:00","ended_at":"2020-06-30T18:00:00.000+09:00","limit_number":null,"address":null,"place":"online","lat":null,"lon":null,"state":"active","id":null},{"event_id":"1365868505661202433","title":"第5回 全国小中学生プログラミング大会","url":"http://jjpc.jp/","shortener_url":null,"started_at":"2020-04-01T21:00:00.000+09:00","ended_at":"2021-03-01T02:30:00.000+09:00","limit_number":null,"address":"千葉県君津市・埼玉県白岡市)","place":"千葉県君津市・埼玉県白岡市)","lat":36.0114,"lon":139.667,"state":"active","id":null},{"event_id":"1373632982389551109","title":"Lehrstuhl für Public Management \u0026 Public Policy - Zeppelin Universität","url":"https://www.zu.de/lehrstuehle/pmpp/index.php","shortener_url":null,"started_at":"2020-04-30T09:00:00.000+09:00","ended_at":"2020-04-30T23:59:59.000+09:00","limit_number":null,"address":null,"place":"online","lat":null,"lon":null,"state":"active","id":null},{"event_id":"1375031872481341442","title":"GLAMhack 2021","url":"https://library.ethz.ch/en/news/events/glamhack-2021.html","shortener_url":null,"started_at":"2020-04-28T02:15:00.000+09:00","ended_at":"2020-04-28T23:59:59.000+09:00","limit_number":null,"address":null,"place":"online","lat":null,"lon":null,"state":"active","id":null},{"event_id":"1377351607239643136","title":"Hackathon on real-time velocity measurement and applications – GNSS seismology (10-12 April 2021) | Facultatea de Matematică și Informatică","url":"http://www.cs.ubbcluj.ro/hackathon-on-real-time-velocity-measurement-and-applications-gnss-seismology-10-12-april-2021/","shortener_url":null,"started_at":"2020-04-15T09:00:00.000+09:00","ended_at":"2020-04-15T23:59:59.000+09:00","limit_number":null,"address":null,"place":"online","lat":null,"lon":null,"state":"active","id":null},{"event_id":"1379413090928881667","title":"Smiles divulga vencedores de seu primeiro Hackathon depois de maratona de 53 horas | Valor Agregado","url":"https://valoragregado.com/2021/04/05/smiles-divulga-vencedores-de-seu-primeiro-hackathon-depois-de-maratona-de-53-horas/","shortener_url":null,"started_at":"2020-04-29T09:00:00.000+09:00","ended_at":"2021-04-06T09:00:00.000+09:00","limit_number":null,"address":null,"place":"online","lat":null,"lon":null,"state":"active","id":null},{"event_id":"1384210586037194762","title":"Avanade, Talento Incluir e 99jobs promovem hackathon exclusivo para pessoas com deficiência | Valor Agregado","url":"https://valoragregado.com/2021/04/19/avanade-talento-incluir-e-99jobs-promovem-hackathon-exclusivo-para-pessoas-com-deficiencia/","shortener_url":null,"started_at":"2020-04-29T09:00:00.000+09:00","ended_at":"2021-04-19T09:00:00.000+09:00","limit_number":null,"address":null,"place":"online","lat":null,"lon":null,"state":"active","id":null},{"event_id":"1396862537820381185","title":"What Problems Hackathons Can Help Solve In Our Pandemic-Hit World | Hacker Noon","url":"https://hackernoon.com/what-problems-hackathons-can-help-solve-in-our-pandemic-hit-world-fr1l34ll","shortener_url":null,"started_at":"2020-04-15T09:00:00.000+09:00","ended_at":"2021-05-24T09:00:00.000+09:00","limit_number":null,"address":null,"place":"online","lat":null,"lon":null,"state":"active","id":null},{"event_id":"1404937355342008326","title":"Itaú Unibanco e Instituto Unibanco anunciam vencedores do hackathon Batalha de Dados Social | Valor Agregado","url":"https://valoragregado.com/2021/06/15/itau-unibanco-e-instituto-unibanco-anunciam-vencedores-do-hackathon-batalha-de-dados-social/","shortener_url":null,"started_at":"2020-04-29T09:00:00.000+09:00","ended_at":"2021-06-15T09:00:00.000+09:00","limit_number":null,"address":null,"place":"online","lat":null,"lon":null,"state":"active","id":null},{"event_id":"101423590690","title":"How To Develop a Successful Healthcare Tech Startup Business Hackathon","url":"https://www.eventbrite.com/e/how-to-develop-a-successful-healthcare-tech-startup-business-hackathon-tickets-101423590690","shortener_url":null,"started_at":"2020-04-02T02:00:00.000+09:00","ended_at":"2022-12-28T07:00:00.000+09:00","limit_number":null,"address":null,"place":"online","lat":null,"lon":null,"state":"active","id":null},{"event_id":"101424882554","title":"How To Develop a Successful FinTech Startup Business Hackathon","url":"https://www.eventbrite.com/e/how-to-develop-a-successful-fintech-startup-business-hackathon-tickets-101424882554","shortener_url":null,"started_at":"2020-04-01T20:00:00.000+09:00","ended_at":"2022-12-30T01:00:00.000+09:00","limit_number":null,"address":null,"place":"online","lat":null,"lon":null,"state":"active","id":null},{"event_id":"101425590672","title":"How To Develop a Successful Smart Hospital Tech Startup Business Hackathon","url":"https://www.eventbrite.com/e/how-to-develop-a-successful-smart-hospital-tech-startup-business-hackathon-tickets-101425590672","shortener_url":null,"started_at":"2020-04-01T20:00:00.000+09:00","ended_at":"2022-12-30T01:00:00.000+09:00","limit_number":null,"address":null,"place":"online","lat":null,"lon":null,"state":"active","id":null},{"event_id":"101720922016","title":"CoCoon Pitch: Connecting Founders and Investors","url":"https://www.eventbrite.hk/e/cocoon-pitch-connecting-founders-and-investors-tickets-101720922016","shortener_url":null,"started_at":"2020-04-23T13:00:00.000+09:00","ended_at":"2021-09-23T14:30:00.000+09:00","limit_number":null,"address":null,"place":"online","lat":null,"lon":null,"state":"active","id":null},{"event_id":"100668268501","title":"WoW Members' Meet \u0026 Greet - Wearables, HealthTech, FemTech, IoT, Fashion","url":"https://www.eventbrite.co.uk/e/wow-members-meet-greet-wearables-healthtech-femtech-iot-fashion-tickets-100668268501","shortener_url":null,"started_at":"2020-04-02T02:00:00.000+09:00","ended_at":"2022-12-08T04:00:00.000+09:00","limit_number":null,"address":null,"place":"online","lat":null,"lon":null,"state":"active","id":null},{"event_id":"101686539176","title":"Coding class for Kids","url":"https://www.eventbrite.ca/e/coding-class-for-kids-tickets-101686539176","shortener_url":null,"started_at":"2020-04-04T01:00:00.000+09:00","ended_at":"2022-12-31T09:00:00.000+09:00","limit_number":null,"address":null,"place":"online","lat":null,"lon":null,"state":"active","id":null},{"event_id":"101359825968","title":"[Virtual Info Session] Thinking About a Tech Career? Start Here.","url":"https://www.eventbrite.com/e/virtual-info-session-thinking-about-a-tech-career-start-here-tickets-101359825968","shortener_url":null,"started_at":"2020-04-01T01:00:00.000+09:00","ended_at":"2021-12-08T11:00:00.000+09:00","limit_number":null,"address":null,"place":"online","lat":null,"lon":null,"state":"active","id":null},{"event_id":"103023213204","title":"Doge Disco Party!","url":"https://www.eventbrite.ca/e/doge-disco-party-tickets-103023213204","shortener_url":null,"started_at":"2020-04-19T09:00:00.000+09:00","ended_at":"2022-12-25T12:00:00.000+09:00","limit_number":null,"address":null,"place":"online","lat":null,"lon":null,"state":"active","id":null},{"event_id":"102192464412","title":"Develop a Successful Healthcare Tech Startup Business Today!","url":"https://www.eventbrite.com/e/develop-a-successful-healthcare-tech-startup-business-today-tickets-102192464412","shortener_url":null,"started_at":"2020-04-14T13:00:00.000+09:00","ended_at":"2022-12-29T17:00:00.000+09:00","limit_number":null,"address":"Virtual Workshop, Tokyo, Tokyo","place":"Tokyo","lat":35.6804,"lon":139.769,"state":"active","id":null},{"event_id":"102192969924","title":"Develop a Successful Healthcare Tech Startup Business Today!","url":"https://www.eventbrite.com/e/develop-a-successful-healthcare-tech-startup-business-today-tickets-102192969924","shortener_url":null,"started_at":"2020-04-11T13:00:00.000+09:00","ended_at":"2022-06-30T17:00:00.000+09:00","limit_number":null,"address":"Virtual Workshop, Osaka, Osaka prefektur","place":"Osaka","lat":34.6937,"lon":135.502,"state":"active","id":null},{"event_id":"102178532742","title":"Meeting Talents, Business Networking Event,  Swindon, Wiltshire, Gloucester","url":"https://www.eventbrite.co.uk/e/meeting-talents-business-networking-event-swindon-wiltshire-gloucester-tickets-102178532742","shortener_url":null,"started_at":"2020-04-09T03:00:00.000+09:00","ended_at":"2023-06-08T04:00:00.000+09:00","limit_number":null,"address":null,"place":"online","lat":null,"lon":null,"state":"active","id":null},{"event_id":"99411309904","title":"Virtual Writing Hour with the National Portrait Gallery","url":"https://www.eventbrite.com/e/virtual-writing-hour-with-the-national-portrait-gallery-tickets-99411309904","shortener_url":null,"started_at":"2020-04-22T06:00:00.000+09:00","ended_at":"2022-03-02T08:00:00.000+09:00","limit_number":null,"address":null,"place":"online","lat":null,"lon":null,"state":"active","id":null},{"event_id":"101688113886","title":"Python / Coding Class for Kids - Free","url":"https://www.eventbrite.ca/e/python-coding-class-for-kids-free-tickets-101688113886","shortener_url":null,"started_at":"2020-04-04T04:30:00.000+09:00","ended_at":"2021-10-02T08:00:00.000+09:00","limit_number":null,"address":null,"place":"online","lat":null,"lon":null,"state":"active","id":null},{"event_id":"100103897452","title":"Technologies of the Future (Weekly LIVE Webinar and Q \u0026 A)","url":"https://www.eventbrite.com.au/e/technologies-of-the-future-weekly-live-webinar-and-q-a-tickets-100103897452","shortener_url":null,"started_at":"2020-04-03T07:00:00.000+09:00","ended_at":"2023-01-06T08:00:00.000+09:00","limit_number":null,"address":null,"place":"online","lat":null,"lon":null,"state":"active","id":null},{"event_id":"100734070316","title":"Travel Indoors! (Black Travel Summit Digital Sessions)","url":"https://www.eventbrite.com/e/travel-indoors-black-travel-summit-digital-sessions-tickets-100734070316","shortener_url":null,"started_at":"2020-04-06T01:00:00.000+09:00","ended_at":"2023-12-18T04:00:00.000+09:00","limit_number":null,"address":null,"place":"online","lat":null,"lon":null,"state":"active","id":null},{"event_id":"103166561964","title":"Online Game Night - A Fun Social Party From Home!","url":"https://www.eventbrite.com/e/online-game-night-a-fun-social-party-from-home-tickets-103166561964","shortener_url":null,"started_at":"2020-04-25T10:00:00.000+09:00","ended_at":"2024-01-30T12:00:00.000+09:00","limit_number":null,"address":null,"place":"online","lat":null,"lon":null,"state":"active","id":null},{"event_id":"100989678848","title":"Black Film Space - Virtual Screenwriting Workshop","url":"https://www.eventbrite.com/e/black-film-space-virtual-screenwriting-workshop-tickets-100989678848","shortener_url":null,"started_at":"2020-04-03T08:00:00.000+09:00","ended_at":"2022-09-02T09:30:00.000+09:00","limit_number":null,"address":null,"place":"online","lat":null,"lon":null,"state":"active","id":null},{"event_id":"103118436018","title":"Coffee and Connect with Shannon Houde","url":"https://www.eventbrite.com/e/coffee-and-connect-with-shannon-houde-tickets-103118436018","shortener_url":null,"started_at":"2020-04-24T00:00:00.000+09:00","ended_at":"2022-12-02T01:45:00.000+09:00","limit_number":null,"address":null,"place":"online","lat":null,"lon":null,"state":"active","id":null},{"event_id":"100323428074","title":"Intro to C# Workshop","url":"https://www.eventbrite.com/e/intro-to-c-workshop-tickets-100323428074","shortener_url":null,"started_at":"2020-04-07T07:00:00.000+09:00","ended_at":"2022-12-15T11:00:00.000+09:00","limit_number":null,"address":null,"place":"online","lat":null,"lon":null,"state":"active","id":null},{"event_id":"103735078412","title":"Guided Watercolour - Weekly Art Class","url":"https://www.eventbrite.ca/e/guided-watercolour-weekly-art-class-registration-103735078412","shortener_url":null,"started_at":"2020-04-29T02:00:00.000+09:00","ended_at":"2021-12-30T03:00:00.000+09:00","limit_number":null,"address":null,"place":"online","lat":null,"lon":null,"state":"active","id":null},{"event_id":"103177015230","title":"Escape Zoom - An Online Escape Room \u0026 Trivia Event","url":"https://www.eventbrite.com/e/escape-zoom-an-online-escape-room-trivia-event-tickets-103177015230","shortener_url":null,"started_at":"2020-04-27T08:30:00.000+09:00","ended_at":"2022-06-01T11:00:00.000+09:00","limit_number":null,"address":null,"place":"online","lat":null,"lon":null,"state":"active","id":null},{"event_id":"97196034957","title":"NJ M365 User Group Monthly Meetups","url":"https://www.eventbrite.com/e/nj-m365-user-group-monthly-meetups-tickets-97196034957","shortener_url":null,"started_at":"2020-04-02T06:30:00.000+09:00","ended_at":"2022-03-03T09:30:00.000+09:00","limit_number":null,"address":null,"place":"online","lat":null,"lon":null,"state":"active","id":null},{"event_id":"103165051446","title":"Social Online Fun \u0026 Games Night","url":"https://www.eventbrite.com/e/social-online-fun-games-night-tickets-103165051446","shortener_url":null,"started_at":"2020-04-26T07:00:00.000+09:00","ended_at":"2022-03-20T09:00:00.000+09:00","limit_number":null,"address":null,"place":"online","lat":null,"lon":null,"state":"active","id":null},{"event_id":"103165962170","title":"Online Game Night - A Fun Social Party From Home!","url":"https://www.eventbrite.com/e/online-game-night-a-fun-social-party-from-home-tickets-103165962170","shortener_url":null,"started_at":"2020-04-26T09:30:00.000+09:00","ended_at":"2022-03-20T11:30:00.000+09:00","limit_number":null,"address":null,"place":"online","lat":null,"lon":null,"state":"active","id":null},{"event_id":"101769529402","title":"Lean In Circle for Entrepreneurs","url":"https://www.eventbrite.ca/e/lean-in-circle-for-entrepreneurs-registration-101769529402","shortener_url":null,"started_at":"2020-04-07T22:30:00.000+09:00","ended_at":"2023-03-04T02:00:00.000+09:00","limit_number":null,"address":null,"place":"online","lat":null,"lon":null,"state":"active","id":null},{"event_id":"102315343948","title":"About First Ladies of Poverty Foundation: Our Program, Resources and You","url":"https://www.eventbrite.com/e/about-first-ladies-of-poverty-foundation-our-program-resources-and-you-tickets-102315343948","shortener_url":null,"started_at":"2020-04-12T09:30:00.000+09:00","ended_at":"2022-01-09T10:00:00.000+09:00","limit_number":null,"address":null,"place":"online","lat":null,"lon":null,"state":"active","id":null},{"event_id":"103164441622","title":"Online Zoom Trivia Night","url":"https://www.eventbrite.com/e/online-zoom-trivia-night-tickets-103164441622","shortener_url":null,"started_at":"2020-04-25T07:30:00.000+09:00","ended_at":"2022-03-19T09:30:00.000+09:00","limit_number":null,"address":null,"place":"online","lat":null,"lon":null,"state":"active","id":null},{"event_id":"102088359030","title":"Connect, Refresh \u0026  Integrate : NVC Coaching \u0026 practice. Live \u0026 online.","url":"https://www.eventbrite.com.au/e/connect-refresh-integrate-nvc-coaching-practice-live-online-tickets-102088359030","shortener_url":null,"started_at":"2020-04-15T17:00:00.000+09:00","ended_at":"2021-12-15T18:30:00.000+09:00","limit_number":null,"address":null,"place":"online","lat":null,"lon":null,"state":"active","id":null},{"event_id":"102000702848","title":"Tech Tip Tuesdays - for Seniors! FREE","url":"https://www.eventbrite.com.au/e/tech-tip-tuesdays-for-seniors-free-tickets-102000702848","shortener_url":null,"started_at":"2020-04-14T11:30:00.000+09:00","ended_at":"2022-06-28T12:00:00.000+09:00","limit_number":null,"address":null,"place":"online","lat":null,"lon":null,"state":"active","id":null},{"event_id":"103044282222","title":"Escape Zoom - An Online Escape Room \u0026 Trivia Event Combo","url":"https://www.eventbrite.com/e/escape-zoom-an-online-escape-room-trivia-event-combo-tickets-103044282222","shortener_url":null,"started_at":"2020-04-27T08:30:00.000+09:00","ended_at":"2022-03-21T11:00:00.000+09:00","limit_number":null,"address":null,"place":"online","lat":null,"lon":null,"state":"active","id":null},{"event_id":"101875963750","title":"Parent/Carers' Support Group","url":"https://www.eventbrite.co.uk/e/parentcarers-support-group-tickets-101875963750","shortener_url":null,"started_at":"2020-04-04T04:00:00.000+09:00","ended_at":"2022-12-14T06:00:00.000+09:00","limit_number":null,"address":null,"place":"online","lat":null,"lon":null,"state":"active","id":null},{"event_id":"101908818018","title":"FlexSchool Virtual Open House","url":"https://www.eventbrite.com/e/flexschool-virtual-open-house-registration-101908818018","shortener_url":null,"started_at":"2020-04-15T00:00:00.000+09:00","ended_at":"2022-03-30T02:30:00.000+09:00","limit_number":null,"address":null,"place":"online","lat":null,"lon":null,"state":"active","id":null},{"event_id":"100712000304","title":"Toast of Severna Park Toastmasters Club Online Meeting","url":"https://www.eventbrite.com/e/toast-of-severna-park-toastmasters-club-online-meeting-tickets-100712000304","shortener_url":null,"started_at":"2020-04-08T08:00:00.000+09:00","ended_at":"2022-06-22T09:30:00.000+09:00","limit_number":null,"address":null,"place":"online","lat":null,"lon":null,"state":"active","id":null},{"event_id":"102843702282","title":"Free Virtual Speed Networking with Women Entrepreneurs","url":"https://www.eventbrite.com/e/free-virtual-speed-networking-with-women-entrepreneurs-tickets-102843702282","shortener_url":null,"started_at":"2020-04-17T03:00:00.000+09:00","ended_at":"2021-12-17T05:00:00.000+09:00","limit_number":null,"address":null,"place":"online","lat":null,"lon":null,"state":"active","id":null},{"event_id":"101489551982","title":"B2B Power Networking Virtual Luncheon","url":"https://www.eventbrite.com/e/b2b-power-networking-virtual-luncheon-tickets-101489551982","shortener_url":null,"started_at":"2020-04-17T02:00:00.000+09:00","ended_at":"2023-07-07T03:00:00.000+09:00","limit_number":null,"address":null,"place":"online","lat":null,"lon":null,"state":"active","id":null},{"event_id":"100801287364","title":"The Making of a Champion Foundations Workshop (Online)","url":"https://www.eventbrite.co.uk/e/the-making-of-a-champion-foundations-workshop-online-tickets-100801287364","shortener_url":null,"started_at":"2020-04-10T00:00:00.000+09:00","ended_at":"2022-02-25T05:30:00.000+09:00","limit_number":null,"address":null,"place":"online","lat":null,"lon":null,"state":"active","id":null},{"event_id":"102034690506","title":"Digital Moon Con","url":"https://www.eventbrite.com/e/digital-moon-con-tickets-102034690506","shortener_url":null,"started_at":"2020-04-13T03:00:00.000+09:00","ended_at":"2022-01-10T05:30:00.000+09:00","limit_number":null,"address":null,"place":"online","lat":null,"lon":null,"state":"active","id":null},{"event_id":"101908818018","title":"FlexSchool Parent Open House","url":"https://www.eventbrite.com/e/flexschool-parent-open-house-registration-101908818018","shortener_url":null,"started_at":"2020-04-15T00:00:00.000+09:00","ended_at":"2022-09-28T02:30:00.000+09:00","limit_number":null,"address":null,"place":"online","lat":null,"lon":null,"state":"active","id":null},{"event_id":"101686539176","title":"Free Coding Class for Kids (Scratch Programming)","url":"https://www.eventbrite.ca/e/free-coding-class-for-kids-scratch-programming-tickets-101686539176","shortener_url":null,"started_at":"2020-04-04T01:00:00.000+09:00","ended_at":"2022-12-31T09:00:00.000+09:00","limit_number":null,"address":null,"place":"online","lat":null,"lon":null,"state":"active","id":null},{"event_id":"103118436018","title":"Coffee and Connect with Shannon Houde","url":"https://www.eventbrite.co.uk/e/coffee-and-connect-with-shannon-houde-tickets-103118436018","shortener_url":null,"started_at":"2020-04-24T00:00:00.000+09:00","ended_at":"2023-12-08T01:45:00.000+09:00","limit_number":null,"address":null,"place":"online","lat":null,"lon":null,"state":"active","id":null},{"event_id":"100323428074","title":"Intro to C# 2-Night Workshop","url":"https://www.eventbrite.com/e/intro-to-c-2-night-workshop-tickets-100323428074","shortener_url":null,"started_at":"2020-04-07T07:00:00.000+09:00","ended_at":"2022-12-15T11:00:00.000+09:00","limit_number":null,"address":null,"place":"online","lat":null,"lon":null,"state":"active","id":null},{"event_id":"103023213204","title":"Decentralized Dance Party!","url":"https://www.eventbrite.ca/e/decentralized-dance-party-tickets-103023213204","shortener_url":null,"started_at":"2020-04-19T09:00:00.000+09:00","ended_at":"2023-06-07T13:00:00.000+09:00","limit_number":null,"address":null,"place":"online","lat":null,"lon":null,"state":"active","id":null},{"event_id":"100668268501","title":"WoW Members' Meet \u0026 Greet - Wearables, HealthTech, FemTech, Women's Health","url":"https://www.eventbrite.co.uk/e/wow-members-meet-greet-wearables-healthtech-femtech-womens-health-tickets-100668268501","shortener_url":null,"started_at":"2020-04-02T02:00:00.000+09:00","ended_at":"2022-12-08T04:00:00.000+09:00","limit_number":null,"address":null,"place":"online","lat":null,"lon":null,"state":"active","id":null}]