[{"event_id":"102368","title":"初開催！StartupWeekend 三島","url":"https://swmishima.doorkeeper.jp/events/102368","shortener_url":null,"started_at":"2020-07-17T09:00:00.000+09:00","ended_at":"2020-07-19T11:30:00.000+09:00","limit_number":30,"address":"静岡県三島市中央町6-2","place":"みしま未来研究所","lat":35.1208,"lon":138.916,"state":"active","id":null},{"event_id":"1435286","title":"対話の学校「対グループ支援のスキルを身につける」グループ・ファシリテーション基礎講座２（全５回）・合宿","url":"http://peatix.com/event/1435286","shortener_url":"https://bit.ly/2V1QVuO","started_at":"2020-07-23T01:00:00.000+09:00","ended_at":"2020-07-25T23:59:59.000+09:00","limit_number":null,"address":"長野県北佐久郡軽井沢町レイクニュータウン","place":"文化学園文化軽井沢山荘","lat":0.0,"lon":0.0,"state":"closed","id":null},{"event_id":"104373","title":"［無料］アイデアをカタチに！アイデアソン！『地方創生』","url":"https://swkumamoto.doorkeeper.jp/events/104373","shortener_url":"https://bit.ly/39jjOH8","started_at":"2020-07-25T05:00:00.000+09:00","ended_at":"2020-07-25T08:00:00.000+09:00","limit_number":20,"address":"〒860-0807 熊本県熊本市中央区 下通1丁目12-27CORE21下通ビル5F","place":"未来会議室","lat":32.8001,"lon":130.708,"state":"active","id":null},{"event_id":"1459448","title":"第3回コーチング合宿 @富山","url":"http://gassyuku00003.peatix.com","shortener_url":null,"started_at":"2020-07-23T04:00:00.000+09:00","ended_at":"2020-07-25T23:59:59.000+09:00","limit_number":null,"address":"魚津市北山702","place":"北山鉱泉 元祖 仁右衛門家","lat":36.775,"lon":137.445,"state":"active","id":null},{"event_id":"1461485","title":"対話の学校　合宿2020","url":"http://peatix.com/event/1461485","shortener_url":"https://bit.ly/2yrVbu5","started_at":"2020-07-23T01:00:00.000+09:00","ended_at":"2020-07-25T23:59:59.000+09:00","limit_number":null,"address":"長野県北佐久郡軽井沢町レイクニュータウン","place":"文化学園文化軽井沢山荘","lat":0.0,"lon":0.0,"state":"closed","id":null},{"event_id":"175970","title":"MLSE夏合宿2020（オンライン開催）","url":"https://mlxse.connpass.com/event/175970/","shortener_url":"https://bit.ly/2zKYayp","started_at":"2020-07-02T01:00:00.000+09:00","ended_at":"2020-07-04T07:30:00.000+09:00","limit_number":null,"address":"","place":"オンライン","lat":null,"lon":null,"state":"active","id":null},{"event_id":"107164","title":"7/11(土)~12(日)festivo ホームページ作成（WordPress） Camp@東京【30,000円(税別)】～戦うスキルを身につける大ボリューム2日15時間！WordPress集中合宿！～","url":"https://festivo.doorkeeper.jp/events/107164","shortener_url":"https://bit.ly/2ZEEhUK","started_at":"2020-07-11T01:30:00.000+09:00","ended_at":"2020-07-12T09:30:00.000+09:00","limit_number":0,"address":"東京都練馬区豊玉北3-15-17","place":"起業家シェアハウス x-garden セミナールーム","lat":35.7329,"lon":139.661,"state":"active","id":null},{"event_id":"107185","title":"［WEB］Startup Weekend Cebu 座談会","url":"https://swtokyo.doorkeeper.jp/events/107185","shortener_url":null,"started_at":"2020-07-03T12:30:00.000+09:00","ended_at":"2020-07-03T14:00:00.000+09:00","limit_number":10,"address":"Zoom","place":"","lat":null,"lon":null,"state":"active","id":null},{"event_id":"107343","title":"Startup Weekend ひろしま オンライン vol.1","url":"https://swhiroshima.doorkeeper.jp/events/107343","shortener_url":null,"started_at":"2020-07-17T10:00:00.000+09:00","ended_at":"2020-07-19T12:00:00.000+09:00","limit_number":45,"address":"","place":"","lat":null,"lon":null,"state":"active","id":null},{"event_id":"1502996","title":"一宮アカデミー 2020 夏期講習・自由研究・夏合宿・全県模試","url":"https://138ac2020s.peatix.com","shortener_url":null,"started_at":"2020-07-20T04:00:00.000+09:00","ended_at":"2020-07-22T23:59:59.000+09:00","limit_number":null,"address":"一宮市起用水添３２４−２","place":"一宮アカデミー","lat":35.3078,"lon":136.737,"state":"active","id":null},{"event_id":"106806","title":"［WEB］Startup Weekend 熊本 座談会","url":"https://swkumamoto.doorkeeper.jp/events/106806","shortener_url":null,"started_at":"2020-07-04T12:30:00.000+09:00","ended_at":"2020-07-04T14:00:00.000+09:00","limit_number":15,"address":"Zoomを用いて開催いたします","place":"","lat":null,"lon":null,"state":"active","id":null},{"event_id":"178456","title":"DevRel Meetup in Tokyo #53 〜オンライン・ハッカソン〜","url":"https://devrel.connpass.com/event/178456/","shortener_url":"https://bit.ly/3cE4TIc","started_at":"2020-07-01T10:00:00.000+09:00","ended_at":"2020-07-01T13:00:00.000+09:00","limit_number":null,"address":"オンライン","place":"オンライン","lat":null,"lon":null,"state":"active","id":null},{"event_id":"1512790","title":"安心してください、見えてませんよ！〜 ながのともきトークショー 〜","url":"http://anshin-mietenai.peatix.com","shortener_url":null,"started_at":"2020-07-05T05:00:00.000+09:00","ended_at":"2020-07-07T23:59:59.000+09:00","limit_number":null,"address":"尼崎市東園田町5丁目59番地1 号106","place":"コミュニティスペース hinata","lat":34.7528,"lon":135.45,"state":"active","id":null},{"event_id":"1512493","title":"（無料） ほめ カフェ　座談会編♪（ ホメ ・ 褒め ）","url":"http://peatix.com/event/1512493","shortener_url":null,"started_at":"2020-07-05T08:00:00.000+09:00","ended_at":"2020-07-07T23:59:59.000+09:00","limit_number":null,"address":"","place":"xxxonlineeventxxx","lat":0.0,"lon":0.0,"state":"active","id":null},{"event_id":"1517024","title":"菅ジャム","url":"http://peatix.com/event/1517024","shortener_url":null,"started_at":"2020-07-04T10:30:00.000+09:00","ended_at":"2020-07-06T23:59:59.000+09:00","limit_number":null,"address":"","place":"xxxonlineeventxxx","lat":0.0,"lon":0.0,"state":"active","id":null},{"event_id":"1515954","title":"オンライン説明会： ”実践”と”学び”を通じて、革新的新薬・医療の創出に参加しませんか？仕事と並行できるBlockbuster TOKYO事業創出サポーター","url":"http://bbtilp20200708.peatix.com","shortener_url":null,"started_at":"2020-07-08T10:00:00.000+09:00","ended_at":"2020-07-10T23:59:59.000+09:00","limit_number":null,"address":"","place":"xxxonlineeventxxx","lat":0.0,"lon":0.0,"state":"active","id":null},{"event_id":"1519190","title":"グラレコワークショップ　すてぃっくまん","url":"http://kansaiaxis2-grareco.peatix.com","shortener_url":null,"started_at":"2020-07-04T05:00:00.000+09:00","ended_at":"2020-07-06T23:59:59.000+09:00","limit_number":null,"address":"","place":"xxxonlineeventxxx","lat":0.0,"lon":0.0,"state":"active","id":null},{"event_id":"1519014","title":"【オンライン】電磁波を気にしながらキッチンに立っていませんか？　／　電磁波(マイクロ波)を使わない「NEWグランシェフ」＆「ソーサリーⅢ」実演会","url":"http://peatix.com/event/1519014","shortener_url":null,"started_at":"2020-07-29T02:00:00.000+09:00","ended_at":"2020-07-31T23:59:59.000+09:00","limit_number":null,"address":"","place":"xxxonlineeventxxx","lat":null,"lon":null,"state":"active","id":null},{"event_id":"1519534","title":"【無料】7/4(土) 8:30-10:00 ゆる～いZoomオンライン座禅会(椅子瞑想)#3　初心者大歓迎、Zoom初心者も大歓迎。コロナウィルスでの心の疲れを取りませんか？","url":"http://smilecompass03.peatix.com","shortener_url":null,"started_at":"2020-07-03T23:30:00.000+09:00","ended_at":"2020-07-05T23:59:59.000+09:00","limit_number":null,"address":"","place":"xxxonlineeventxxx","lat":0.0,"lon":0.0,"state":"active","id":null},{"event_id":"107097","title":"［WEB座談会］アフターコロナにおけるアニメビジネスの可能性","url":"https://swtokyo.doorkeeper.jp/events/107097","shortener_url":null,"started_at":"2020-07-11T12:30:00.000+09:00","ended_at":"2020-07-11T14:00:00.000+09:00","limit_number":10,"address":"Zoom","place":"","lat":null,"lon":null,"state":"active","id":null},{"event_id":"107298","title":"［WEB］Startup Weekend 名古屋 座談会","url":"https://swnagoya.doorkeeper.jp/events/107298","shortener_url":null,"started_at":"2020-07-10T12:30:00.000+09:00","ended_at":"2020-07-10T14:00:00.000+09:00","limit_number":10,"address":"Zoomを用いて開催いたします","place":"","lat":null,"lon":null,"state":"active","id":null},{"event_id":"1520309","title":"少人数セミナー！あなたの将来大丈夫？公的年金に頼らない自分年金の作り方。 ～あの時やっておけば…とはもう言わせません！～","url":"http://peatix.com/event/1520309","shortener_url":null,"started_at":"2020-07-18T04:00:00.000+09:00","ended_at":"2020-07-20T23:59:59.000+09:00","limit_number":null,"address":"さいたま市浦和区仲町1丁目10−7 尾張屋第一ビル5F","place":"ONVO SALON URAWA（オンヴォサロン浦和）","lat":35.8603,"lon":139.653,"state":"active","id":null},{"event_id":"1526270","title":"【ぶっちゃけ途上国支援で飯くってけるんですか？】NPO代表がお答えします。 =NPO/国際協力のリアルトーク＝","url":"http://realsemina0706.peatix.com","shortener_url":null,"started_at":"2020-07-06T10:30:00.000+09:00","ended_at":"2020-07-08T23:59:59.000+09:00","limit_number":null,"address":"","place":"xxxonlineeventxxx","lat":0.0,"lon":0.0,"state":"active","id":null},{"event_id":"1526475","title":"フレッシュベリージャムで作る華やかロール","url":"http://estonia-real200715.peatix.com","shortener_url":null,"started_at":"2020-07-15T01:00:00.000+09:00","ended_at":"2020-07-17T23:59:59.000+09:00","limit_number":null,"address":"東京都調布市若葉町","place":"エストニア料理屋さんの台所","lat":35.6557,"lon":139.585,"state":"active","id":null},{"event_id":"1526489","title":"フレッシュベリージャムで作る華やかロール","url":"http://estonia-real200718.peatix.com","shortener_url":null,"started_at":"2020-07-18T01:00:00.000+09:00","ended_at":"2020-07-20T23:59:59.000+09:00","limit_number":null,"address":"東京都調布市若葉町","place":"エストニア料理屋さんの台所","lat":35.6557,"lon":139.585,"state":"active","id":null},{"event_id":"1526684","title":"7/19(日) ドイツ国際平和村を訪ねてみませんか ～ Kokoroウェビナー","url":"http://peatix.com/event/1526684","shortener_url":null,"started_at":"2020-07-19T14:30:00.000+09:00","ended_at":"2020-07-21T23:59:59.000+09:00","limit_number":null,"address":"","place":"xxxonlineeventxxx","lat":null,"lon":null,"state":"active","id":null},{"event_id":"108177","title":"★参加無料【オンライン・オフライン併催】異能vationグランドチャレンジに挑戦しよう！【7月期】","url":"https://soleildatadojo.doorkeeper.jp/events/108177","shortener_url":null,"started_at":"2020-07-04T01:00:00.000+09:00","ended_at":"2020-07-25T03:00:00.000+09:00","limit_number":20,"address":"大阪市北区西天満二丁目5番3号(堂島深川ビル3階)","place":"Scribble Osaka Lab","lat":34.6952,"lon":135.502,"state":"active","id":null},{"event_id":"1528471","title":"【オンライン】［7/18(土)］「聴き上手」「伝え上手」の【コミュ力美人】を目指しませんか？＜ＢＣＯＰ（ビジネスコミュニケーション最適化）基礎セミナー＞","url":"http://peatix.com/event/1528471","shortener_url":null,"started_at":"2020-07-18T05:00:00.000+09:00","ended_at":"2020-07-20T23:59:59.000+09:00","limit_number":null,"address":"","place":"xxxonlineeventxxx","lat":0.0,"lon":0.0,"state":"active","id":null},{"event_id":"180407","title":"CoderDojo伊勢 オンライン勉強会(自宅で参加するプログラミング勉強会)","url":"https://coderdojo-ise.connpass.com/event/180407/","shortener_url":"https://bit.ly/3fJB77k","started_at":"2020-07-19T04:30:00.000+09:00","ended_at":"2020-07-19T06:30:00.000+09:00","limit_number":10,"address":"オンライン","place":"各自の自宅など","lat":null,"lon":null,"state":"active","id":null},{"event_id":"1528740","title":"陰ヨガ超入門クラス | ポール先生に聞きました「陰ヨガってなんですか？」","url":"http://peatix.com/event/1528740","shortener_url":null,"started_at":"2020-07-04T01:00:00.000+09:00","ended_at":"2020-07-06T23:59:59.000+09:00","limit_number":null,"address":"","place":"xxxonlineeventxxx","lat":0.0,"lon":0.0,"state":"active","id":null},{"event_id":"1521053","title":"「間違いだらけの公的年金知識」オンラインセミナー～もらえないと思っていませんか？安心して下さい、もらえますよ！～","url":"http://miraijosei20200718.peatix.com","shortener_url":null,"started_at":"2020-07-18T01:00:00.000+09:00","ended_at":"2020-07-20T23:59:59.000+09:00","limit_number":null,"address":"","place":"xxxonlineeventxxx","lat":0.0,"lon":0.0,"state":"active","id":null},{"event_id":"1529008","title":"【先着10名】イベントやりたい学生さん集まれ！イベント作り歴10年のプロと学びながら、一緒にイベント企画してみませんか？","url":"http://bunji-akimoto-hellointerest.peatix.com","shortener_url":"https://bit.ly/30nbJhi","started_at":"2020-07-19T15:00:00.000+09:00","ended_at":"2020-07-21T23:59:59.000+09:00","limit_number":null,"address":"岐阜市明徳町6","place":"ドリームシアター岐阜","lat":35.4228,"lon":136.758,"state":"active","id":null},{"event_id":"1530891","title":"【構築コンサル費用0円】人事評価をシンプルに始めませんか？／構築コンサルティング費用0で実現する！人事評価制度構築セミナー","url":"http://peatix.com/event/1530891","shortener_url":null,"started_at":"2020-07-16T01:30:00.000+09:00","ended_at":"2020-07-18T23:59:59.000+09:00","limit_number":null,"address":"大阪市中央区南船場4丁目4−21 TODA BUILDING 心斎橋(旧 りそな船場ビル)6F","place":"アットビジネスセンター心斎橋駅前","lat":34.6758,"lon":135.5,"state":"active","id":null},{"event_id":"179887","title":"[オンライン]UOZUゲームジャム[カターレ富山コラボ]","url":"https://uozu.connpass.com/event/179887/","shortener_url":"https://bit.ly/317jlGR","started_at":"2020-07-18T04:00:00.000+09:00","ended_at":"2020-07-26T12:00:00.000+09:00","limit_number":50,"address":"","place":"オンライン","lat":null,"lon":null,"state":"active","id":null},{"event_id":"1532286","title":"【7/18（土）】第25回オンライン文蔵組落語会　ゲスト：三Ｋ辰文舎　「落語＆LIVE」LIVE視聴ストリーミング視聴券　※アーカイブ対応はございません","url":"http://bunzougumi25.peatix.com","shortener_url":null,"started_at":"2020-07-18T05:00:00.000+09:00","ended_at":"2020-07-20T23:59:59.000+09:00","limit_number":null,"address":"","place":"xxxonlineeventxxx","lat":null,"lon":null,"state":"active","id":null},{"event_id":"1531865","title":"7/30 木　ゆるゆる気功でわたしになるBe myselfじかん","url":"http://200730body.peatix.com","shortener_url":null,"started_at":"2020-07-30T00:00:00.000+09:00","ended_at":"2020-08-01T23:59:59.000+09:00","limit_number":null,"address":"","place":"xxxonlineeventxxx","lat":null,"lon":null,"state":"active","id":null},{"event_id":"1531847","title":"7/16 木　ゆるゆる気功でわたしになるBe myselfじかん","url":"http://200716body.peatix.com","shortener_url":null,"started_at":"2020-07-16T00:00:00.000+09:00","ended_at":"2020-07-18T23:59:59.000+09:00","limit_number":null,"address":"","place":"xxxonlineeventxxx","lat":0.0,"lon":0.0,"state":"active","id":null},{"event_id":"1501416","title":"7/11(土)~12(日)festivo ホームページ作成（WordPress） Camp@東京【30,000円（税別）】～戦うスキルを身につける大ボリューム2日15時間！WordPress集中合宿！～","url":"http://peatix.com/event/1501416","shortener_url":"https://bit.ly/3dAARpo","started_at":"2020-07-11T01:30:00.000+09:00","ended_at":"2020-07-13T23:59:59.000+09:00","limit_number":null,"address":"東京都練馬区豊玉北3-15-17","place":"起業家シェアハウス x-garden セミナールーム","lat":35.7329,"lon":139.661,"state":"closed","id":null},{"event_id":"1511094","title":"【オンライン円満離婚セミナー】離婚が頭をよぎったら⁉　まずは離婚についての正しい知識を身につけませんか？","url":"http://peatix.com/event/1511094","shortener_url":null,"started_at":"2020-07-15T01:30:00.000+09:00","ended_at":"2020-07-17T23:59:59.000+09:00","limit_number":null,"address":"","place":"xxxonlineeventxxx","lat":null,"lon":null,"state":"active","id":null},{"event_id":"1531519","title":"広告のじかん　第3回　外資系クリエイターと一緒に、海外広告のアイデアや発想法などを楽しく学ぼう！ in みんなのテラコヤ・オンライン×TBWAワールドワイドグループ・eg+worldwide Japan（Google Meet ）｜学生無料＆社会人お気持ち制","url":"http://peatix.com/event/1531519","shortener_url":null,"started_at":"2020-07-02T09:00:00.000+09:00","ended_at":"2020-07-04T23:59:59.000+09:00","limit_number":null,"address":"","place":"xxxonlineeventxxx","lat":0.0,"lon":0.0,"state":"active","id":null},{"event_id":"1531614","title":"広告のじかん　第４回　外資系クリエイターと一緒に、海外広告のアイデアや発想法などを楽しく学ぼう！ in みんなのテラコヤ・オンライン×TBWAワールドワイドグループ・eg+worldwide Japan（Google Meet ）｜学生無料＆社会人お気持ち制","url":"http://peatix.com/event/1531614","shortener_url":null,"started_at":"2020-07-16T09:00:00.000+09:00","ended_at":"2020-07-18T23:59:59.000+09:00","limit_number":null,"address":"","place":"xxxonlineeventxxx","lat":0.0,"lon":0.0,"state":"active","id":null},{"event_id":"1531724","title":"日本が誇る世界的ワイナリー「都農ワイン（宮崎県）」オンライン見学ツアー（ワイン2本＆バーチャル背景プレゼント）","url":"http://peatix.com/event/1531724","shortener_url":null,"started_at":"2020-07-19T17:00:00.000+09:00","ended_at":"2020-07-21T23:59:59.000+09:00","limit_number":null,"address":"","place":"xxxonlineeventxxx","lat":null,"lon":null,"state":"active","id":null},{"event_id":"1500207","title":"【7/14 オンライン開催】まさみんの筆文字セミナー","url":"http://peatix.com/event/1500207","shortener_url":null,"started_at":"2020-07-14T01:00:00.000+09:00","ended_at":"2020-07-16T23:59:59.000+09:00","limit_number":null,"address":"","place":"xxxonlineeventxxx","lat":0.0,"lon":0.0,"state":"active","id":null},{"event_id":"107318","title":"［Web］Startup Weekend 岡山 座談会","url":"https://swokayama.doorkeeper.jp/events/107318","shortener_url":"https://bit.ly/32wwlGx","started_at":"2020-07-24T12:30:00.000+09:00","ended_at":"2020-07-24T14:00:00.000+09:00","limit_number":10,"address":"Zoomを用いて開催いたします","place":"","lat":null,"lon":null,"state":"active","id":null},{"event_id":"180895","title":"オープンデータ活用1Dayオンラインハッカソン【AsiaOpenDataChallenge2020】","url":"https://aodc.connpass.com/event/180895/","shortener_url":"https://bit.ly/3dED5nA","started_at":"2020-07-11T01:00:00.000+09:00","ended_at":"2020-07-11T09:00:00.000+09:00","limit_number":40,"address":"オンライン","place":"オンライン","lat":null,"lon":null,"state":"active","id":null},{"event_id":"1533558","title":"「自分の”これでいいんだ”をみつける」オンライン哲対話体験：テーマ「ふつう・当たり前」「人生・生き方」","url":"http://sogitetsu0709.peatix.com","shortener_url":null,"started_at":"2020-07-09T10:00:00.000+09:00","ended_at":"2020-07-11T23:59:59.000+09:00","limit_number":null,"address":"","place":"xxxonlineeventxxx","lat":0.0,"lon":0.0,"state":"active","id":null},{"event_id":"1531684","title":"Online Jam Sesh with Ger Mythen","url":"http://onlinejamsesh-july2020.peatix.com","shortener_url":null,"started_at":"2020-07-09T11:00:00.000+09:00","ended_at":"2020-07-11T23:59:59.000+09:00","limit_number":null,"address":"","place":"xxxonlineeventxxx","lat":0.0,"lon":0.0,"state":"active","id":null},{"event_id":"108725","title":"【オンライン】ウェブ解析士協会コンテンツハッカソン - 広告バナーで勝負しよう！","url":"https://web-mining.doorkeeper.jp/events/108725","shortener_url":"https://bit.ly/2Af4r6e","started_at":"2020-07-19T11:00:00.000+09:00","ended_at":"2020-07-19T17:00:00.000+09:00","limit_number":13,"address":"","place":"","lat":null,"lon":null,"state":"active","id":null},{"event_id":"1536289","title":"Tensorflow Study Jam 2020","url":"http://gdgkl-tensorflow-study-jam.peatix.com","shortener_url":null,"started_at":"2020-07-04T06:00:00.000+09:00","ended_at":"2020-07-06T23:59:59.000+09:00","limit_number":null,"address":"","place":"xxxonlineeventxxx","lat":0.0,"lon":0.0,"state":"active","id":null},{"event_id":"1534421","title":"お家で出来るセルフケア「お灸」はじめませんか ７月","url":"http://peatix.com/event/1534421","shortener_url":null,"started_at":"2020-07-07T05:30:00.000+09:00","ended_at":"2020-07-09T23:59:59.000+09:00","limit_number":null,"address":"","place":"xxxonlineeventxxx","lat":0.0,"lon":0.0,"state":"active","id":null},{"event_id":"1535401","title":"マサヤとゆる飲みしませんか？7月分","url":"http://masayuru-july.peatix.com","shortener_url":null,"started_at":"2020-07-31T13:00:00.000+09:00","ended_at":"2020-08-02T23:59:59.000+09:00","limit_number":null,"address":"","place":"xxxonlineeventxxx","lat":0.0,"lon":0.0,"state":"active","id":null},{"event_id":"1538343","title":"倶楽部ＨＳ ＃２　本で話をしよう「ことばってなんなんだろう？」〜本から生まれた「問い」を、考えてみましょう〜","url":"http://peatix.com/event/1538343","shortener_url":null,"started_at":"2020-07-15T10:30:00.000+09:00","ended_at":"2020-07-17T23:59:59.000+09:00","limit_number":null,"address":"","place":"xxxonlineeventxxx","lat":0.0,"lon":0.0,"state":"active","id":null},{"event_id":"1533503","title":"連続講義「詩という軽荷、詩という重荷」　第一回「詩ってなんだろう？」","url":"http://jpic-online200718-2.peatix.com","shortener_url":null,"started_at":"2020-07-18T05:00:00.000+09:00","ended_at":"2020-07-20T23:59:59.000+09:00","limit_number":null,"address":"","place":"xxxonlineeventxxx","lat":0.0,"lon":0.0,"state":"active","id":null},{"event_id":"1537253","title":"7月1日 (水) カフェ会やランチ会など企画して主催しませんか?「カフェ会主催ワークショップ」","url":"http://peatix.com/event/1537253","shortener_url":null,"started_at":"2020-07-01T06:30:00.000+09:00","ended_at":"2020-07-03T23:59:59.000+09:00","limit_number":null,"address":"豊島区東池袋1丁目6−4 伊藤ビル","place":"椿屋珈琲店池袋茶寮","lat":35.7314,"lon":139.713,"state":"active","id":null},{"event_id":"1537300","title":"7月29日 (水) カフェ会やランチ会など企画して主催しませんか?「カフェ会主催ワークショップ」","url":"http://peatix.com/event/1537300","shortener_url":null,"started_at":"2020-07-29T06:30:00.000+09:00","ended_at":"2020-07-31T23:59:59.000+09:00","limit_number":null,"address":"豊島区東池袋1丁目6−4 伊藤ビル","place":"椿屋珈琲店池袋茶寮","lat":35.7314,"lon":139.713,"state":"active","id":null},{"event_id":"1537295","title":"7月15日 (水) カフェ会やランチ会など企画して主催しませんか?「カフェ会主催ワークショップ」","url":"http://peatix.com/event/1537295","shortener_url":null,"started_at":"2020-07-15T06:30:00.000+09:00","ended_at":"2020-07-17T23:59:59.000+09:00","limit_number":null,"address":"豊島区東池袋1丁目6−4 伊藤ビル","place":"椿屋珈琲店池袋茶寮","lat":35.7314,"lon":139.713,"state":"active","id":null},{"event_id":"1537299","title":"7月22日 (水) カフェ会やランチ会など企画して主催しませんか?「カフェ会主催ワークショップ」","url":"http://peatix.com/event/1537299","shortener_url":null,"started_at":"2020-07-22T06:30:00.000+09:00","ended_at":"2020-07-24T23:59:59.000+09:00","limit_number":null,"address":"豊島区東池袋1丁目6−4 伊藤ビル","place":"椿屋珈琲店池袋茶寮","lat":35.7314,"lon":139.713,"state":"active","id":null},{"event_id":"1537287","title":"7月8日 (水) カフェ会やランチ会など企画して主催しませんか?「カフェ会主催ワークショップ」","url":"http://peatix.com/event/1537287","shortener_url":null,"started_at":"2020-07-08T06:30:00.000+09:00","ended_at":"2020-07-10T23:59:59.000+09:00","limit_number":null,"address":"豊島区東池袋1丁目6−4 伊藤ビル","place":"椿屋珈琲店池袋茶寮","lat":35.7314,"lon":139.713,"state":"active","id":null},{"event_id":"1534877","title":"IFAを調べるとこんなことありませんか?《参加無料》現役IFAが登壇-IFA業界WEBセミナー(講師:長谷川 学氏)","url":"http://peatix.com/event/1534877","shortener_url":null,"started_at":"2020-07-11T04:00:00.000+09:00","ended_at":"2020-07-13T23:59:59.000+09:00","limit_number":null,"address":"","place":"xxxonlineeventxxx","lat":0.0,"lon":0.0,"state":"active","id":null},{"event_id":"1535296","title":"副業の労働時間管理って、どうしたら良いんですか？ ～現場担当者に聞く、「兼業・副業の促進に向けた対応（案）」の読み解き方～","url":"http://meti-freelance-jp-0708.peatix.com","shortener_url":null,"started_at":"2020-07-08T10:30:00.000+09:00","ended_at":"2020-07-10T23:59:59.000+09:00","limit_number":null,"address":"","place":"xxxonlineeventxxx","lat":0.0,"lon":0.0,"state":"active","id":null},{"event_id":"1534618","title":"地方の課題（八ヶ岳地域）ｘＳＤＧｓ ～問題解決力のじかん・実践編～ 実例で一緒に考えるソーシャルシャルデザイン in みんなのテラコヤ・オンライン｜学生無料＆社会人お気持ち制","url":"http://peatix.com/event/1534618","shortener_url":null,"started_at":"2020-07-09T09:00:00.000+09:00","ended_at":"2020-07-11T23:59:59.000+09:00","limit_number":null,"address":"","place":"xxxonlineeventxxx","lat":0.0,"lon":0.0,"state":"active","id":null},{"event_id":"1534644","title":"地方の課題（八ヶ岳地域）ｘ公共哲学 ～質問力のじかん・実践編～ 実例で一緒に考えるソーシャルシャルデザイン in みんなのテラコヤ・オンライン｜学生無料＆社会人お気持ち制","url":"http://peatix.com/event/1534644","shortener_url":"https://bit.ly/2OFDwnS","started_at":"2020-07-30T09:00:00.000+09:00","ended_at":"2020-08-01T23:59:59.000+09:00","limit_number":null,"address":"","place":"xxxonlineeventxxx","lat":0.0,"lon":0.0,"state":"active","id":null},{"event_id":"181353","title":"UX JAM Online #05","url":"https://uxmilk.connpass.com/event/181353/","shortener_url":null,"started_at":"2020-07-07T10:30:00.000+09:00","ended_at":"2020-07-07T12:10:00.000+09:00","limit_number":1000,"address":"オンライン","place":"オンライン","lat":null,"lon":null,"state":"active","id":null},{"event_id":"1539474","title":"【満員御礼！】RURAL LABO もやもや円卓会議 vol.1 「関係人口ってなんだ」","url":"http://rurallabo-vol1.peatix.com","shortener_url":null,"started_at":"2020-07-08T10:30:00.000+09:00","ended_at":"2020-07-10T23:59:59.000+09:00","limit_number":null,"address":"文京区向丘1丁目16−17","place":"Rural coffee","lat":35.7192,"lon":139.756,"state":"active","id":null},{"event_id":"1538085","title":"第29回えんちゃん農場パートナーズday","url":"http://peatix.com/event/1538085","shortener_url":null,"started_at":"2020-07-11T00:00:00.000+09:00","ended_at":"2020-07-13T23:59:59.000+09:00","limit_number":null,"address":"横浜市旭区下川井町 都岡めぐみの里 内","place":"えんちゃん農場","lat":35.4878,"lon":139.506,"state":"active","id":null},{"event_id":"1539673","title":"第６回 トレード座談会 株fx商品編（相談ok。投資 未経験 ～ 資産増加1,000万円以下の方向け。極少人数・不定期 開催）","url":"http://peatix.com/event/1539673","shortener_url":null,"started_at":"2020-07-11T06:00:00.000+09:00","ended_at":"2020-07-13T23:59:59.000+09:00","limit_number":null,"address":"","place":"xxxonlineeventxxx","lat":0.0,"lon":0.0,"state":"active","id":null},{"event_id":"181330","title":"現役フリーランス主催 関西若手エンジニア、デザイナーのための【ノーマウント勉強会】#16","url":"https://no-mount.connpass.com/event/181330/","shortener_url":"https://bit.ly/3jkeHMk","started_at":"2020-07-25T02:45:00.000+09:00","ended_at":"2020-07-25T09:00:00.000+09:00","limit_number":50,"address":"大阪府大阪市淀川区西中島4-2-26","place":"天神第一ビル６階","lat":34.7264,"lon":135.498,"state":"active","id":null},{"event_id":"1537275","title":"【アラフィフ世代のためのオンライン「実録」終活講座 全５回】第１回：介護施設の違いと選び方〜 高齢者施設って一緒だと思っていませんか？〜","url":"http://peatix.com/event/1537275","shortener_url":null,"started_at":"2020-07-21T10:00:00.000+09:00","ended_at":"2020-07-23T23:59:59.000+09:00","limit_number":null,"address":"","place":"xxxonlineeventxxx","lat":null,"lon":null,"state":"active","id":null},{"event_id":"181680","title":"Kamakura Mok Mok Hack 80 - 鎌倉もくもく会","url":"https://kamkura-mokmok.connpass.com/event/181680/","shortener_url":null,"started_at":"2020-07-04T04:00:00.000+09:00","ended_at":"2020-07-04T07:00:00.000+09:00","limit_number":10,"address":"オンライン","place":"zoom","lat":null,"lon":null,"state":"active","id":null},{"event_id":"1541090","title":"今週もあと2日ーオトコもヨガやってみたいんだよねぇ　（メンズヨガ)","url":"http://peatix.com/event/1541090","shortener_url":null,"started_at":"2020-07-15T11:00:00.000+09:00","ended_at":"2020-07-17T23:59:59.000+09:00","limit_number":null,"address":"","place":"xxxonlineeventxxx","lat":0.0,"lon":0.0,"state":"active","id":null},{"event_id":"1541095","title":"【無料メンズヨガ】今週もあと2日ーオトコもヨガやってみたいんだよねぇ","url":"http://peatix.com/event/1541095","shortener_url":null,"started_at":"2020-07-22T11:00:00.000+09:00","ended_at":"2020-07-24T23:59:59.000+09:00","limit_number":null,"address":"","place":"xxxonlineeventxxx","lat":null,"lon":null,"state":"active","id":null},{"event_id":"1541098","title":"【無料メンズヨガ】今週もあと2日ーオトコもヨガやってみたいんだよねぇ","url":"http://peatix.com/event/1541098","shortener_url":null,"started_at":"2020-07-29T11:00:00.000+09:00","ended_at":"2020-07-31T23:59:59.000+09:00","limit_number":null,"address":"","place":"xxxonlineeventxxx","lat":null,"lon":null,"state":"active","id":null},{"event_id":"1526276","title":"今週もあと2日ーオトコもヨガやってみたいんだよねぇ　（メンズヨガ)","url":"http://peatix.com/event/1526276","shortener_url":null,"started_at":"2020-07-08T11:00:00.000+09:00","ended_at":"2020-07-10T23:59:59.000+09:00","limit_number":null,"address":"","place":"xxxonlineeventxxx","lat":null,"lon":null,"state":"active","id":null},{"event_id":"1534012","title":"【オンライン】就活系Youtuberに質問攻め！～遠慮せず、あれやこれや聞いてみませんか？～","url":"http://peatix.com/event/1534012","shortener_url":null,"started_at":"2020-07-07T10:00:00.000+09:00","ended_at":"2020-07-09T23:59:59.000+09:00","limit_number":null,"address":"","place":"xxxonlineeventxxx","lat":0.0,"lon":0.0,"state":"active","id":null},{"event_id":"108941","title":"[Web]Startup Weekendを体験してみるアイデアワークショップ","url":"https://swnagoya.doorkeeper.jp/events/108941","shortener_url":null,"started_at":"2020-07-18T04:00:00.000+09:00","ended_at":"2020-07-18T06:30:00.000+09:00","limit_number":16,"address":"","place":"","lat":null,"lon":null,"state":"active","id":null},{"event_id":"1542335","title":"「ZOOM演劇合宿・開催してみて参加してみて」7/6（月）参加無料トークショー","url":"http://peatix.com/event/1542335","shortener_url":null,"started_at":"2020-07-06T12:00:00.000+09:00","ended_at":"2020-07-08T23:59:59.000+09:00","limit_number":null,"address":"","place":"xxxonlineeventxxx","lat":0.0,"lon":0.0,"state":"active","id":null},{"event_id":"1542012","title":"POOLOオープンキャンパスナイト開催！お酒を片手にこれからの旅の楽しさについて考えみませんか？","url":"http://peatix.com/event/1542012","shortener_url":null,"started_at":"2020-07-09T11:00:00.000+09:00","ended_at":"2020-07-11T23:59:59.000+09:00","limit_number":null,"address":"","place":"xxxonlineeventxxx","lat":0.0,"lon":0.0,"state":"active","id":null},{"event_id":"1541565","title":"【オンライン】ヨガと骨盤調整で心と身体を整えましょう。朝活・夜活習慣を一緒に作りませんか？","url":"http://peatix.com/event/1541565","shortener_url":null,"started_at":"2020-07-05T22:00:00.000+09:00","ended_at":"2020-07-07T23:59:59.000+09:00","limit_number":null,"address":"","place":"xxxonlineeventxxx","lat":0.0,"lon":0.0,"state":"active","id":null},{"event_id":"181859","title":"スクラム道関西 オープン・ジャム・オンライン","url":"https://scrumdo-kansai.connpass.com/event/181859/","shortener_url":null,"started_at":"2020-07-14T12:00:00.000+09:00","ended_at":"2020-07-14T14:00:00.000+09:00","limit_number":25,"address":"オンライン","place":"オンライン","lat":null,"lon":null,"state":"active","id":null},{"event_id":"182182","title":"PyLadies Tokyo Meetup #53 オンラインもくもく会","url":"https://pyladies-tokyo.connpass.com/event/182182/","shortener_url":null,"started_at":"2020-07-18T04:00:00.000+09:00","ended_at":"2020-07-18T08:00:00.000+09:00","limit_number":37,"address":"","place":"Online","lat":null,"lon":null,"state":"active","id":null},{"event_id":"1545081","title":"7月16日オンライン開催！当事者研究アイディアソン","url":"http://peatix.com/event/1545081","shortener_url":"https://bit.ly/3iA4JWF","started_at":"2020-07-16T10:00:00.000+09:00","ended_at":"2020-07-18T23:59:59.000+09:00","limit_number":null,"address":"","place":"xxxonlineeventxxx","lat":0.0,"lon":0.0,"state":"active","id":null},{"event_id":"1545131","title":"7月20日オンライン開催！当事者研究アイディアソン","url":"http://peatix.com/event/1545131","shortener_url":"https://bit.ly/3gBBKAa","started_at":"2020-07-20T11:00:00.000+09:00","ended_at":"2020-07-22T23:59:59.000+09:00","limit_number":null,"address":"","place":"xxxonlineeventxxx","lat":0.0,"lon":0.0,"state":"closed","id":null},{"event_id":"1542149","title":"Save Our Seas Mini Jam","url":"http://sos-minijam-2020.peatix.com","shortener_url":null,"started_at":"2020-07-23T04:00:00.000+09:00","ended_at":"2020-07-25T23:59:59.000+09:00","limit_number":null,"address":"","place":"xxxonlineeventxxx","lat":null,"lon":null,"state":"active","id":null},{"event_id":"1544544","title":"『くれいじーかろのプチ合宿』","url":"http://crazy-karo.peatix.com","shortener_url":null,"started_at":"2020-07-23T00:00:00.000+09:00","ended_at":"2020-07-25T23:59:59.000+09:00","limit_number":null,"address":"千代田区千代田1−1","place":"皇居","lat":35.6852,"lon":139.753,"state":"active","id":null},{"event_id":"1540705","title":"人生を素晴らしくする合宿 2020/07","url":"http://connecting-comittee1.peatix.com","shortener_url":"https://bit.ly/2VNDka3","started_at":"2020-07-09T01:00:00.000+09:00","ended_at":"2020-07-11T23:59:59.000+09:00","limit_number":null,"address":"","place":"xxxonlineeventxxx","lat":0.0,"lon":0.0,"state":"active","id":null},{"event_id":"1546980","title":"［オンライン］エイゴお絵かきのじかん","url":"http://chibikko7450-11jul20e.peatix.com","shortener_url":null,"started_at":"2020-07-11T02:00:00.000+09:00","ended_at":"2020-07-13T23:59:59.000+09:00","limit_number":null,"address":"","place":"xxxonlineeventxxx","lat":0.0,"lon":0.0,"state":"active","id":null},{"event_id":"1547012","title":"［オンライン］あまえんばおうさんのエイゴトーク","url":"http://chibikko7450-12jul20a.peatix.com","shortener_url":null,"started_at":"2020-07-12T00:00:00.000+09:00","ended_at":"2020-07-14T23:59:59.000+09:00","limit_number":null,"address":"","place":"xxxonlineeventxxx","lat":0.0,"lon":0.0,"state":"active","id":null},{"event_id":"1545020","title":"［オンライン］あまえんばおうさんのエイゴトーク","url":"http://chibikko7450-09jul20a.peatix.com","shortener_url":null,"started_at":"2020-07-09T06:30:00.000+09:00","ended_at":"2020-07-11T23:59:59.000+09:00","limit_number":null,"address":"","place":"xxxonlineeventxxx","lat":0.0,"lon":0.0,"state":"active","id":null},{"event_id":"1544437","title":"【無料オンラインセミナー 】統計学を臨床に活かす9つのコツ〜臨床家が知っておきたい統計学を学びませんか〜","url":"http://peatix.com/event/1544437","shortener_url":null,"started_at":"2020-07-16T11:00:00.000+09:00","ended_at":"2020-07-18T23:59:59.000+09:00","limit_number":null,"address":"","place":"xxxonlineeventxxx","lat":0.0,"lon":0.0,"state":"active","id":null},{"event_id":"1545589","title":"【生配信・無料】深緑茶房名古屋店長と語る「日本茶って面白いんだよ！」　|　ゲスト＝松本壮真さん　|　18分間だけのウキウキ・オンライン・ウォッチング『＃つながっていいとも』","url":"http://200709iitomo.peatix.com","shortener_url":null,"started_at":"2020-07-09T03:30:00.000+09:00","ended_at":"2020-07-11T23:59:59.000+09:00","limit_number":null,"address":"","place":"xxxonlineeventxxx","lat":0.0,"lon":0.0,"state":"active","id":null},{"event_id":"182275","title":"ITC STUDIO JAM 7月号 [初回スペシャル]","url":"https://itcjam.connpass.com/event/182275/","shortener_url":"https://bit.ly/2COem3L","started_at":"2020-07-24T12:00:00.000+09:00","ended_at":"2020-07-24T14:45:00.000+09:00","limit_number":null,"address":"オンライン","place":"オンライン","lat":null,"lon":null,"state":"active","id":null},{"event_id":"182259","title":"Kamakura Mok Mok Hack 81 - 鎌倉もくもく会","url":"https://kamkura-mokmok.connpass.com/event/182259/","shortener_url":null,"started_at":"2020-07-11T04:00:00.000+09:00","ended_at":"2020-07-11T07:00:00.000+09:00","limit_number":10,"address":"オンライン","place":"zoom","lat":null,"lon":null,"state":"active","id":null},{"event_id":"1547017","title":"［オンライン］あまえんばおうさんのエイゴトーク","url":"http://chibikko7450-16jul20a.peatix.com","shortener_url":null,"started_at":"2020-07-16T06:30:00.000+09:00","ended_at":"2020-07-18T23:59:59.000+09:00","limit_number":null,"address":"","place":"xxxonlineeventxxx","lat":0.0,"lon":0.0,"state":"active","id":null},{"event_id":"1546213","title":"【オンライン開催】With/Afterコロナの外食体験をデザインするワークショプ！！ ~デザイン思考を用いたアイデアソン~","url":"http://designthinking-ws.peatix.com","shortener_url":"https://bit.ly/2CgDEqP","started_at":"2020-07-26T04:00:00.000+09:00","ended_at":"2020-07-28T23:59:59.000+09:00","limit_number":null,"address":"","place":"xxxonlineeventxxx","lat":0.0,"lon":0.0,"state":"active","id":null},{"event_id":"1547126","title":"おーみんのワンコインワイン講座「ワインの知識無しでもワインと料理をペアリングできる3つの法則」","url":"http://o-min-winezoom.peatix.com","shortener_url":null,"started_at":"2020-07-29T12:00:00.000+09:00","ended_at":"2020-07-31T23:59:59.000+09:00","limit_number":null,"address":"","place":"xxxonlineeventxxx","lat":null,"lon":null,"state":"active","id":null},{"event_id":"1549445","title":"［オンライン］あまえんばおうさんのエイゴトーク","url":"http://chibikko7450-26jul20a.peatix.com","shortener_url":null,"started_at":"2020-07-26T00:00:00.000+09:00","ended_at":"2020-07-28T23:59:59.000+09:00","limit_number":null,"address":"","place":"xxxonlineeventxxx","lat":0.0,"lon":0.0,"state":"active","id":null},{"event_id":"1549448","title":"［オンライン］あまえんばおうさんのエイゴトーク","url":"http://chibikko7450-30jul20a.peatix.com","shortener_url":null,"started_at":"2020-07-30T06:30:00.000+09:00","ended_at":"2020-08-01T23:59:59.000+09:00","limit_number":null,"address":"","place":"xxxonlineeventxxx","lat":0.0,"lon":0.0,"state":"active","id":null},{"event_id":"1549438","title":"［オンライン］あまえんばおうさんのエイゴトーク","url":"http://chibikko7450-19jul20a.peatix.com","shortener_url":null,"started_at":"2020-07-19T00:00:00.000+09:00","ended_at":"2020-07-21T23:59:59.000+09:00","limit_number":null,"address":"","place":"xxxonlineeventxxx","lat":0.0,"lon":0.0,"state":"active","id":null},{"event_id":"1549443","title":"［オンライン］あまえんばおうさんのエイゴトーク","url":"http://chibikko7450-23jul20a.peatix.com","shortener_url":null,"started_at":"2020-07-23T06:30:00.000+09:00","ended_at":"2020-07-25T23:59:59.000+09:00","limit_number":null,"address":"","place":"xxxonlineeventxxx","lat":0.0,"lon":0.0,"state":"active","id":null},{"event_id":"1547480","title":"【公開型社内勉強会】ヒップスターゲートの社内勉強会を体験してみませんか！？","url":"http://hsg-studygroup001.peatix.com","shortener_url":null,"started_at":"2020-07-15T06:00:00.000+09:00","ended_at":"2020-07-17T23:59:59.000+09:00","limit_number":null,"address":"","place":"xxxonlineeventxxx","lat":null,"lon":null,"state":"active","id":null},{"event_id":"1547476","title":"【オンライン】ヨガと骨盤調整で心と身体を整えましょう。朝活・夜活習慣を一緒に作りませんか？","url":"http://peatix.com/event/1547476","shortener_url":null,"started_at":"2020-07-07T08:00:00.000+09:00","ended_at":"2020-07-09T23:59:59.000+09:00","limit_number":null,"address":"","place":"xxxonlineeventxxx","lat":null,"lon":null,"state":"active","id":null},{"event_id":"182477","title":"Open Hack U 2020 Online アイデア発想ワークショップ","url":"https://hacku.connpass.com/event/182477/","shortener_url":"https://bit.ly/2BMchFp","started_at":"2020-07-28T10:00:00.000+09:00","ended_at":"2020-07-28T11:30:00.000+09:00","limit_number":60,"address":"","place":"ヤフー株式会社 大阪オフィス","lat":35.6796,"lon":139.737,"state":"active","id":null},{"event_id":"1534207","title":"【スリールLIVE #3】社会人3年目を迎えるにあたり、モヤモヤしていませんか？ 転職？会社に残る？ ぶっちゃけトークイベント","url":"http://peatix.com/event/1534207","shortener_url":null,"started_at":"2020-07-18T05:00:00.000+09:00","ended_at":"2020-07-20T23:59:59.000+09:00","limit_number":null,"address":"","place":"xxxonlineeventxxx","lat":0.0,"lon":0.0,"state":"active","id":null},{"event_id":"182702","title":"【オンライン限定】Salesforce Saturday 赤坂＃13","url":"https://salesforcesaturday-akasaka.connpass.com/event/182702/","shortener_url":null,"started_at":"2020-07-18T04:00:00.000+09:00","ended_at":"2020-07-18T08:00:00.000+09:00","limit_number":60,"address":"オンライン","place":"Salesforce Saturday Online","lat":null,"lon":null,"state":"active","id":null},{"event_id":"109255","title":"【オンライン・オフライン併催】「速くて書きやすい」次世代の言語Juliaを学ぼう! Julia勉強会#1","url":"https://soleildatadojo.doorkeeper.jp/events/109255","shortener_url":"https://bit.ly/3eBD9Fm","started_at":"2020-07-29T10:30:00.000+09:00","ended_at":"2020-07-29T12:30:00.000+09:00","limit_number":40,"address":"大阪市北区西天満253(堂島深川ビル3階)","place":"Scribble Osaka Lab（大阪メトロ御堂筋線「淀屋橋」駅より徒歩４分）","lat":34.6952,"lon":135.502,"state":"active","id":null},{"event_id":"1554145","title":"［オンライン］エイゴお絵かきのじかん","url":"http://chibikko7450-25jule.peatix.com","shortener_url":null,"started_at":"2020-07-25T02:00:00.000+09:00","ended_at":"2020-07-27T23:59:59.000+09:00","limit_number":null,"address":"","place":"xxxonlineeventxxx","lat":null,"lon":null,"state":"active","id":null},{"event_id":"1554139","title":"［オンライン］エイゴお絵かきのじかん","url":"http://chibikko7450-14jul20e.peatix.com","shortener_url":null,"started_at":"2020-07-14T06:30:00.000+09:00","ended_at":"2020-07-16T23:59:59.000+09:00","limit_number":null,"address":"","place":"xxxonlineeventxxx","lat":0.0,"lon":0.0,"state":"active","id":null},{"event_id":"1554143","title":"［オンライン］エイゴお絵かきのじかん","url":"http://chibikko7450-18jul20e.peatix.com","shortener_url":null,"started_at":"2020-07-18T02:00:00.000+09:00","ended_at":"2020-07-20T23:59:59.000+09:00","limit_number":null,"address":"","place":"xxxonlineeventxxx","lat":0.0,"lon":0.0,"state":"active","id":null},{"event_id":"1553248","title":"［オンライン］エイゴおんがくのじかん　ドキドキワクワクがとまらない","url":"http://chibikko7450-19jul20d.peatix.com","shortener_url":null,"started_at":"2020-07-19T10:00:00.000+09:00","ended_at":"2020-07-21T23:59:59.000+09:00","limit_number":null,"address":"","place":"xxxonlineeventxxx","lat":null,"lon":null,"state":"active","id":null},{"event_id":"1543657","title":"【オンライン】 『電磁波ストレスマネジメント講座』 むやみに電磁波を心配するのは、もうやめませんか？","url":"http://peatix.com/event/1543657","shortener_url":null,"started_at":"2020-07-31T04:00:00.000+09:00","ended_at":"2020-08-02T23:59:59.000+09:00","limit_number":null,"address":"","place":"xxxonlineeventxxx","lat":0.0,"lon":0.0,"state":"active","id":null},{"event_id":"1547371","title":"【オンラインセミナー／リノベーション】これからの暮らしや、自分らしい住まいを考えてみませんか。","url":"http://bluestudio-renovation-consulting200718.peatix.com","shortener_url":null,"started_at":"2020-07-18T02:00:00.000+09:00","ended_at":"2020-07-20T23:59:59.000+09:00","limit_number":null,"address":"","place":"xxxonlineeventxxx","lat":0.0,"lon":0.0,"state":"active","id":null},{"event_id":"1554354","title":"複数拠点利用可能な賃貸住宅niclassサービス説明会〜心地よく、自分らしい暮らしを始めてみませんか？〜","url":"http://niclass-hajimari.peatix.com","shortener_url":null,"started_at":"2020-07-22T11:00:00.000+09:00","ended_at":"2020-07-24T23:59:59.000+09:00","limit_number":null,"address":"","place":"xxxonlineeventxxx","lat":null,"lon":null,"state":"active","id":null},{"event_id":"1551668","title":"7/21 ウェビナー開催！【失敗しないベトナムオフショア・ラボ開発】低コストで高品質な開発チームを作ってみませんか？ \u003c株式会社ハイウェル\u003e","url":"http://hiwellfreeda.peatix.com","shortener_url":"https://bit.ly/2CugNbE","started_at":"2020-07-21T06:00:00.000+09:00","ended_at":"2020-07-23T23:59:59.000+09:00","limit_number":null,"address":"","place":"xxxonlineeventxxx","lat":null,"lon":null,"state":"active","id":null},{"event_id":"183422","title":"ydp#38","url":"https://ydp.connpass.com/event/183422/","shortener_url":"https://bit.ly/2OB8Q75","started_at":"2020-07-25T00:00:00.000+09:00","ended_at":"2020-07-25T02:00:00.000+09:00","limit_number":null,"address":"","place":"Discord","lat":null,"lon":null,"state":"active","id":null},{"event_id":"183042","title":"ぷち合宿#37","url":"https://ydp.connpass.com/event/183042/","shortener_url":null,"started_at":"2020-07-18T00:00:00.000+09:00","ended_at":"2020-07-18T02:00:00.000+09:00","limit_number":null,"address":"","place":"","lat":null,"lon":null,"state":"active","id":null},{"event_id":"183004","title":"第24回 PCNひろしま こどもプログラミング教室","url":"https://pcn-hiroshima.connpass.com/event/183004/","shortener_url":"https://bit.ly/32wIFGX","started_at":"2020-07-26T01:30:00.000+09:00","ended_at":"2020-07-26T03:30:00.000+09:00","limit_number":14,"address":"オンライン","place":"オンライン","lat":34.3941,"lon":132.459,"state":"active","id":null},{"event_id":"182987","title":"Kamakura Mok Mok Hack 82 - 鎌倉もくもく会","url":"https://kamkura-mokmok.connpass.com/event/182987/","shortener_url":null,"started_at":"2020-07-18T04:00:00.000+09:00","ended_at":"2020-07-18T07:00:00.000+09:00","limit_number":10,"address":"オンライン","place":"zoom","lat":null,"lon":null,"state":"active","id":null},{"event_id":"1559982","title":"［オンライン］エイゴお絵かきのじかん　ちびっこピカソ大集合","url":"http://chibikko7450-21jul20e.peatix.com","shortener_url":null,"started_at":"2020-07-21T06:30:00.000+09:00","ended_at":"2020-07-23T23:59:59.000+09:00","limit_number":null,"address":"","place":"xxxonlineeventxxx","lat":null,"lon":null,"state":"active","id":null},{"event_id":"1559988","title":"［オンライン］エイゴお絵かきのじかん　ちびっこピカソ大集合","url":"http://chibikko7450-28jul20e.peatix.com","shortener_url":null,"started_at":"2020-07-28T06:30:00.000+09:00","ended_at":"2020-07-30T23:59:59.000+09:00","limit_number":null,"address":"","place":"xxxonlineeventxxx","lat":null,"lon":null,"state":"active","id":null},{"event_id":"1558634","title":"［オンライン］エイゴおんがくのじかん　ドキドキワクワクがとまらない","url":"http://peatix.com/event/1558634","shortener_url":null,"started_at":"2020-07-23T06:30:00.000+09:00","ended_at":"2020-07-25T23:59:59.000+09:00","limit_number":null,"address":"","place":"xxxonlineeventxxx","lat":null,"lon":null,"state":"active","id":null},{"event_id":"1549702","title":"「自分の”これでいいんだ”をみつける」オンライン哲対話体験：テーマ「ふつう・当たり前」「人生・生き方」 (複製)","url":"http://tetsulab0723.peatix.com","shortener_url":"https://bit.ly/30tMAlj","started_at":"2020-07-23T06:00:00.000+09:00","ended_at":"2020-07-25T23:59:59.000+09:00","limit_number":null,"address":"","place":"xxxonlineeventxxx","lat":null,"lon":null,"state":"active","id":null},{"event_id":"1559120","title":"【参加無料】ブロックチェーン・ビジネス入門──『あなたの会社もブロックチェーンを始めませんか?』最新事例に学ぶ","url":"http://btokyomembers009.peatix.com","shortener_url":"https://bit.ly/30pLIhh","started_at":"2020-07-29T07:00:00.000+09:00","ended_at":"2020-07-31T23:59:59.000+09:00","limit_number":null,"address":"","place":"xxxonlineeventxxx","lat":null,"lon":null,"state":"active","id":null},{"event_id":"1555954","title":"ページをめくる度に衝撃が走る雑誌『NEUTRAL COLORS』創刊記念 ──加藤さん、どこまで行くんですか？","url":"http://spbs20200731.peatix.com","shortener_url":null,"started_at":"2020-07-31T11:00:00.000+09:00","ended_at":"2020-08-02T23:59:59.000+09:00","limit_number":null,"address":"","place":"xxxonlineeventxxx","lat":0.0,"lon":0.0,"state":"active","id":null},{"event_id":"1560315","title":"占いより正確！科学的根拠を基に設計した自己分析ツールを使ってみませんか？【人間力診断テスト＆オンラインカウンセリング】","url":"http://peatix.com/event/1560315","shortener_url":null,"started_at":"2020-07-23T02:00:00.000+09:00","ended_at":"2020-07-25T23:59:59.000+09:00","limit_number":null,"address":"","place":"xxxonlineeventxxx","lat":0.0,"lon":0.0,"state":"active","id":null},{"event_id":"1540552","title":"chicaのちいさな展示会〝あなたはあなたを生きるだけでいい〟","url":"http://chica723.peatix.com","shortener_url":null,"started_at":"2020-07-23T01:00:00.000+09:00","ended_at":"2020-07-25T23:59:59.000+09:00","limit_number":null,"address":"","place":"xxxonlineeventxxx","lat":null,"lon":null,"state":"active","id":null},{"event_id":"1546316","title":"【増席しました】chicaのちいさな展示会〝あなたはあなたを生きるだけでいい〟","url":"http://chica724.peatix.com","shortener_url":null,"started_at":"2020-07-24T01:00:00.000+09:00","ended_at":"2020-07-26T23:59:59.000+09:00","limit_number":null,"address":"","place":"xxxonlineeventxxx","lat":null,"lon":null,"state":"active","id":null},{"event_id":"1562186","title":"［オンライン］エイゴおんがくのじかん　ワクワクドキドキがとまらない","url":"http://chibikko7450-26jul20d.peatix.com","shortener_url":null,"started_at":"2020-07-26T01:00:00.000+09:00","ended_at":"2020-07-28T23:59:59.000+09:00","limit_number":null,"address":"","place":"xxxonlineeventxxx","lat":null,"lon":null,"state":"active","id":null},{"event_id":"1562190","title":"［オンライン］エイゴおんがくのじかん　ワクワクドキドキがとまらない","url":"http://chibikko7450-30jul20d.peatix.com","shortener_url":null,"started_at":"2020-07-30T07:30:00.000+09:00","ended_at":"2020-08-01T23:59:59.000+09:00","limit_number":null,"address":"","place":"xxxonlineeventxxx","lat":null,"lon":null,"state":"active","id":null},{"event_id":"1561336","title":"MEETING #04　本、書きたいんですって？｜伊勢達郎さん × 西村佳哲","url":"http://peatix.com/event/1561336","shortener_url":null,"started_at":"2020-07-26T01:00:00.000+09:00","ended_at":"2020-07-28T23:59:59.000+09:00","limit_number":null,"address":"","place":"xxxonlineeventxxx","lat":null,"lon":null,"state":"active","id":null},{"event_id":"183653","title":"Android Chaotic Jam","url":"https://sapporo-apk.connpass.com/event/183653/","shortener_url":null,"started_at":"2020-07-24T10:00:00.000+09:00","ended_at":"2020-07-24T14:00:00.000+09:00","limit_number":30,"address":"オンライン","place":"オンライン","lat":null,"lon":null,"state":"active","id":null},{"event_id":"183652","title":"Kamakura Mok Mok Hack 83 - 鎌倉もくもく会","url":"https://kamkura-mokmok.connpass.com/event/183652/","shortener_url":"https://bit.ly/3eGGfrG","started_at":"2020-07-25T04:00:00.000+09:00","ended_at":"2020-07-25T07:00:00.000+09:00","limit_number":10,"address":"オンライン","place":"zoom","lat":null,"lon":null,"state":"active","id":null},{"event_id":"1562898","title":"英語のじかん（ランチタイム英対話） テーマ：ニュージーランド・日本の文化習慣の違いなど in みんなのテラコヤ・オンライン｜学生無料＆社会人お気持ち制","url":"http://peatix.com/event/1562898","shortener_url":"https://bit.ly/3eOs2c2","started_at":"2020-07-30T03:00:00.000+09:00","ended_at":"2020-08-01T23:59:59.000+09:00","limit_number":null,"address":"","place":"xxxonlineeventxxx","lat":null,"lon":null,"state":"active","id":null},{"event_id":"1563418","title":"オンライン講座８：ユーザーとの接点を大切にする「ニーズ」の考え方","url":"http://peatix.com/event/1563418","shortener_url":"https://bit.ly/30A57fP","started_at":"2020-07-24T11:00:00.000+09:00","ended_at":"2020-07-26T23:59:59.000+09:00","limit_number":null,"address":"","place":"xxxonlineeventxxx","lat":null,"lon":null,"state":"active","id":null},{"event_id":"1563420","title":"オンライン講座６：スマホサイト〜ハンバーガーメニューの理想と現実","url":"http://peatix.com/event/1563420","shortener_url":"https://bit.ly/30zkbu3","started_at":"2020-07-25T06:00:00.000+09:00","ended_at":"2020-07-27T23:59:59.000+09:00","limit_number":null,"address":"","place":"xxxonlineeventxxx","lat":null,"lon":null,"state":"active","id":null},{"event_id":"1563423","title":"オンライン講座７：スマホサイト〜レスポンシブデザインの理想と現実","url":"http://peatix.com/event/1563423","shortener_url":"https://bit.ly/2E4ScuD","started_at":"2020-07-25T08:00:00.000+09:00","ended_at":"2020-07-27T23:59:59.000+09:00","limit_number":null,"address":"","place":"xxxonlineeventxxx","lat":null,"lon":null,"state":"active","id":null},{"event_id":"1563412","title":"オンライン講座９：ユーザーに支持される情報デザイン","url":"http://peatix.com/event/1563412","shortener_url":"https://bit.ly/32CNNct","started_at":"2020-07-24T08:00:00.000+09:00","ended_at":"2020-07-26T23:59:59.000+09:00","limit_number":null,"address":"","place":"xxxonlineeventxxx","lat":null,"lon":null,"state":"active","id":null},{"event_id":"1563425","title":"オンライン講座5：スマホサイトを快適にするナビゲーション性能","url":"http://peatix.com/event/1563425","shortener_url":"https://bit.ly/30xk9CJ","started_at":"2020-07-25T11:00:00.000+09:00","ended_at":"2020-07-27T23:59:59.000+09:00","limit_number":null,"address":"","place":"xxxonlineeventxxx","lat":null,"lon":null,"state":"active","id":null},{"event_id":"1563405","title":"オンライン講座２：わかりやすいサイトを作るUIデザインのツボ","url":"http://peatix.com/event/1563405","shortener_url":null,"started_at":"2020-07-23T08:00:00.000+09:00","ended_at":"2020-07-25T23:59:59.000+09:00","limit_number":null,"address":"","place":"xxxonlineeventxxx","lat":null,"lon":null,"state":"active","id":null},{"event_id":"1563401","title":"オンライン講座１：認知学などのデータから学ぶUIデザイン","url":"http://peatix.com/event/1563401","shortener_url":null,"started_at":"2020-07-23T06:00:00.000+09:00","ended_at":"2020-07-25T23:59:59.000+09:00","limit_number":null,"address":"","place":"xxxonlineeventxxx","lat":null,"lon":null,"state":"active","id":null},{"event_id":"1563406","title":"オンライン講座４：良い悪いが比べてわかる！使いやすいナビゲーション","url":"http://peatix.com/event/1563406","shortener_url":null,"started_at":"2020-07-23T11:00:00.000+09:00","ended_at":"2020-07-25T23:59:59.000+09:00","limit_number":null,"address":"","place":"xxxonlineeventxxx","lat":null,"lon":null,"state":"active","id":null},{"event_id":"1564349","title":"フィンランドと日本の高校教諭が語る”先生の仕事ってなんだろう？”","url":"http://peatix.com/event/1564349","shortener_url":null,"started_at":"2020-07-31T10:30:00.000+09:00","ended_at":"2020-08-02T23:59:59.000+09:00","limit_number":null,"address":"","place":"xxxonlineeventxxx","lat":0.0,"lon":0.0,"state":"active","id":null},{"event_id":"1559385","title":"【無料オンラインセミナー 】統計学を臨床に活かす9つのコツ〜臨床家が知っておきたい統計学を学びませんか〜","url":"http://peatix.com/event/1559385","shortener_url":null,"started_at":"2020-07-30T11:00:00.000+09:00","ended_at":"2020-08-01T23:59:59.000+09:00","limit_number":null,"address":"","place":"xxxonlineeventxxx","lat":0.0,"lon":0.0,"state":"active","id":null},{"event_id":"1564573","title":"【オンライン】StaffPad for Windows10 入門、他（マンツーマンレッスン）","url":"http://staffpad.peatix.com","shortener_url":null,"started_at":"2020-07-29T02:00:00.000+09:00","ended_at":"2020-07-31T23:59:59.000+09:00","limit_number":null,"address":"","place":"xxxonlineeventxxx","lat":null,"lon":null,"state":"active","id":null},{"event_id":"181312","title":"てすらぼみーとあっぷ #2","url":"https://autotest-lab.connpass.com/event/181312/","shortener_url":"https://bit.ly/2WPsBw6","started_at":"2020-07-30T10:30:00.000+09:00","ended_at":"2020-07-30T12:30:00.000+09:00","limit_number":302,"address":"オンライン","place":"オンライン","lat":null,"lon":null,"state":"active","id":null},{"event_id":"183930","title":"スクラム道関西 オープン・ジャム・オンライン","url":"https://scrumdo-kansai.connpass.com/event/183930/","shortener_url":null,"started_at":"2020-07-30T12:00:00.000+09:00","ended_at":"2020-07-30T14:00:00.000+09:00","limit_number":25,"address":"オンライン","place":"オンライン","lat":null,"lon":null,"state":"active","id":null},{"event_id":"184063","title":"ydp#39","url":"https://ydp.connpass.com/event/184063/","shortener_url":"https://bit.ly/2BrI0eC","started_at":"2020-07-26T00:00:00.000+09:00","ended_at":"2020-07-26T02:00:00.000+09:00","limit_number":null,"address":"","place":"Discord","lat":null,"lon":null,"state":"active","id":null},{"event_id":"1564761","title":"拝啓：起業したいそこのアナタ。新進気鋭の不動産カンパニー代表と語りませんか","url":"http://peatix.com/event/1564761","shortener_url":"https://bit.ly/3eUQR6o","started_at":"2020-07-28T02:00:00.000+09:00","ended_at":"2020-07-30T23:59:59.000+09:00","limit_number":null,"address":"","place":"xxxonlineeventxxx","lat":null,"lon":null,"state":"active","id":null},{"event_id":"1538192","title":"【先着4名】小学生が究極のサービス業を体験！精神力が7割のゴルフを支える裏方の立場を経験してみませんか？","url":"http://midorigaoka-kantsuriclub-hellointerest.peatix.com","shortener_url":"https://bit.ly/2CRvp54","started_at":"2020-07-29T01:00:00.000+09:00","ended_at":"2020-07-31T23:59:59.000+09:00","limit_number":null,"address":"名古屋市守山区大字吉根長廻間3241","place":"緑ヶ丘カンツリークラブ","lat":35.2225,"lon":136.993,"state":"active","id":null},{"event_id":"1535695","title":"【先着5名】小学生が政策立案を体験！周囲の声も聞きながら自分の考えを持ち、自分の言葉で発表できる力を育みませんか？","url":"http://tsuyoshi-tsukamoto-hellointerest.peatix.com","shortener_url":null,"started_at":"2020-07-22T04:00:00.000+09:00","ended_at":"2020-07-24T23:59:59.000+09:00","limit_number":null,"address":"愛知県名古屋市中区三の丸三丁目1番1号","place":"名古屋市議会 委員室（名古屋市役所東庁舎４階）","lat":35.1814,"lon":136.906,"state":"active","id":null},{"event_id":"1545320","title":"【経営者・管理職向け】テレワーク導入後のコミュニケーションの取り方","url":"http://peatix.com/event/1545320","shortener_url":null,"started_at":"2020-07-29T06:00:00.000+09:00","ended_at":"2020-07-31T23:59:59.000+09:00","limit_number":null,"address":"","place":"xxxonlineeventxxx","lat":null,"lon":null,"state":"active","id":null},{"event_id":"1287612325642543107","title":"ホーム | Cluster GAMEJAM 2020","url":"https://www.gamejam.cluster.mu/","shortener_url":null,"started_at":"2020-07-30T21:00:00.000+09:00","ended_at":"2020-07-31T08:59:00.000+09:00","limit_number":null,"address":null,"place":"online","lat":null,"lon":null,"state":"active","id":null},{"event_id":"1551172","title":"【人間力診断テスト＆オンラインカウンセリング】占いより正確！科学的根拠を基に設計した自己分析ツールを使ってみませんか？","url":"http://peatix.com/event/1551172","shortener_url":null,"started_at":"2020-07-14T05:00:00.000+09:00","ended_at":"2020-07-16T23:59:59.000+09:00","limit_number":null,"address":"","place":"xxxonlineeventxxx","lat":0.0,"lon":0.0,"state":"active","id":null},{"event_id":null,"title":"Ideate 2020","url":"https://ideate2020.devpost.com/","shortener_url":null,"started_at":"2020-07-29T09:15:00.000+09:00","ended_at":"2020-08-12T15:45:00.000+09:00","limit_number":null,"address":null,"place":"Online","lat":null,"lon":null,"state":"active","id":null},{"event_id":null,"title":"Tech Takes On Unemployment Hackathon","url":"https://terminalhackathon.devpost.com/","shortener_url":"https://bit.ly/3gKps91","started_at":"2020-07-15T16:00:00.000+09:00","ended_at":"2020-08-12T16:00:00.000+09:00","limit_number":null,"address":null,"place":"Online","lat":null,"lon":null,"state":"active","id":null},{"event_id":null,"title":"Global Hack 5G + RPA technology","url":"https://globalhack.devpost.com/","shortener_url":null,"started_at":"2020-07-01T13:00:00.000+09:00","ended_at":"2020-08-15T21:00:00.000+09:00","limit_number":null,"address":null,"place":"Online","lat":null,"lon":null,"state":"active","id":null},{"event_id":null,"title":"Kryon Bot Camp","url":"https://kryon-rpabotcamp.devpost.com/","shortener_url":"https://bit.ly/2DBLuMN","started_at":"2020-07-15T13:00:00.000+09:00","ended_at":"2020-08-19T03:45:00.000+09:00","limit_number":null,"address":null,"place":"Online","lat":null,"lon":null,"state":"active","id":null},{"event_id":null,"title":"Stacks 2.0 Hackathon Series: Clarity Hack","url":"https://clarity-hack.devpost.com/","shortener_url":"https://bit.ly/2XMbuMd","started_at":"2020-07-29T14:00:00.000+09:00","ended_at":"2020-08-20T03:45:00.000+09:00","limit_number":null,"address":null,"place":"Online","lat":null,"lon":null,"state":"active","id":null},{"event_id":null,"title":"DocuSign Good Code Hackathon","url":"https://docusign2020.devpost.com/","shortener_url":"https://bit.ly/3gIKUv9","started_at":"2020-07-07T14:00:00.000+09:00","ended_at":"2020-08-31T21:00:00.000+09:00","limit_number":null,"address":null,"place":"Online","lat":null,"lon":null,"state":"active","id":null},{"event_id":null,"title":"monday Apps Challenge: Dream it, build it","url":"https://monday.devpost.com/","shortener_url":null,"started_at":"2020-07-01T18:00:00.000+09:00","ended_at":"2020-08-31T21:00:00.000+09:00","limit_number":null,"address":null,"place":"Online","lat":null,"lon":null,"state":"active","id":null},{"event_id":null,"title":"TigerGraph 2020 Graphathon","url":"https://tigergraph2020.devpost.com/","shortener_url":null,"started_at":"2020-07-06T13:00:00.000+09:00","ended_at":"2020-09-07T03:45:00.000+09:00","limit_number":null,"address":null,"place":"Online","lat":null,"lon":null,"state":"active","id":null},{"event_id":null,"title":"Facebook Hackathon: Messaging","url":"https://fbmessaging3.devpost.com/","shortener_url":"https://bit.ly/2F0Da9A","started_at":"2020-07-28T14:15:00.000+09:00","ended_at":"2020-09-07T21:00:00.000+09:00","limit_number":null,"address":null,"place":"Online","lat":null,"lon":null,"state":"active","id":null},{"event_id":null,"title":"Facebook Hackathon: AI","url":"https://fbai3.devpost.com/","shortener_url":"https://bit.ly/30FI1FD","started_at":"2020-07-28T14:15:00.000+09:00","ended_at":"2020-09-07T21:00:00.000+09:00","limit_number":null,"address":null,"place":"Online","lat":null,"lon":null,"state":"active","id":null},{"event_id":null,"title":"Facebook Hackathons: AR","url":"https://fbar3.devpost.com/","shortener_url":"https://bit.ly/2DPbHax","started_at":"2020-07-28T14:15:00.000+09:00","ended_at":"2020-09-07T21:00:00.000+09:00","limit_number":null,"address":null,"place":"Online","lat":null,"lon":null,"state":"active","id":null},{"event_id":null,"title":"Alexa Skills Challenge: Alexa Conversations","url":"https://alexaconversations.devpost.com/","shortener_url":null,"started_at":"2020-07-22T16:30:00.000+09:00","ended_at":"2020-09-14T21:00:00.000+09:00","limit_number":null,"address":null,"place":"Online","lat":null,"lon":null,"state":"active","id":null},{"event_id":null,"title":"CodeUp Hack","url":"https://codeup-hack.devpost.com/","shortener_url":null,"started_at":"2020-07-25T00:00:00.000+09:00","ended_at":"2020-09-18T22:45:00.000+09:00","limit_number":null,"address":"174 Jakpa Rd, Tori, Warri, Nigeria","place":"Erhuvwu Afiesere MPCS Ltd, Event Centre.","lat":null,"lon":null,"state":"active","id":null},{"event_id":"1291548074393755648","title":"ONE JAPAN HACKATHON 2020","url":"https://onejapan-hackathon-vol6.peatix.com/","shortener_url":"https://bit.ly/3iCM77K","started_at":"2020-07-29T09:59:00.000+09:00","ended_at":"2020-08-31T08:12:00.000+09:00","limit_number":null,"address":null,"place":"online","lat":null,"lon":null,"state":"active","id":null},{"event_id":"1291043244206325760","title":"CEC Hackathon Challenge","url":"https://depaul.startuptree.co/event/s/QNDyeMHNSWdm6wSAcxGwNb/CEC-Hackathon-Challenge","shortener_url":null,"started_at":"2020-07-25T14:00:00.000+09:00","ended_at":"2020-08-05T17:00:00.000+09:00","limit_number":null,"address":null,"place":"online","lat":null,"lon":null,"state":"active","id":null},{"event_id":"1290256149695012872","title":"AR/VR AFRICA HACKATHON 2020 – AR-VR Africa","url":"http://arvrafrica.com/arvr-2020-page","shortener_url":null,"started_at":"2020-07-13T09:00:00.000+09:00","ended_at":"2020-07-13T23:59:59.000+09:00","limit_number":null,"address":null,"place":"online","lat":null,"lon":null,"state":"active","id":null},{"event_id":"1296034123522482176","title":"Home | HackathonHausaAfrica","url":"https://www.hackathonhausaafrica.com","shortener_url":null,"started_at":"2020-07-04T00:00:00.000+09:00","ended_at":"2020-07-16T00:00:00.000+09:00","limit_number":null,"address":null,"place":"online","lat":null,"lon":null,"state":"active","id":null},{"event_id":"1296638656191401986","title":"農業×techアイデアソン開催のお知らせ（産学連携機構 事業イノベーションセンターより） | 学内向け | 東北大学 大学院情報科学研究科","url":"https://www.is.tohoku.ac.jp/jp/forstudents/detail---id-3261.html","shortener_url":"https://bit.ly/2QfYVEE","started_at":"2020-07-28T13:00:00.000+09:00","ended_at":"2020-10-03T15:40:00.000+09:00","limit_number":null,"address":null,"place":"online","lat":null,"lon":null,"state":"active","id":null},{"event_id":"1298098892265881601","title":"Chainlink Hackathon","url":"https://hack.chain.link/","shortener_url":null,"started_at":"2020-07-05T00:00:00.000+09:00","ended_at":"2020-07-05T14:59:59.000+09:00","limit_number":null,"address":null,"place":"online","lat":null,"lon":null,"state":"active","id":null},{"event_id":"1298720950007939072","title":"Inicio | Maratón de Soluciones de Negocio Microsoft","url":"https://www.techmarathons.com/","shortener_url":"https://bit.ly/2Qqd16E","started_at":"2020-07-18T00:00:00.000+09:00","ended_at":"2020-11-09T00:00:00.000+09:00","limit_number":null,"address":null,"place":"online","lat":null,"lon":null,"state":"active","id":null},{"event_id":"1300362407504535552","title":"Roofline on NVIDIA GPUs Hackathon, July 8, 2020","url":"https://www.nersc.gov/users/training/events/roofline-on-nvidia-gpus-hackathon/","shortener_url":null,"started_at":"2020-07-13T01:15:00.000+09:00","ended_at":"2020-07-13T12:15:00.000+09:00","limit_number":null,"address":null,"place":"online","lat":null,"lon":null,"state":"active","id":null},{"event_id":"1302885467881308161","title":"株式会社オープンストリーム","url":"https://www.opst.co.jp/openinnovation/report/blog/report20200907","shortener_url":null,"started_at":"2020-07-04T00:00:00.000+09:00","ended_at":"2020-09-07T00:00:00.000+09:00","limit_number":null,"address":null,"place":"online","lat":null,"lon":null,"state":"active","id":null},{"event_id":"1303211803657359361","title":"Coinsilium Group Limited: Indorse Post Covid Hackathon Progress Update - dgap.de","url":"https://www.dgap.de/dgap/News/uk_regulatory/coinsilium-group-limited-indorse-post-covid-hackathon-progress-update/","shortener_url":null,"started_at":"2020-07-29T07:00:00.000+09:00","ended_at":"2020-07-29T20:27:00.000+09:00","limit_number":null,"address":null,"place":"online","lat":null,"lon":null,"state":"active","id":null},{"event_id":"1302999453457154050","title":"$100,000 Blockchain \u0026 Data Science Online Hackathon By World Blockchain Hackathon","url":"https://worldblockchainhackathon.com/","shortener_url":null,"started_at":"2020-07-24T00:00:00.000+09:00","ended_at":"2020-07-25T00:00:00.000+09:00","limit_number":null,"address":null,"place":"online","lat":null,"lon":null,"state":"active","id":null},{"event_id":"1303723927751913472","title":"Chainlink Hackathon","url":"https://hack.chain.link","shortener_url":null,"started_at":"2020-07-05T00:00:00.000+09:00","ended_at":"2020-07-05T14:59:59.000+09:00","limit_number":null,"address":null,"place":"online","lat":null,"lon":null,"state":"active","id":null},{"event_id":"1305398526097018880","title":"2020 Virtual Events List - Google ドライブ","url":"https://docs.google.com/spreadsheets/d/1HFxjdqF-lzMA5pfFiGXmgUAjnZ4fiVmKoLebriVrDZU/htmlview","shortener_url":null,"started_at":"2020-07-26T09:00:00.000+09:00","ended_at":"2020-07-26T23:59:59.000+09:00","limit_number":null,"address":null,"place":"online","lat":null,"lon":null,"state":"active","id":null},{"event_id":"1308035858142904321","title":"k2k20 hackathon report: Klemens Nanni on network land decluttering","url":"http://undeadly.org/cgi","shortener_url":null,"started_at":"2020-07-08T00:14:00.000+09:00","ended_at":"2020-09-21T19:28:00.000+09:00","limit_number":null,"address":null,"place":"online","lat":null,"lon":null,"state":"active","id":null},{"event_id":"1308001538875457536","title":"k2k20 hackathon report: Klemens Nanni on network land decluttering","url":"https://undeadly.org/cgi","shortener_url":null,"started_at":"2020-07-08T00:14:00.000+09:00","ended_at":"2020-09-21T19:28:00.000+09:00","limit_number":null,"address":null,"place":"online","lat":null,"lon":null,"state":"active","id":null},{"event_id":"1309553253227458561","title":"node:title","url":"https://ibero.mx/prensa/proteccion-de-la-casa-comun-requiere-liderazgo-responsable-rector-ibero","shortener_url":null,"started_at":"2020-07-09T09:00:00.000+09:00","ended_at":"2020-07-09T16:00:00.000+09:00","limit_number":null,"address":null,"place":"online","lat":null,"lon":null,"state":"active","id":null},{"event_id":"178844","title":"【フルリモート開催】space.ex#1：Elixir \u0026 衛星データもくもく会 ～ 入門もあるよ","url":"https://spaceex.connpass.com/event/178844/","shortener_url":"https://bit.ly/36sMPl6","started_at":"2020-07-02T19:30:00.000+09:00","ended_at":"2020-07-02T21:30:00.000+09:00","limit_number":10,"address":null,"place":"","lat":null,"lon":null,"state":"active","id":null},{"event_id":"1324245171454685186","title":"＜Gravioの社内アイデアソン実施レポート！＞軽井沢のサードオフィス様施設にて実際のワーケーション・宿泊施設におけるAIやIoTの活用を題材にしたアイデアソン合宿を行ってきました｜ブログ｜簡単IoTをはじめるなら「Gravio（グラヴィオ）」！- Gravio (日本)","url":"https://www.gravio.com/jp-blog-article/2020-10-27-internal-ideathon","shortener_url":null,"started_at":"2020-07-15T09:00:00.000+09:00","ended_at":"2020-10-27T09:00:00.000+09:00","limit_number":null,"address":null,"place":"online","lat":null,"lon":null,"state":"active","id":null},{"event_id":"1327201032196288515","title":"HackYeah Live - Konferencje w , 27.11.2020","url":"https://app.evenea.pl/event/hackyeah-2020live","shortener_url":null,"started_at":"2020-07-29T02:00:00.000+09:00","ended_at":"2020-07-29T03:00:00.000+09:00","limit_number":null,"address":null,"place":"online","lat":null,"lon":null,"state":"active","id":null},{"event_id":"1344986994422599680","title":"DMA’s Customer Engagement Labs Hackathon. What we learnt. | Email Marketing News","url":"http://www.tapmail.info/dmas-customer-engagement-labs-hackathon-what-we-learnt/","shortener_url":null,"started_at":"2020-07-01T00:00:00.000+09:00","ended_at":"2020-09-23T21:16:00.000+09:00","limit_number":null,"address":null,"place":"online","lat":null,"lon":null,"state":"active","id":null},{"event_id":"1351648874507735044","title":"Malware Detected! by Ragtag Games for GMTK Game Jam 2020","url":"https://itch.io/jam/gmtk-2020/rate/696417","shortener_url":null,"started_at":"2020-07-14T00:54:00.000+09:00","ended_at":"2020-07-19T23:57:00.000+09:00","limit_number":null,"address":null,"place":"online","lat":null,"lon":null,"state":"active","id":null},{"event_id":"1357096641501814785","title":"The naive test subject by Scarfy goose","url":"https://scarfy-goose.itch.io/dont-touch-that","shortener_url":null,"started_at":"2020-07-21T00:24:00.000+09:00","ended_at":"2020-07-31T13:21:00.000+09:00","limit_number":null,"address":null,"place":"online","lat":null,"lon":null,"state":"active","id":null},{"event_id":"1372201507513380865","title":"2021 Season Schedule","url":"https://mlh.io/seasons/2021/events","shortener_url":"https://bit.ly/397ZKcA","started_at":"2020-07-03T00:00:00.000+09:00","ended_at":"2022-02-01T00:00:00.000+09:00","limit_number":null,"address":null,"place":"online","lat":null,"lon":null,"state":"active","id":null},{"event_id":"1376368518350835714","title":"テックアカデミージュニア、Waffleとスポンサー契約を締結 〜テクノロジーを活用し、社会課題に取り組む女子中高生を応援〜（2021年3月24日）","url":"https://www.kiramex.com/news/press/2021/605a8ee52e67e3000ce2c239/","shortener_url":"https://bit.ly/39o5Fuj","started_at":"2020-07-27T18:00:00.000+09:00","ended_at":"2021-04-25T20:00:00.000+09:00","limit_number":null,"address":"東京都渋谷区、代表理事: 田中 沙弥果、共同代表:斎藤 明日美 以下「Waffle」)が日本公式アンバサダーを務める、女子中高生向けアプリコンテスト「Technovation Girls (テクノベーション・ガールズ)」に協賛いたしましたのでお知らせします。本協賛を通じて、テックアカデミージュニアはテクノロジーを活用し、社会課題に取り組む女子中高生を応援します。","place":"東京都渋谷区、代表理事: 田中 沙弥果、共同代表:斎藤 明日美 以下「Waffle」)が日本公式アンバサダーを務める、女子中高生向けアプリコンテスト「Technovation Girls (テクノベーション・ガールズ)」に協賛いたしましたのでお知らせします。本協賛を通じて、テックアカデミージュニアはテクノロジーを活用し、社会課題に取り組む女子中高生を応援します。","lat":35.662,"lon":139.704,"state":"active","id":null},{"event_id":"1389121481393598465","title":"5/24 (月）子どもの未来を考えるキッズデザインSDGsアイデアソン　参加学生募集！！","url":"https://sdgsideathon2021.peatix.com/","shortener_url":"https://bit.ly/3xHQWF3","started_at":"2020-07-18T06:30:00.000+09:00","ended_at":"2021-05-24T19:30:00.000+09:00","limit_number":null,"address":null,"place":"online","lat":null,"lon":null,"state":"active","id":null},{"event_id":"1391610739429834752","title":"g0v hackath44n | 台灣零時政府第肆拾肆次世界最危險黑客松","url":"https://g0v-jothon.kktix.cc/events/g0v-hackath44n","shortener_url":"https://bit.ly/33t6ezs","started_at":"2020-07-17T09:00:00.000+09:00","ended_at":"2021-05-22T21:00:00.000+09:00","limit_number":null,"address":null,"place":"online","lat":null,"lon":null,"state":"active","id":null},{"event_id":"1423262977348673539","title":"Blockchain Bootcamp 2021 Summer","url":"https://blockchainbootcamp.tilda.ws/","shortener_url":"https://bit.ly/3AhVBhs","started_at":"2020-07-28T09:30:00.000+09:00","ended_at":"2021-08-27T21:30:00.000+09:00","limit_number":null,"address":null,"place":"online","lat":null,"lon":null,"state":"active","id":null},{"event_id":"1428273278448140289","title":"col·lab weekend – col·lab weekend – Las Naves","url":"https://www.collabweekend.com/","shortener_url":null,"started_at":"2020-07-01T09:00:00.000+09:00","ended_at":"2020-07-01T22:00:00.000+09:00","limit_number":null,"address":null,"place":"online","lat":null,"lon":null,"state":"active","id":null},{"event_id":"112044038736","title":"Android Apps that Benefit the Community","url":"https://www.eventbrite.com/e/android-apps-that-benefit-the-community-tickets-112044038736","shortener_url":null,"started_at":"2020-07-02T15:00:00.000+09:00","ended_at":"2021-10-15T03:00:00.000+09:00","limit_number":null,"address":null,"place":"online","lat":null,"lon":null,"state":"active","id":null},{"event_id":"113712017706","title":"INSEAD Workshop: Venture Capital, Business Angels, and Starts Ups","url":"https://www.eventbrite.com/e/insead-workshop-venture-capital-business-angels-and-starts-ups-tickets-113712017706","shortener_url":null,"started_at":"2020-07-25T09:00:00.000+09:00","ended_at":"2023-03-08T19:00:00.000+09:00","limit_number":null,"address":null,"place":"online","lat":null,"lon":null,"state":"active","id":null},{"event_id":"111662379182","title":"Weve Public Demo US","url":"https://www.eventbrite.com/e/weve-public-demo-us-tickets-111662379182","shortener_url":null,"started_at":"2020-07-07T18:00:00.000+09:00","ended_at":"2023-08-01T10:30:00.000+09:00","limit_number":null,"address":null,"place":"online","lat":null,"lon":null,"state":"active","id":null},{"event_id":"112624900108","title":"Every.Black Entrepreneur International Masterminds","url":"https://www.eventbrite.com/e/everyblack-entrepreneur-international-masterminds-tickets-112624900108","shortener_url":null,"started_at":"2020-07-14T00:00:00.000+09:00","ended_at":"2022-12-20T02:30:00.000+09:00","limit_number":null,"address":null,"place":"online","lat":null,"lon":null,"state":"active","id":null},{"event_id":"111844822876","title":"Anti-Racist Educators Collaborative Group","url":"https://www.eventbrite.com/e/anti-racist-educators-collaborative-group-tickets-111844822876","shortener_url":null,"started_at":"2020-07-09T23:30:00.000+09:00","ended_at":"2023-06-21T00:30:00.000+09:00","limit_number":null,"address":null,"place":"online","lat":null,"lon":null,"state":"active","id":null},{"event_id":"111662379182","title":"Weve Public Demo - Americas","url":"https://www.eventbrite.com/e/weve-public-demo-americas-tickets-111662379182","shortener_url":null,"started_at":"2020-07-07T18:00:00.000+09:00","ended_at":"2024-01-30T20:00:00.000+09:00","limit_number":null,"address":null,"place":"online","lat":null,"lon":null,"state":"active","id":null},{"event_id":"1451205111469027335","title":"ErgoHack II Results","url":"https://ergoplatform.org/en/blog/2021-10-21-ergohack-ii-results/","shortener_url":null,"started_at":"2020-07-02T00:00:00.000+09:00","ended_at":"2021-10-21T00:00:00.000+09:00","limit_number":null,"address":null,"place":"online","lat":null,"lon":null,"state":"active","id":null},{"event_id":"112141943572","title":"805 Startups - Community Check-in : Professional Peer Support \u0026 Networking","url":"https://www.eventbrite.com/e/805-startups-community-check-in-professional-peer-support-networking-tickets-112141943572","shortener_url":null,"started_at":"2020-07-02T23:00:00.000+09:00","ended_at":"2022-03-11T01:00:00.000+09:00","limit_number":null,"address":null,"place":"online","lat":null,"lon":null,"state":"active","id":null},{"event_id":"110275344524","title":"Tech Elevator Open House - Virtual","url":"https://www.eventbrite.com/e/tech-elevator-open-house-virtual-tickets-110275344524","shortener_url":null,"started_at":"2020-07-09T16:30:00.000+09:00","ended_at":"2022-07-18T17:00:00.000+09:00","limit_number":null,"address":null,"place":"online","lat":null,"lon":null,"state":"active","id":null},{"event_id":"112824362706","title":"\"Come Meet A Black Person\" Anti-Racism Virtual Series","url":"https://www.eventbrite.com/e/come-meet-a-black-person-anti-racism-virtual-series-tickets-112824362706","shortener_url":null,"started_at":"2020-07-19T19:00:00.000+09:00","ended_at":"2024-12-08T22:00:00.000+09:00","limit_number":null,"address":null,"place":"online","lat":null,"lon":null,"state":"active","id":null},{"event_id":"113704200324","title":"Twin Cities Playtest","url":"https://www.eventbrite.com/e/twin-cities-playtest-tickets-113704200324","shortener_url":null,"started_at":"2020-07-15T23:00:00.000+09:00","ended_at":"2023-07-20T02:00:00.000+09:00","limit_number":null,"address":null,"place":"online","lat":null,"lon":null,"state":"active","id":null},{"event_id":"110215036140","title":"AoA Virtual Office Hours","url":"https://www.eventbrite.com/e/aoa-virtual-office-hours-tickets-110215036140","shortener_url":null,"started_at":"2020-07-02T17:00:00.000+09:00","ended_at":"2023-07-21T22:00:00.000+09:00","limit_number":null,"address":null,"place":"online","lat":null,"lon":null,"state":"active","id":null},{"event_id":"114927216398","title":"Mentoring Pathways to Employment  for Immigrants","url":"https://www.eventbrite.ca/e/mentoring-pathways-to-employment-for-immigrants-tickets-114927216398","shortener_url":null,"started_at":"2020-07-31T17:00:00.000+09:00","ended_at":"2021-12-16T19:00:00.000+09:00","limit_number":null,"address":null,"place":"online","lat":null,"lon":null,"state":"active","id":null},{"event_id":"112546327094","title":"ADVANCE-U: Embracing Success (How to Create a Successful Mindset)","url":"https://www.eventbrite.com/e/advance-u-embracing-success-how-to-create-a-successful-mindset-tickets-112546327094","shortener_url":null,"started_at":"2020-07-30T20:00:00.000+09:00","ended_at":"2022-06-08T19:30:00.000+09:00","limit_number":null,"address":null,"place":"online","lat":null,"lon":null,"state":"active","id":null},{"event_id":"111949261254","title":"Digital Accessibility Experts Live","url":"https://www.eventbrite.co.uk/e/digital-accessibility-experts-live-registration-111949261254","shortener_url":null,"started_at":"2020-07-23T13:00:00.000+09:00","ended_at":"2023-06-15T17:00:00.000+09:00","limit_number":null,"address":null,"place":"online","lat":null,"lon":null,"state":"active","id":null},{"event_id":"113072115742","title":"Freewriting Fridays - Hosted by The Institute for Thought Leadership","url":"https://www.eventbrite.com/e/freewriting-fridays-hosted-by-the-institute-for-thought-leadership-tickets-113072115742","shortener_url":null,"started_at":"2020-07-10T15:00:00.000+09:00","ended_at":"2022-10-21T16:00:00.000+09:00","limit_number":null,"address":null,"place":"online","lat":null,"lon":null,"state":"active","id":null},{"event_id":"107799489174","title":"Investor Readiness Session (Online Workshop)","url":"https://www.eventbrite.co.uk/e/investor-readiness-session-online-workshop-tickets-107799489174","shortener_url":null,"started_at":"2020-07-06T13:00:00.000+09:00","ended_at":"2022-06-20T15:30:00.000+09:00","limit_number":null,"address":null,"place":"online","lat":null,"lon":null,"state":"active","id":null},{"event_id":"109874742312","title":"Purpose Workshop Lunch \u0026 Learn - City of Fort Worth Employees ONLY","url":"https://www.eventbrite.com/e/purpose-workshop-lunch-learn-city-of-fort-worth-employees-only-tickets-109874742312","shortener_url":null,"started_at":"2020-07-15T17:00:00.000+09:00","ended_at":"2021-12-09T19:00:00.000+09:00","limit_number":null,"address":null,"place":"online","lat":null,"lon":null,"state":"active","id":null},{"event_id":"112730624332","title":"Vinyasa Yoga Flow","url":"https://www.eventbrite.ca/e/vinyasa-yoga-flow-registration-112730624332","shortener_url":null,"started_at":"2020-07-08T00:00:00.000+09:00","ended_at":"2021-12-21T02:00:00.000+09:00","limit_number":null,"address":null,"place":"online","lat":null,"lon":null,"state":"active","id":null},{"event_id":"113805880452","title":"SBIR Unplugged","url":"https://www.eventbrite.com/e/sbir-unplugged-tickets-113805880452","shortener_url":null,"started_at":"2020-07-16T20:00:00.000+09:00","ended_at":"2023-12-21T22:00:00.000+09:00","limit_number":null,"address":null,"place":"online","lat":null,"lon":null,"state":"active","id":null},{"event_id":"109692124096","title":"NATIONAL VIRTUAL CAREER FAIR - December 16th, 2021","url":"https://www.eventbrite.ca/e/national-virtual-career-fair-december-16th-2021-tickets-109692124096","shortener_url":null,"started_at":"2020-07-14T17:00:00.000+09:00","ended_at":"2022-06-29T20:00:00.000+09:00","limit_number":null,"address":null,"place":"online","lat":null,"lon":null,"state":"active","id":null},{"event_id":"112006279798","title":"Investor \u0026 Entrepreneur - Top Funding Challenges \u0026 Profitable Opportunities","url":"https://www.eventbrite.com/e/investor-entrepreneur-top-funding-challenges-profitable-opportunities-tickets-112006279798","shortener_url":null,"started_at":"2020-07-15T16:30:00.000+09:00","ended_at":"2022-12-21T19:00:00.000+09:00","limit_number":null,"address":null,"place":"online","lat":null,"lon":null,"state":"active","id":null},{"event_id":"109117122250","title":"Teams Level 1: Communication and Sharing","url":"https://www.eventbrite.com.au/e/teams-level-1-communication-and-sharing-tickets-109117122250","shortener_url":null,"started_at":"2020-07-14T04:30:00.000+09:00","ended_at":"2021-12-14T05:30:00.000+09:00","limit_number":null,"address":null,"place":"online","lat":null,"lon":null,"state":"active","id":null},{"event_id":"112531388412","title":"Twisted Trivia Night On Zoom","url":"https://www.eventbrite.com/e/twisted-trivia-night-on-zoom-tickets-112531388412","shortener_url":null,"started_at":"2020-07-09T00:00:00.000+09:00","ended_at":"2022-01-13T03:00:00.000+09:00","limit_number":null,"address":null,"place":"online","lat":null,"lon":null,"state":"active","id":null},{"event_id":"109667376074","title":"Transmasculine Support Group","url":"https://www.eventbrite.com/e/transmasculine-support-group-tickets-109667376074","shortener_url":null,"started_at":"2020-07-12T21:00:00.000+09:00","ended_at":"2022-12-12T00:00:00.000+09:00","limit_number":null,"address":null,"place":"online","lat":null,"lon":null,"state":"active","id":null},{"event_id":"1471731498344763399","title":"情報通信工学科の上濱さんが参加するチームが Discovery Hackathon 2021で「最優秀賞」を受賞","url":"https://www.dendai.ac.jp/dendai-people/20211217-01.html","shortener_url":null,"started_at":"2020-07-03T00:00:00.000+09:00","ended_at":"2021-12-17T00:00:00.000+09:00","limit_number":null,"address":null,"place":"online","lat":null,"lon":null,"state":"active","id":null},{"event_id":"109692124096","title":"NATIONAL VIRTUAL CAREER FAIR - January 20th, 2022","url":"https://www.eventbrite.ca/e/national-virtual-career-fair-january-20th-2022-tickets-109692124096","shortener_url":null,"started_at":"2020-07-15T02:00:00.000+09:00","ended_at":"2022-12-23T06:00:00.000+09:00","limit_number":null,"address":null,"place":"online","lat":null,"lon":null,"state":"active","id":null},{"event_id":"114345895652","title":"Three Martini Lunch Free National Virtual Networking Event","url":"https://www.eventbrite.com/e/three-martini-lunch-free-national-virtual-networking-event-tickets-114345895652","shortener_url":null,"started_at":"2020-07-28T18:00:00.000+09:00","ended_at":"2022-03-29T19:00:00.000+09:00","limit_number":null,"address":null,"place":"online","lat":null,"lon":null,"state":"active","id":null},{"event_id":"112624900108","title":"Every.Black Entrepreneur International Masterminds","url":"https://www.eventbrite.com/e/everyblack-entrepreneur-international-masterminds-registration-112624900108","shortener_url":null,"started_at":"2020-07-14T00:00:00.000+09:00","ended_at":"2023-12-26T02:30:00.000+09:00","limit_number":null,"address":null,"place":"online","lat":null,"lon":null,"state":"active","id":null},{"event_id":"110900043014","title":"Happy Healthy Women Authentically Connecting for Entrepreneurs - Coquitlam","url":"https://www.eventbrite.ca/e/happy-healthy-women-authentically-connecting-for-entrepreneurs-coquitlam-tickets-110900043014","shortener_url":null,"started_at":"2020-07-03T16:30:00.000+09:00","ended_at":"2022-12-02T19:30:00.000+09:00","limit_number":null,"address":null,"place":"online","lat":null,"lon":null,"state":"active","id":null},{"event_id":"113332207684","title":"Roblox Game Development - Private Trial","url":"https://www.eventbrite.com/e/roblox-game-development-private-trial-registration-113332207684","shortener_url":null,"started_at":"2020-07-17T17:30:00.000+09:00","ended_at":"2023-01-03T18:30:00.000+09:00","limit_number":null,"address":null,"place":"online","lat":null,"lon":null,"state":"active","id":null},{"event_id":"109692124096","title":"NATIONAL VIRTUAL CAREER FAIR - SEPTEMBER 1ST, 2022","url":"https://www.eventbrite.ca/e/national-virtual-career-fair-september-1st-2022-tickets-109692124096","shortener_url":null,"started_at":"2020-07-14T17:00:00.000+09:00","ended_at":"2022-12-22T21:00:00.000+09:00","limit_number":null,"address":null,"place":"online","lat":null,"lon":null,"state":"active","id":null},{"event_id":"110818338634","title":"Diversity, Equity \u0026 Inclusion Toolkit: An Overview","url":"https://www.eventbrite.com/e/diversity-equity-inclusion-toolkit-an-overview-registration-110818338634","shortener_url":null,"started_at":"2020-07-10T16:00:00.000+09:00","ended_at":"2022-12-01T17:00:00.000+09:00","limit_number":null,"address":null,"place":"online","lat":null,"lon":null,"state":"active","id":null},{"event_id":"109692124096","title":"NATIONAL VIRTUAL CAREER FAIR - DECEMBER 22ND, 2022","url":"https://www.eventbrite.ca/e/national-virtual-career-fair-december-22nd-2022-tickets-109692124096","shortener_url":null,"started_at":"2020-07-14T17:00:00.000+09:00","ended_at":"2023-01-19T21:00:00.000+09:00","limit_number":null,"address":null,"place":"online","lat":null,"lon":null,"state":"active","id":null},{"event_id":"109692124096","title":"NATIONAL VIRTUAL CAREER FAIR - JANUARY 19TH, 2023","url":"https://www.eventbrite.ca/e/national-virtual-career-fair-january-19th-2023-tickets-109692124096","shortener_url":null,"started_at":"2020-07-14T17:00:00.000+09:00","ended_at":"2023-01-19T21:00:00.000+09:00","limit_number":null,"address":null,"place":"online","lat":null,"lon":null,"state":"active","id":null},{"event_id":"109692124096","title":"NATIONAL VIRTUAL CAREER FAIR - APRIL 12TH, 2023","url":"https://www.eventbrite.ca/e/national-virtual-career-fair-april-12th-2023-tickets-109692124096","shortener_url":null,"started_at":"2020-07-14T17:00:00.000+09:00","ended_at":"2023-04-12T20:00:00.000+09:00","limit_number":null,"address":null,"place":"online","lat":null,"lon":null,"state":"active","id":null}]