[{"event_id":"1364876","title":"糸島で「キラー商品」をつくって売上爆上合宿【1泊2日】","url":"http://itoshima1day.peatix.com","shortener_url":null,"started_at":"2020-03-12T04:00:00.000+09:00","ended_at":"2020-03-14T23:59:59.000+09:00","limit_number":null,"address":"糸島市二丈深江639","place":"ゲストハウス いとより","lat":33.5191,"lon":130.137,"state":"active","id":null},{"event_id":"1378856","title":"あなたも篠笛を吹いてみませんか ～演奏と初心者のための体験会～","url":"http://54winter08-shinobue.peatix.com","shortener_url":null,"started_at":"2020-03-29T02:00:00.000+09:00","ended_at":"2020-03-31T23:59:59.000+09:00","limit_number":null,"address":"京都市左京区下鴨宮河町58番地","place":"旧三井家下鴨別邸","lat":35.0318,"lon":135.772,"state":"active","id":null},{"event_id":"1395315","title":"第13回「14時間で作る新規事業案」ブロックチェーンビジネスハッカソン","url":"http://blockchainbusinesshackathon202003.peatix.com","shortener_url":"https://bit.ly/38INKMS","started_at":"2020-03-06T10:00:00.000+09:00","ended_at":"2020-03-08T23:59:59.000+09:00","limit_number":null,"address":"東京都中央区銀座1丁目8-19 キラリトギンザ11F","place":"BINARYSTAR","lat":0.0,"lon":0.0,"state":"active","id":null},{"event_id":"101952","title":"【中止】ウェブ解析士協会コンテンツハッカソン（通称：ワッカソン）in 新潟","url":"https://web-mining.doorkeeper.jp/events/101952","shortener_url":"https://bit.ly/2uJ2tIj","started_at":"2020-03-14T02:00:00.000+09:00","ended_at":"2020-03-14T11:00:00.000+09:00","limit_number":0,"address":"〒940-0062 長岡市大手通2丁目6番地","place":"長岡市地域交流センターまちなかキャンパス長岡","lat":37.4474,"lon":138.85,"state":"active","id":null},{"event_id":"102256","title":"［延期］Startup Weekend 神戸@WAY OUT","url":"https://swkobe.doorkeeper.jp/events/102256","shortener_url":null,"started_at":"2020-03-06T09:00:00.000+09:00","ended_at":"2020-03-08T11:00:00.000+09:00","limit_number":5,"address":"神戸市中央区磯辺通2‐2‐10 ワンノットトレーズビル2階","place":"コワーキングスペースWAY OUT","lat":34.6901,"lon":135.199,"state":"active","id":null},{"event_id":"102685","title":"アクセスに優れた渋谷開催！業界最安級価格で第一線のプロが教えるGoogleアナリティクス/GAIQ集中講座","url":"https://aa4bcf6c84cefde48b81e0f2ea.doorkeeper.jp/events/102685","shortener_url":null,"started_at":"2020-03-21T06:00:00.000+09:00","ended_at":"2020-03-21T09:00:00.000+09:00","limit_number":50,"address":"東京都渋谷区渋谷2-22-3渋谷東口ビル1F/東京都渋谷区渋谷2-17-3 渋谷東宝ビル","place":"TKPガーデンシティ渋谷/TKP渋谷カンファレンスセンター","lat":35.6594,"lon":139.705,"state":"active","id":null},{"event_id":"160668","title":"【南魚沼で開発合宿！】フラー春期インターンシップ 2020 〜南魚沼 春の陣〜","url":"https://fuller.connpass.com/event/160668/","shortener_url":"https://bit.ly/361biL6","started_at":"2020-03-01T01:00:00.000+09:00","ended_at":"2020-03-07T04:00:00.000+09:00","limit_number":90,"address":"新潟県南魚沼市坂戸１１７−子","place":"兼続庵","lat":37.0586,"lon":138.886,"state":"active","id":null},{"event_id":"1398486","title":"【南魚沼で開発合宿！】フラー春期インターンシップ 2020 〜南魚沼 春の陣〜","url":"http://fuller-spring-internship-2020.peatix.com","shortener_url":"https://bit.ly/2PVjirq","started_at":"2020-03-01T01:00:00.000+09:00","ended_at":"2020-03-03T23:59:59.000+09:00","limit_number":null,"address":"新潟県南魚沼市坂戸117−子","place":"新潟県 南魚沼市 兼続庵","lat":37.0588,"lon":138.886,"state":"active","id":null},{"event_id":"1406421","title":"今年もやります！2日間で技術を試してみたい学生エンジニア向けハッカソン！","url":"http://peatix.com/event/1406421","shortener_url":"https://bit.ly/2Rd3VKz","started_at":"2020-03-26T01:00:00.000+09:00","ended_at":"2020-03-28T23:59:59.000+09:00","limit_number":null,"address":"名古屋市中区錦3丁目23−31 名古屋国際ホテル 11F","place":"ワンダープラネット株式会社","lat":35.1692,"lon":136.905,"state":"active","id":null},{"event_id":"1408111","title":"エイゴえほんのじかん 市ヶ谷柳町","url":"http://202003-ce-ehon-mic-1.peatix.com","shortener_url":null,"started_at":"2020-03-21T04:30:00.000+09:00","ended_at":"2020-03-23T23:59:59.000+09:00","limit_number":null,"address":"新宿区市谷柳町7","place":"みちくさくらす","lat":35.6995,"lon":139.727,"state":"active","id":null},{"event_id":"1408114","title":"エイゴえほんのじかん 市ヶ谷柳町","url":"http://202003-ce-ehon-mic-2.peatix.com","shortener_url":null,"started_at":"2020-03-28T04:30:00.000+09:00","ended_at":"2020-03-30T23:59:59.000+09:00","limit_number":null,"address":"新宿区市谷柳町7","place":"みちくさくらす","lat":35.6995,"lon":139.727,"state":"active","id":null},{"event_id":"102572","title":"【会場イベント中止】IT温故知新！COBOLハッカソン2020 発表会\u0026トークイベント","url":"https://hackcamp.doorkeeper.jp/events/102572","shortener_url":"https://bit.ly/2FUiLjC","started_at":"2020-03-07T01:00:00.000+09:00","ended_at":"2020-03-07T08:30:00.000+09:00","limit_number":60,"address":"〒141-0021東京都品川区上大崎3-1-1 目黒セントラルスクエア","place":"目黒セントラルスクエア","lat":35.6315,"lon":139.714,"state":"active","id":null},{"event_id":"161745","title":"みやこ開発ガッシュク！#2","url":"https://mit.connpass.com/event/161745/","shortener_url":null,"started_at":"2020-03-28T06:00:00.000+09:00","ended_at":"2020-03-29T02:00:00.000+09:00","limit_number":15,"address":"大阪府大阪市北区中崎西４丁目３−３２- 503","place":"techgym大阪梅田校","lat":34.9802,"lon":135.755,"state":"active","id":null},{"event_id":"102992","title":"【3/2（月）・3/9（月）】初心者向け・２回で学ぶシリーズ②『Pandasによるデータ前処理と可視化の基礎』","url":"https://soleildatadojo.doorkeeper.jp/events/102992","shortener_url":null,"started_at":"2020-03-02T10:30:00.000+09:00","ended_at":"2020-03-09T12:30:00.000+09:00","limit_number":9,"address":"大阪府大阪市北区西天満二丁目5番3号(堂島深川ビル3階)","place":"SCRIBBLE OSAKA LAB（SOL）（大阪メトロ御堂筋線「淀屋橋」駅から徒歩４分）","lat":34.6951,"lon":135.502,"state":"active","id":null},{"event_id":"102993","title":"【3/14（土）午後】初心者向けシリーズ②『Pandasによるデータ前処理と可視化の基礎』","url":"https://soleildatadojo.doorkeeper.jp/events/102993","shortener_url":null,"started_at":"2020-03-14T04:00:00.000+09:00","ended_at":"2020-03-14T08:10:00.000+09:00","limit_number":8,"address":"大阪府大阪市北区西天満二丁目5番3号(堂島深川ビル3階)","place":"SCRIBBLE OSAKA LAB（SOL）（大阪メトロ御堂筋線「淀屋橋」駅から徒歩４分）","lat":34.6951,"lon":135.502,"state":"active","id":null},{"event_id":"163742","title":"【内定者様限定】IT最新動向とMESHでIoT体験_内定者研修#3","url":"https://techseed.connpass.com/event/163742/","shortener_url":null,"started_at":"2020-03-17T12:00:00.000+09:00","ended_at":"2020-03-17T17:00:00.000+09:00","limit_number":10,"address":"千代田区神田富山町5-1 神田ビジネスキューブ 7F","place":"神田Room(会議室５)","lat":35.6939,"lon":139.773,"state":"active","id":null},{"event_id":"163741","title":"【内定者様限定】IT最新動向とMESHでIoT体験_内定者研修#2","url":"https://techseed.connpass.com/event/163741/","shortener_url":null,"started_at":"2020-03-16T12:00:00.000+09:00","ended_at":"2020-03-16T17:00:00.000+09:00","limit_number":10,"address":"千代田区神田富山町5-1 神田ビジネスキューブ 7F","place":"神田Room(会議室５)","lat":35.6939,"lon":139.773,"state":"active","id":null},{"event_id":"163732","title":"【内定者様限定】IT最新動向とMESHでIoT体験_内定者研修#1","url":"https://techseed.connpass.com/event/163732/","shortener_url":null,"started_at":"2020-03-13T12:00:00.000+09:00","ended_at":"2020-03-13T17:00:00.000+09:00","limit_number":10,"address":"千代田区神田富山町5-1 神田ビジネスキューブ 7F","place":"神田Room(会議室５)","lat":35.6939,"lon":139.773,"state":"active","id":null},{"event_id":"1406823","title":"STARRY NIGHT JAM vol.58　『QUEEN -HEAVEN-』～春休み特別上映会～","url":"http://snj58.peatix.com","shortener_url":null,"started_at":"2020-03-25T09:30:00.000+09:00","ended_at":"2020-03-27T23:59:59.000+09:00","limit_number":null,"address":"福岡市中央区 六本松4丁目2−1","place":"福岡市科学館","lat":33.5774,"lon":130.378,"state":"active","id":null},{"event_id":"1413011","title":"エイゴえほんのじかん 市ヶ谷柳町","url":"http://202003ce-ehon-mon1.peatix.com","shortener_url":null,"started_at":"2020-03-21T04:30:00.000+09:00","ended_at":"2020-03-23T23:59:59.000+09:00","limit_number":null,"address":"新宿区市谷柳町7","place":"みちくさくらす","lat":35.6995,"lon":139.727,"state":"active","id":null},{"event_id":"1412769","title":"小石川　エイゴえほんのじかん","url":"http://peatix.com/event/1412769","shortener_url":null,"started_at":"2020-03-28T01:30:00.000+09:00","ended_at":"2020-03-30T23:59:59.000+09:00","limit_number":null,"address":"文京区小石川3丁目26−10","place":"小石川モノガタリ","lat":35.713,"lon":139.749,"state":"active","id":null},{"event_id":"1412965","title":"小石川　エイゴえほんのじかん","url":"http://202003ce-ehon-mon01.peatix.com","shortener_url":null,"started_at":"2020-03-21T01:30:00.000+09:00","ended_at":"2020-03-23T23:59:59.000+09:00","limit_number":null,"address":"文京区小石川3丁目26−10","place":"小石川モノガタリ","lat":35.713,"lon":139.749,"state":"active","id":null},{"event_id":"1413014","title":"エイゴえほんのじかん 市ヶ谷柳町","url":"http://202003ce-ehon-mon2.peatix.com","shortener_url":null,"started_at":"2020-03-28T04:30:00.000+09:00","ended_at":"2020-03-30T23:59:59.000+09:00","limit_number":null,"address":"新宿区市谷柳町7","place":"みちくさくらす","lat":35.6995,"lon":139.727,"state":"active","id":null},{"event_id":"1412248","title":"キャッシュレス生活、1年やってみた。結局、どうするのが一番いいんですか?　美崎栄一郎出版記念セミナー","url":"http://peatix.com/event/1412248","shortener_url":null,"started_at":"2020-03-18T10:00:00.000+09:00","ended_at":"2020-03-20T23:59:59.000+09:00","limit_number":null,"address":"オンライン","place":"オンライン","lat":0.0,"lon":0.0,"state":"active","id":null},{"event_id":"1412547","title":"【オンライン開催】楽描入門 反転学習でみんなで学ぶ #shiawase2020 @ujisakaeru","url":"http://peatix.com/event/1412547","shortener_url":null,"started_at":"2020-03-20T03:30:00.000+09:00","ended_at":"2020-03-22T23:59:59.000+09:00","limit_number":null,"address":"","place":"xxxonlineeventxxx","lat":35.6311,"lon":139.787,"state":"active","id":null},{"event_id":"163913","title":"【会場イベント中止】COBOLハッカソン2020 発表会\u0026トークイベント","url":"https://connpass.com/event/163913/","shortener_url":"https://bit.ly/2tHKx0l","started_at":"2020-03-07T10:00:00.000+09:00","ended_at":"2020-03-07T17:30:00.000+09:00","limit_number":40,"address":"東京都品川区上大崎3-1-1","place":"目黒セントラルスクエア","lat":35.6306,"lon":139.714,"state":"active","id":null},{"event_id":"1409268","title":"[新型コロナウイルス]イベントの開催・中止     ※抽選制※【アイデアソン・3月15日（日）開催・参加無料】『未来を変える新技術の活用』リコーが研究開発中の新技術を活用した未来を想像します","url":"http://peatix.com/event/1409268","shortener_url":"https://bit.ly/36fOab5","started_at":"2020-03-15T01:00:00.000+09:00","ended_at":"2020-03-17T23:59:59.000+09:00","limit_number":null,"address":"神奈川県海老名市扇町5-7","place":"RICOH Future House2F　「リコー コラボレーション ハブ」","lat":35.4556,"lon":139.388,"state":"active","id":null},{"event_id":"103092","title":"【開催中止】Startup Weekend 守山 Vol.2","url":"https://swmoriyama.doorkeeper.jp/events/103092","shortener_url":null,"started_at":"2020-03-20T09:30:00.000+09:00","ended_at":"2020-03-22T12:30:00.000+09:00","limit_number":50,"address":"滋賀県守山市吉身二丁目5-9","place":"future lab","lat":35.0583,"lon":135.993,"state":"active","id":null},{"event_id":"102713","title":"［無料］スタートアップの始め方","url":"https://swtakasaki.doorkeeper.jp/events/102713","shortener_url":null,"started_at":"2020-03-14T03:30:00.000+09:00","ended_at":"2020-03-14T07:00:00.000+09:00","limit_number":20,"address":"群馬県高崎市白銀町9","place":"高崎白銀ビル 第三会議室","lat":36.3257,"lon":139.008,"state":"active","id":null},{"event_id":"164755","title":"ラズパイオーディオの会 那覇合宿","url":"https://raspiaudio.connpass.com/event/164755/","shortener_url":null,"started_at":"2020-03-06T15:00:00.000+09:00","ended_at":"2020-03-08T15:00:00.000+09:00","limit_number":5,"address":"沖縄県那覇市牧志2-5-22","place":"MAKISHI IN","lat":26.2064,"lon":127.647,"state":"active","id":null},{"event_id":"1399776","title":"STARRY NIGHT JAM vol.57　プラネタリウムライブ ～COSMIC DANCE～","url":"http://snj57.peatix.com","shortener_url":null,"started_at":"2020-03-14T09:30:00.000+09:00","ended_at":"2020-03-16T23:59:59.000+09:00","limit_number":null,"address":"福岡市中央区 六本松4丁目2−1","place":"福岡市科学館","lat":33.5774,"lon":130.378,"state":"active","id":null},{"event_id":"1412021","title":"[親子アイディアソン]プランナーになって「PA!GO」の楽しみ方を企画しよう！","url":"http://panasonic-pago.peatix.com","shortener_url":"https://bit.ly/2GAjOWu","started_at":"2020-03-01T04:00:00.000+09:00","ended_at":"2020-03-03T23:59:59.000+09:00","limit_number":null,"address":"江東区有明3丁目5−1","place":"パナソニックセンター東京","lat":35.6332,"lon":139.791,"state":"active","id":null},{"event_id":"103276","title":"［無料］二時間で起業体験してみよう！","url":"https://swmishima.doorkeeper.jp/events/103276","shortener_url":null,"started_at":"2020-03-24T09:30:00.000+09:00","ended_at":"2020-03-24T11:30:00.000+09:00","limit_number":20,"address":"静岡県三島市中央町6-2","place":"みしま未来研究所","lat":35.1208,"lon":138.916,"state":"active","id":null},{"event_id":"1420128","title":"【4/4に延期】千葉柏開催 腰痛を抱えるランナーのための痛み改善教室(4名限定少人数制開催。走りません) リンクフィットネス主催","url":"http://peatix.com/event/1420128","shortener_url":null,"started_at":"2020-03-28T04:00:00.000+09:00","ended_at":"2020-03-30T23:59:59.000+09:00","limit_number":null,"address":"千葉県柏市柏4-4-5メープル柏201","place":"【集合/受付】千葉県柏市 鍼灸マッサージ院FLAT柏","lat":35.863,"lon":139.974,"state":"active","id":null},{"event_id":"103629","title":"3/21(土)~22(日)festivo ホームページ作成（WordPress） Camp@東京【30,000円(税別)】～戦うスキルを身につける大ボリューム2日15時間！WordPress集中合宿！～","url":"https://festivo.doorkeeper.jp/events/103629","shortener_url":"https://bit.ly/2uXGDB1","started_at":"2020-03-21T01:30:00.000+09:00","ended_at":"2020-03-22T09:30:00.000+09:00","limit_number":10,"address":"東京都練馬区豊玉北3-15-17","place":"起業家シェアハウス x-garden セミナールーム","lat":35.7329,"lon":139.661,"state":"active","id":null},{"event_id":"103671","title":"IODDみしまxよんなな会","url":"https://codeforfujinokuni.doorkeeper.jp/events/103671","shortener_url":null,"started_at":"2020-03-07T05:00:00.000+09:00","ended_at":"2020-03-07T07:00:00.000+09:00","limit_number":70,"address":"静岡県三島市中央町6-2","place":"","lat":35.1208,"lon":138.916,"state":"active","id":null},{"event_id":"164475","title":"[学生限定] 1Dayゲームジャム","url":"https://connpass.com/event/164475/","shortener_url":"https://bit.ly/36XuoS0","started_at":"2020-03-08T00:30:00.000+09:00","ended_at":"2020-03-08T11:59:00.000+09:00","limit_number":20,"address":"〒151-0061 東京都渋谷区初台１丁目９−３","place":"Now Collective House","lat":35.6779,"lon":139.687,"state":"active","id":null},{"event_id":"1408780","title":"24 JAM DALAM 37 TAHUN","url":"http://24dalam37.peatix.com","shortener_url":null,"started_at":"2020-03-05T12:45:00.000+09:00","ended_at":"2020-03-07T23:59:59.000+09:00","limit_number":null,"address":"32, 2, Jalan USJ 10/1e, Taipan Business Centre, Subang Jaya","place":"Lot'ng Arts Space","lat":3.04848,"lon":101.584,"state":"active","id":null},{"event_id":"1419911","title":"【BlockchainWorldValley】3月開校BCアカデミー\u0026アイデアソン説明会実装社ピッチ付","url":"http://peatix.com/event/1419911","shortener_url":"https://bit.ly/2GUz6FB","started_at":"2020-03-04T09:30:00.000+09:00","ended_at":"2020-03-06T23:59:59.000+09:00","limit_number":null,"address":"東京都千代田区平河町1-4-3 平河町伏見ビル 2F","place":"Co-CreationLABO　18:00開場　半蔵門駅5分","lat":35.6828,"lon":139.739,"state":"active","id":null},{"event_id":"1423561","title":"【この遺伝子セミナーを見る前に他の遺伝子検査を受けることは考えてはいけません！】遺伝子は語る！生活習慣に関連する遺伝子＆腸内フローラ検査からわかる将来の健康リスクと対処法とは？","url":"http://peatix.com/event/1423561","shortener_url":null,"started_at":"2020-03-04T10:00:00.000+09:00","ended_at":"2020-03-06T23:59:59.000+09:00","limit_number":null,"address":"世田谷区 粕谷4丁目19−6-2F","place":"トータルヘルスケアハーブ","lat":35.6646,"lon":139.603,"state":"active","id":null},{"event_id":"1423567","title":"3/10【この遺伝子セミナーを見る前に他の遺伝子検査を受けることは考えてはいけません！】遺伝子は語る！生活習慣に関連する遺伝子＆腸内フローラ検査からわかる将来の健康リスクと対処法とは？","url":"http://peatix.com/event/1423567","shortener_url":null,"started_at":"2020-03-10T10:00:00.000+09:00","ended_at":"2020-03-12T23:59:59.000+09:00","limit_number":null,"address":"世田谷区 粕谷4丁目19−6-2F","place":"トータルヘルスケアハーブ","lat":35.6646,"lon":139.603,"state":"active","id":null},{"event_id":"103556","title":"【開催中止】Startup Weekend Kamakura 地方創生 @ HATSU鎌倉","url":"https://swkamakura.doorkeeper.jp/events/103556","shortener_url":null,"started_at":"2020-03-27T09:30:00.000+09:00","ended_at":"2020-03-29T12:00:00.000+09:00","limit_number":28,"address":"〒248-0007 神奈川県鎌倉市大町1丁目1-14","place":"HATSU鎌倉","lat":35.3159,"lon":139.551,"state":"active","id":null},{"event_id":"163148","title":"立命館大学競技プログラミング合宿2020","url":"https://rippro.connpass.com/event/163148/","shortener_url":"https://bit.ly/3bezdK1","started_at":"2020-03-26T02:30:00.000+09:00","ended_at":"2020-03-28T05:30:00.000+09:00","limit_number":70,"address":"滋賀県草津市野路東１丁目1-1","place":"立命館大学びわこ・くさつキャンパス","lat":34.9816,"lon":135.965,"state":"active","id":null},{"event_id":"166949","title":"【中止】ITサウナ部の集い vol.1 ～サウナにまつわるLT大会！～","url":"https://it-sauna-bu.connpass.com/event/166949/","shortener_url":null,"started_at":"2020-03-06T10:30:00.000+09:00","ended_at":"2020-03-06T13:00:00.000+09:00","limit_number":20,"address":"東京都練馬区豊玉北5-15-1(ヒルズ京栄6番館)","place":"Neriba","lat":35.7357,"lon":139.655,"state":"active","id":null},{"event_id":"166903","title":"[秋葉原] Unityもくもく勉強会×1週間ゲームジャム追込＆打上会","url":"https://weeyble-game.connpass.com/event/166903/","shortener_url":"https://bit.ly/2HhbHOQ","started_at":"2020-03-01T09:00:00.000+09:00","ended_at":"2020-03-01T13:00:00.000+09:00","limit_number":12,"address":"東京都千代田区神田須田町２丁目１９−２３ (野村第３ビル ４階)","place":"コワーキングスペース秋葉原Weeyble","lat":35.6966,"lon":139.772,"state":"active","id":null},{"event_id":"167107","title":"【中止】LINE Developer Group Kansai ハッカソン 2020","url":"https://ldgk.connpass.com/event/167107/","shortener_url":"https://bit.ly/31MGrRf","started_at":"2020-03-28T01:30:00.000+09:00","ended_at":"2020-03-29T09:00:00.000+09:00","limit_number":30,"address":"大阪府吹田市江坂町1丁目23番38号(F\u0026Mビル5F)","place":"エフアンドエムネット株式会社","lat":34.7585,"lon":135.498,"state":"active","id":null},{"event_id":"1419661","title":"シブキャリ番外編『天才おぎくん小川院長に会いに行く』公開キャリコン","url":"http://shibu-career.peatix.com","shortener_url":null,"started_at":"2020-03-01T03:00:00.000+09:00","ended_at":"2020-03-03T23:59:59.000+09:00","limit_number":null,"address":"東京都渋谷区神宮前5-34-10","place":"渋谷のシェアキッチン","lat":0.0,"lon":0.0,"state":"active","id":null},{"event_id":"1417054","title":"【⚠開催日変更→3/8のみ実施】Hackathon for Startups - スタートアップとエンジニア／デザイナーをつなぐハッカソン！","url":"http://hackathon-for-startups-001.peatix.com","shortener_url":"https://bit.ly/2SpsHZw","started_at":"2020-03-01T01:00:00.000+09:00","ended_at":"2020-03-03T23:59:59.000+09:00","limit_number":null,"address":"渋谷区恵比寿南3丁目5−7 デジタルゲートビル","place":"デジタルガレージ","lat":35.6621,"lon":139.699,"state":"active","id":null},{"event_id":"1428959","title":"【東京手仕事展@大丸東京店\u003c3/18(水)-31(火)\u003e】東京手仕事の「職人体験」してみませんか？※予定しておりました職人によるワークショップは、新型コロナウィルスの影響により中止となりました。","url":"http://ttdaimaru202003.peatix.com","shortener_url":null,"started_at":"2020-03-18T01:00:00.000+09:00","ended_at":"2020-03-20T23:59:59.000+09:00","limit_number":null,"address":"千代田区丸の内1丁目9−1","place":"大丸 東京店","lat":35.6816,"lon":139.769,"state":"active","id":null},{"event_id":"1423073","title":"3/21(土)~22(日)festivo ホームページ作成（WordPress） Camp@東京【30,000円（税別）】～戦うスキルを身につける大ボリューム2日15時間！WordPress集中合宿！～","url":"http://peatix.com/event/1423073","shortener_url":"https://bit.ly/2uAxluX","started_at":"2020-03-21T01:30:00.000+09:00","ended_at":"2020-03-23T23:59:59.000+09:00","limit_number":null,"address":"東京都練馬区豊玉北3-15-17","place":"起業家シェアハウス x-garden セミナールーム","lat":35.7329,"lon":139.661,"state":"active","id":null},{"event_id":"1420126","title":"面白法人カヤック 2020年の会社説明会 Vol.01 「裸足で鎌倉の山を走る漢 久場智喜と鎌倉を走りませんか？」","url":"http://peatix.com/event/1420126","shortener_url":null,"started_at":"2020-03-01T01:00:00.000+09:00","ended_at":"2020-03-03T23:59:59.000+09:00","limit_number":null,"address":"鎌倉市御成町4−31","place":"面白法人カヤック ぼくらの会議棟","lat":35.3166,"lon":139.55,"state":"active","id":null},{"event_id":"111843","title":"【Jokio！】東京で正社員として働く　転職合宿説明会","url":"https://atnd.org/events/111843","shortener_url":null,"started_at":"2020-03-01T04:00:00.000+09:00","ended_at":"2020-03-01T05:00:00.000+09:00","limit_number":10,"address":"東京都渋谷区代々木2丁目18-18番4号 細川ビル 4F","place":"キャライフ　新宿事務所","lat":35.686,"lon":139.697,"state":"closed","id":null},{"event_id":"1432299","title":"【オンラインに変更】 #楽描きワイワイ生放送  （定例：毎月第２日曜日） 初のオンライン開催は一体どうなるの？","url":"http://rkgkyy-20200308.peatix.com","shortener_url":null,"started_at":"2020-03-08T00:30:00.000+09:00","ended_at":"2020-03-10T23:59:59.000+09:00","limit_number":null,"address":"","place":"xxxonlineeventxxx","lat":35.6797,"lon":139.737,"state":"active","id":null},{"event_id":"1432318","title":"茶ッカソン × Arita","url":"http://peatix.com/event/1432318","shortener_url":null,"started_at":"2020-03-07T01:00:00.000+09:00","ended_at":"2020-03-09T23:59:59.000+09:00","limit_number":null,"address":"1 Chome-2-5 Jinnan, Shibuya City","place":"JINNAN HOUSE","lat":35.6656,"lon":139.701,"state":"active","id":null},{"event_id":"166951","title":"Oracle Big Data Jam Session #2","url":"https://oracle-code-tokyo-dev.connpass.com/event/166951/","shortener_url":null,"started_at":"2020-03-06T09:00:00.000+09:00","ended_at":"2020-03-06T12:00:00.000+09:00","limit_number":50,"address":"東京都港区北青山2-5-8 オラクル青山センター","place":"日本オラクル株式会社 13F","lat":35.6712,"lon":139.719,"state":"active","id":null},{"event_id":"111834","title":"（中止）名古屋でも「第13回UE4ぷちコン」ゲームジャム 3/7-3/8","url":"https://atnd.org/events/111834","shortener_url":"https://bit.ly/2SP1q1M","started_at":"2020-03-07T00:30:00.000+09:00","ended_at":"2020-03-08T09:00:00.000+09:00","limit_number":10,"address":"愛知県名古屋市中区丸の内3-5-34 セントラルコーポ503号室","place":"名古ゲ部","lat":35.1773,"lon":136.906,"state":"closed","id":null},{"event_id":"1424911","title":"福祉未来価値創造大賞(ふくみかそ)見本市","url":"http://hukumikaso.peatix.com","shortener_url":null,"started_at":"2020-03-19T02:00:00.000+09:00","ended_at":"2020-03-21T23:59:59.000+09:00","limit_number":null,"address":"大阪市北区梅田1丁目大阪駅前ダイヤモンド地下街5号5110区画","place":"大阪駅前ビル","lat":34.6991,"lon":135.497,"state":"active","id":null},{"event_id":"1430140","title":"「ひとりにひとつをありがとう」バンザイファクトリー東京交流会  ～三陸発、地域素材を活かした研究開発型商品を試してみませんか！","url":"http://peatix.com/event/1430140","shortener_url":null,"started_at":"2020-03-14T06:00:00.000+09:00","ended_at":"2020-03-16T23:59:59.000+09:00","limit_number":null,"address":"千代田区二番町2−番 平田ビル 1階","place":"社会起業大学","lat":35.687,"lon":139.738,"state":"active","id":null},{"event_id":"168076","title":"※オンライン開催※【申込用】TECH CAFEプレハッカソン","url":"https://techcafe2019.connpass.com/event/168076/","shortener_url":"https://bit.ly/3bLLeae","started_at":"2020-03-30T07:00:00.000+09:00","ended_at":"2020-03-30T09:00:00.000+09:00","limit_number":25,"address":"愛知県名古屋市中区千代田2-10-2(OCEAN SQUARE3F)","place":"TECH CAFE名古屋","lat":35.1582,"lon":136.914,"state":"active","id":null},{"event_id":"167858","title":"大阪江坂　3DROPSゲームジャム","url":"https://connpass.com/event/167858/","shortener_url":"https://bit.ly/2V32wK3","started_at":"2020-03-07T01:00:00.000+09:00","ended_at":"2020-03-08T14:00:00.000+09:00","limit_number":10,"address":"大阪府吹田市豊津町1-41 タケダビル2  3F","place":"3DROPS","lat":34.7612,"lon":135.496,"state":"active","id":null},{"event_id":"167956","title":"北上市Webフロントエンド会議  ~SPA/PWAで何が出来るだろう？編~ #0","url":"https://kitakami-moku2kai.connpass.com/event/167956/","shortener_url":"https://bit.ly/2SVsqwL","started_at":"2020-03-05T10:00:00.000+09:00","ended_at":"2020-03-05T13:00:00.000+09:00","limit_number":11,"address":"岩手県北上市さくら通り２丁目１−１","place":"北上市文化交流センターさくらホール 会議室１","lat":39.2979,"lon":141.11,"state":"active","id":null},{"event_id":"168213","title":"【大阪】大阪でも第13回UE4ぷちコン ゲームジャム","url":"https://osaka-driven-dev.connpass.com/event/168213/","shortener_url":"https://bit.ly/38NdSpy","started_at":"2020-03-14T01:00:00.000+09:00","ended_at":"2020-03-15T09:30:00.000+09:00","limit_number":10,"address":"大阪府大阪市東淀川区東中島1-5-7 新大阪コスモビル201","place":"株式会社 Indie-us Games","lat":34.7289,"lon":135.502,"state":"active","id":null},{"event_id":"1433944","title":"体験しよう！アートってなんだろう？","url":"http://tagensympo200317.peatix.com","shortener_url":null,"started_at":"2020-03-17T10:00:00.000+09:00","ended_at":"2020-03-19T23:59:59.000+09:00","limit_number":null,"address":"渋谷区渋谷4丁目4−25","place":"青山学院大学青山キャンパス 17号館","lat":35.6617,"lon":139.71,"state":"active","id":null},{"event_id":"167514","title":"Code Bliss IT相談会（不定期）＆社会参加のためのトレーニング","url":"https://cob.connpass.com/event/167514/","shortener_url":null,"started_at":"2020-03-08T12:00:00.000+09:00","ended_at":"2020-03-08T14:00:00.000+09:00","limit_number":1,"address":"東京都 千代田区 神田佐久間町3-31-3 てらこや","place":"秋葉原レッスンスタジオTera-coya","lat":35.6986,"lon":139.778,"state":"active","id":null},{"event_id":"1433620","title":"Acro+ Meetup: The Weekly Jam Series 2.0","url":"http://acromeetup2.peatix.com","shortener_url":null,"started_at":"2020-03-01T08:00:00.000+09:00","ended_at":"2020-03-03T23:59:59.000+09:00","limit_number":null,"address":"Lot L1-15/16/17/17A, 1st Floor, 3 Damansara Mall, 3, Jalan SS 20/27, Damansara Intan, Petaling Jaya","place":"Enhance Fitness @ 3 Damansara","lat":3.13042,"lon":101.628,"state":"active","id":null},{"event_id":"1433717","title":"こんな練習みせるの、今回だけなんだからねっ///","url":"http://konkon0328.peatix.com","shortener_url":null,"started_at":"2020-03-28T04:00:00.000+09:00","ended_at":"2020-03-30T23:59:59.000+09:00","limit_number":null,"address":"台東区上野桜木1丁目5−6 地下一階 シーダーレジデンス","place":"ライブハウス上野 Untitled","lat":35.7202,"lon":139.771,"state":"active","id":null},{"event_id":"1427913","title":"【大阪】清流の国ぎふ暮らしセミナー　　　　　　「ぎふで農業はじめませんか」","url":"http://peatix.com/event/1427913","shortener_url":null,"started_at":"2020-03-14T04:30:00.000+09:00","ended_at":"2020-03-16T23:59:59.000+09:00","limit_number":null,"address":"大阪市北区堂島浜1丁目4−4 アクア堂島東館 1F, Kita","place":"飛騨の家具館 大阪ショールーム","lat":34.6953,"lon":135.497,"state":"active","id":null},{"event_id":"1425755","title":"今年こそ！2019年をかみしめて、ワンランク上の2020年を目指しませんか？","url":"http://peatix.com/event/1425755","shortener_url":null,"started_at":"2020-03-07T01:00:00.000+09:00","ended_at":"2020-03-09T23:59:59.000+09:00","limit_number":null,"address":"東京都文京区本郷3-27-12 本郷デントビル2F","place":"本郷デントビル2F","lat":35.7065,"lon":139.762,"state":"active","id":null},{"event_id":"1435862","title":"2020年春学期 4月4日開講！社会起業大学 学校説明会　社会起業の初めの一歩で必要なことを学びませんか？","url":"http://peatix.com/event/1435862","shortener_url":null,"started_at":"2020-03-02T11:00:00.000+09:00","ended_at":"2020-03-04T23:59:59.000+09:00","limit_number":null,"address":"東京都千代田区二番町2番平田ビル1階","place":"社会起業大学","lat":35.687,"lon":139.738,"state":"active","id":null},{"event_id":"1435860","title":"2020年春学期 4月4日開講！社会起業大学 学校説明会　社会起業の初めの一歩で必要なことを学びませんか？","url":"http://peatix.com/event/1435860","shortener_url":null,"started_at":"2020-03-02T10:00:00.000+09:00","ended_at":"2020-03-04T23:59:59.000+09:00","limit_number":null,"address":"東京都千代田区二番町2番平田ビル1階","place":"社会起業大学","lat":35.687,"lon":139.738,"state":"active","id":null},{"event_id":"1435867","title":"2020年春学期 4月4日開講！社会起業大学 学校説明会　社会起業の初めの一歩で必要なことを学びませんか？","url":"http://peatix.com/event/1435867","shortener_url":null,"started_at":"2020-03-09T10:00:00.000+09:00","ended_at":"2020-03-11T23:59:59.000+09:00","limit_number":null,"address":"東京都千代田区二番町2番平田ビル1階","place":"社会起業大学","lat":35.687,"lon":139.738,"state":"active","id":null},{"event_id":"1435870","title":"2020年春学期 4月4日開講！社会起業大学 学校説明会　社会起業の初めの一歩で必要なことを学びませんか？","url":"http://peatix.com/event/1435870","shortener_url":null,"started_at":"2020-03-09T11:00:00.000+09:00","ended_at":"2020-03-11T23:59:59.000+09:00","limit_number":null,"address":"東京都千代田区二番町2番平田ビル1階","place":"社会起業大学","lat":35.687,"lon":139.738,"state":"active","id":null},{"event_id":"168725","title":"ブロックチェーンに少しでも興味ある人の交流会　~ピッチ＊３もあります!!~","url":"https://elv.connpass.com/event/168725/","shortener_url":null,"started_at":"2020-03-04T09:30:00.000+09:00","ended_at":"2020-03-04T12:00:00.000+09:00","limit_number":10,"address":"102-0093　　東京都千代田区平河町1-4-3  (平河町伏見ビル 2F)","place":"Co-CreationLABO","lat":35.6828,"lon":139.739,"state":"active","id":null},{"event_id":"1435079","title":"【⚠中止】Hackathon for Startups - スタートアップとエンジニア／デザイナーをつなぐハッカソン！","url":"http://hackathon-for-startups-002.peatix.com","shortener_url":"https://bit.ly/37M2l8M","started_at":"2020-03-08T01:00:00.000+09:00","ended_at":"2020-03-10T23:59:59.000+09:00","limit_number":null,"address":"渋谷区恵比寿南3丁目5−7 デジタルゲートビル","place":"デジタルガレージ","lat":35.6462,"lon":139.704,"state":"active","id":null},{"event_id":"168510","title":"ブロックチェーンに少しでも興味ある人の交流会　~ピッチ＊３もあります!!~","url":"https://elv.connpass.com/event/168510/","shortener_url":null,"started_at":"2020-03-04T09:30:00.000+09:00","ended_at":"2020-03-04T12:00:00.000+09:00","limit_number":15,"address":"102-0093　　東京都千代田区平河町1-4-3  (平河町伏見ビル 2F)","place":"Co-CreationLABO","lat":35.6828,"lon":139.739,"state":"active","id":null},{"event_id":"168895","title":"子ども向けプログラミングクラブ コーダー道場甲府#32","url":"https://coderdojokofu.connpass.com/event/168895/","shortener_url":null,"started_at":"2020-03-29T00:20:00.000+09:00","ended_at":"2020-03-29T02:40:00.000+09:00","limit_number":13,"address":"山梨県甲府市北口２丁目８番１号","place":"山梨県立図書館","lat":35.6685,"lon":138.57,"state":"active","id":null},{"event_id":"1424678","title":"[POSTPONED] Firebase Study Jam 2020","url":"http://gdgkl-firebase-study-jam.peatix.com","shortener_url":null,"started_at":"2020-03-14T01:00:00.000+09:00","ended_at":"2020-03-16T23:59:59.000+09:00","limit_number":null,"address":"","place":"xxxonlineeventxxx","lat":3.11099,"lon":101.666,"state":"active","id":null},{"event_id":"1437597","title":"志んまち勘亭流書道會《弥生》","url":"http://peatix.com/event/1437597","shortener_url":null,"started_at":"2020-03-22T05:00:00.000+09:00","ended_at":"2020-03-24T23:59:59.000+09:00","limit_number":null,"address":"大阪市西区新町一丁目南","place":"居酒屋 仁左衛門","lat":34.6775,"lon":135.495,"state":"active","id":null},{"event_id":"168989","title":"総務担当向けテレワークをセキュアで安価に準備するセミナー","url":"https://monoschool.connpass.com/event/168989/","shortener_url":"https://bit.ly/37SuRFP","started_at":"2020-03-11T10:00:00.000+09:00","ended_at":"2020-03-11T12:00:00.000+09:00","limit_number":20,"address":"東京都江東区青海２－５－１０","place":"テレコムセンタービル","lat":35.6171,"lon":139.78,"state":"active","id":null},{"event_id":"168976","title":"第24回ゆるもく会","url":"https://sanuki-gamen.connpass.com/event/168976/","shortener_url":null,"started_at":"2020-03-14T04:00:00.000+09:00","ended_at":"2020-03-14T08:30:00.000+09:00","limit_number":null,"address":"香川県高松市亀井町10番地3","place":"燈屋","lat":34.3393,"lon":134.049,"state":"active","id":null},{"event_id":"168956","title":"熊ゆに Unityもくもく会　2020/03/01（日）","url":"https://kumauni.connpass.com/event/168956/","shortener_url":null,"started_at":"2020-03-01T04:00:00.000+09:00","ended_at":"2020-03-01T07:00:00.000+09:00","limit_number":10,"address":"熊本県熊本市 中央区下通１丁目１２−２７","place":"未来会議室","lat":32.7999,"lon":130.708,"state":"active","id":null},{"event_id":"1437264","title":"【延期になりました！】第７回　士業のための「リアルしくじり先生」「チャレンジこそ、チャンス到来なんです」","url":"http://shikujiri-7.peatix.com","shortener_url":null,"started_at":"2020-03-17T10:00:00.000+09:00","ended_at":"2020-03-19T23:59:59.000+09:00","limit_number":null,"address":"千代田区神田神保町2丁目13−1 西遊ビル 3F","place":"アクセア神保町店","lat":35.6955,"lon":139.758,"state":"active","id":null},{"event_id":"1415662","title":"【3月前半の受付中！】外国人プロ講師のオンライン英語レッスンを試してみませんか？個室で受けられます【水道橋駅徒歩1分】","url":"http://offline202003vipabc01.peatix.com","shortener_url":null,"started_at":"2020-03-01T02:00:00.000+09:00","ended_at":"2020-03-03T23:59:59.000+09:00","limit_number":null,"address":"東京都千代田区神田三崎町2-20-5","place":"東京　水道橋　VIPABC株式会社 住友不動産水道橋西口ビル7階","lat":35.7016,"lon":139.753,"state":"active","id":null},{"event_id":"1424722","title":"【開催中止】こどもいっぴんいち＠国立こどものしゅうかつ","url":"http://kodomono-ippin2003.peatix.com","shortener_url":null,"started_at":"2020-03-14T02:00:00.000+09:00","ended_at":"2020-03-16T23:59:59.000+09:00","limit_number":null,"address":"東京都国立市中1丁目1−52","place":"JR国立ビル","lat":35.699,"lon":139.446,"state":"active","id":null},{"event_id":"1437185","title":"【参加無料】デジタルマーケティングの弊社コンサル業務を体験してみませんか？","url":"http://mt-meetup20200311.peatix.com","shortener_url":null,"started_at":"2020-03-11T08:00:00.000+09:00","ended_at":"2020-03-13T23:59:59.000+09:00","limit_number":null,"address":"東京都文京区本郷3-20-7 山の手ビル3F","place":"株式会社Media Theater オフィス","lat":35.7056,"lon":139.763,"state":"active","id":null},{"event_id":"1422328","title":"【申し訳ありません。日程変更させて頂きました。受付終了です】ターミネーターで考えるＡＩ～ＡＩサロン出張開催～","url":"http://ai-saron-other-004.peatix.com","shortener_url":null,"started_at":"2020-03-11T10:00:00.000+09:00","ended_at":"2020-03-13T23:59:59.000+09:00","limit_number":null,"address":"横浜市西区みなとみらい3丁目7−1","place":"京セラ（株） みなとみらいリサーチセンター","lat":35.458,"lon":139.634,"state":"active","id":null},{"event_id":"1438372","title":"2020年春学期 4月4日開講！社会起業大学 学校説明会　社会起業の初めの一歩で必要なことを学びませんか？","url":"http://peatix.com/event/1438372","shortener_url":null,"started_at":"2020-03-16T11:00:00.000+09:00","ended_at":"2020-03-18T23:59:59.000+09:00","limit_number":null,"address":"東京都千代田区二番町2番平田ビル1階","place":"社会起業大学","lat":35.687,"lon":139.738,"state":"active","id":null},{"event_id":"1438370","title":"2020年春学期 4月4日開講！社会起業大学 学校説明会　社会起業の初めの一歩で必要なことを学びませんか？","url":"http://peatix.com/event/1438370","shortener_url":null,"started_at":"2020-03-16T10:00:00.000+09:00","ended_at":"2020-03-18T23:59:59.000+09:00","limit_number":null,"address":"東京都千代田区二番町2番平田ビル1階","place":"社会起業大学","lat":35.687,"lon":139.738,"state":"active","id":null},{"event_id":"1422813","title":"《開催を中止といたします。誠に申し訳ございません》　　　　　◆ AP品川 ありがとう　おもてなし会 ◆  　　2020年3月19日（木）18:00～20:00 開催","url":"http://ap-event0319.peatix.com","shortener_url":null,"started_at":"2020-03-19T09:00:00.000+09:00","ended_at":"2020-03-21T23:59:59.000+09:00","limit_number":null,"address":"東京都港区高輪3-25-23 京急第2ビル","place":"AP品川　　　【品川駅　高輪口より徒歩3分】","lat":35.6308,"lon":139.738,"state":"active","id":null},{"event_id":"1436836","title":"【3/28(土)】御所まわり桜づくしレトロルート　千年の王朝絵巻から近代京都へ　にぎやかに咲き誇る桜を背景に、古都になった京都の物語に耳をすませてみませんか？","url":"http://peatix.com/event/1436836","shortener_url":null,"started_at":"2020-03-28T03:00:00.000+09:00","ended_at":"2020-03-30T23:59:59.000+09:00","limit_number":null,"address":"京都府京都市左京区田中上柳町32−1","place":"集合場所:京阪電車・叡山電車「出町柳」駅","lat":35.0305,"lon":135.773,"state":"active","id":null},{"event_id":"104732","title":"【オンライン】ウェブ解析士協会コンテンツハッカソン - Q\u0026Aをハックせよ","url":"https://web-mining.doorkeeper.jp/events/104732","shortener_url":"https://bit.ly/2T3GCVw","started_at":"2020-03-14T02:00:00.000+09:00","ended_at":"2020-03-15T08:00:00.000+09:00","limit_number":15,"address":"オンライン(Zoom + Slack)","place":"","lat":null,"lon":null,"state":"active","id":null},{"event_id":"169081","title":"※オンライン開催※【アイデアソン】TECH CAFEプレハッカソン","url":"https://techcafe2019.connpass.com/event/169081/","shortener_url":"https://bit.ly/2PuRABt","started_at":"2020-03-16T04:00:00.000+09:00","ended_at":"2020-03-16T09:00:00.000+09:00","limit_number":null,"address":"愛知県名古屋市中区千代田2-10-2(OCEAN SQUARE3F)","place":"TECH CAFE名古屋","lat":35.1582,"lon":136.914,"state":"active","id":null},{"event_id":"1399446","title":"【開催中止】N-1カレッジ　マスコミに向けて情報を発信しませんか ビジネス情報を発信しよう","url":"http://n-1college203-4.peatix.com","shortener_url":null,"started_at":"2020-03-07T01:00:00.000+09:00","ended_at":"2020-03-09T23:59:59.000+09:00","limit_number":null,"address":"名古屋市中村区名駅4丁目15−19 大清ビル2階","place":"貸会議室名古屋 大清ビル貸会議室","lat":35.1702,"lon":136.888,"state":"active","id":null},{"event_id":"169298","title":"【オンライン】UX JAM Online #02","url":"https://uxmilk.connpass.com/event/169298/","shortener_url":null,"started_at":"2020-03-04T12:00:00.000+09:00","ended_at":"2020-03-04T13:30:00.000+09:00","limit_number":400,"address":"","place":"オンライン","lat":null,"lon":null,"state":"active","id":null},{"event_id":"1438880","title":"【全職種対象】kay me採用イベント～グローバル展開するD2Cベンチャー、kay meの働き方についてお茶しながら語りませんか？～","url":"http://kayme-recruit0315.peatix.com","shortener_url":null,"started_at":"2020-03-15T02:00:00.000+09:00","ended_at":"2020-03-17T23:59:59.000+09:00","limit_number":null,"address":"新宿区新宿3丁目13−5 クリハシビル 6F","place":"kay me Lounge","lat":35.6921,"lon":139.706,"state":"active","id":null},{"event_id":"112019","title":"Las 10 mejores muñecas sexuales alienígenas","url":"https://atnd.org/events/112019","shortener_url":null,"started_at":"2020-03-02T16:30:00.000+09:00","ended_at":"2020-03-26T17:00:00.000+09:00","limit_number":1000,"address":"shenzhenlonghuaguanlan","place":"shenzhenhonghua","lat":22.7199,"lon":114.058,"state":"closed","id":null},{"event_id":"1435063","title":"「愛する」とは、才能でも感情でもなく、技術である。世界的ベストセラーとなった古典、『愛するということ』を読む。３月の「本で遊ぶじかん」","url":"http://sugoi202003.peatix.com","shortener_url":null,"started_at":"2020-03-18T10:00:00.000+09:00","ended_at":"2020-03-20T23:59:59.000+09:00","limit_number":null,"address":"〒153-0042 東京都目黒区青葉台3-15-15 BUENA CASA 青葉台 302","place":"株式会社SUGOI","lat":0.0,"lon":0.0,"state":"active","id":null},{"event_id":"1432272","title":"切削技術ってなんだろう？　JAJウェブセミナー　ワンコインでどこからでも気軽に参加","url":"http://20200311jajcncsm.peatix.com","shortener_url":null,"started_at":"2020-03-11T10:30:00.000+09:00","ended_at":"2020-03-13T23:59:59.000+09:00","limit_number":null,"address":"世田谷区船橋1丁目14−12","place":"SHINKO STUDIO シンコーストゥディオ","lat":35.649,"lon":139.623,"state":"active","id":null},{"event_id":"1440740","title":"チャレンジャーを応援したい！東京渋谷クラフトビールバーでイベントをしませんか？3月9日(月)19:00～","url":"http://peatix.com/event/1440740","shortener_url":null,"started_at":"2020-03-09T10:00:00.000+09:00","ended_at":"2020-03-11T23:59:59.000+09:00","limit_number":null,"address":"渋谷区道玄坂2丁目17−2 トップ美奄 2F","place":"東京･渋谷道玄坂のクラフトビールバー KOBUSHI BEER LOUNGE \u0026 BAR（コブシビール・ラウンジ・アンド・バー）","lat":35.6588,"lon":139.697,"state":"active","id":null},{"event_id":"1441322","title":"【Bar Minma #3】「みんなのマーケット」の品質管理メンバーと、お酒を飲みながらお話しませんか？","url":"http://peatix.com/event/1441322","shortener_url":null,"started_at":"2020-03-18T10:30:00.000+09:00","ended_at":"2020-03-20T23:59:59.000+09:00","limit_number":null,"address":"品川区西五反田4丁目31−18 目黒テクノビル 3F","place":"みんなのマーケット株式会社","lat":35.6266,"lon":139.714,"state":"active","id":null},{"event_id":"1436004","title":"1Day完結の認定講座「おから再活プロデューサー」仕込みのいらないエコ味噌作りの講師になる！あなたもお教室を開催しませんか？","url":"http://okaramisokansai.peatix.com","shortener_url":null,"started_at":"2020-03-28T01:00:00.000+09:00","ended_at":"2020-03-30T23:59:59.000+09:00","limit_number":null,"address":"大阪市此花区西九条6-1-20","place":"クレオ大阪西館","lat":34.6818,"lon":135.463,"state":"active","id":null},{"event_id":"104817","title":"『Python, Machine Learning \u0026 Raspberry PI』もくもく会#43","url":"https://soleildatadojo.doorkeeper.jp/events/104817","shortener_url":null,"started_at":"2020-03-17T10:30:00.000+09:00","ended_at":"2020-03-17T12:30:00.000+09:00","limit_number":6,"address":"大阪府大阪市北区西天満二丁目5番3号(堂島深川ビル3階)","place":"SCRIBBLE OSAKA LAB（SOL）（大阪メトロ御堂筋線「淀屋橋」駅から徒歩４分）","lat":34.6951,"lon":135.502,"state":"active","id":null},{"event_id":"169686","title":"合宿強化もくもく会","url":"https://connpass.com/event/169686/","shortener_url":null,"started_at":"2020-03-21T05:30:00.000+09:00","ended_at":"2020-03-22T02:00:00.000+09:00","limit_number":18,"address":"〒198-0102 東京都西多摩郡奥多摩町川井５９４","place":"OKUTAMA+","lat":35.8113,"lon":139.159,"state":"active","id":null},{"event_id":"1434406","title":"【Bar Minma #2】「みんなのマーケット」のコーポレートメンバーと、お酒を飲みながらお話しませんか？","url":"http://peatix.com/event/1434406","shortener_url":null,"started_at":"2020-03-11T10:30:00.000+09:00","ended_at":"2020-03-13T23:59:59.000+09:00","limit_number":null,"address":"品川区西五反田4丁目31−18 目黒テクノビル 3F","place":"みんなのマーケット株式会社","lat":35.6266,"lon":139.714,"state":"active","id":null},{"event_id":"169645","title":"実験！新潟デルタオンライン vol.6","url":"https://ddd-ng.connpass.com/event/169645/","shortener_url":null,"started_at":"2020-03-21T04:00:00.000+09:00","ended_at":"2020-03-21T07:00:00.000+09:00","limit_number":null,"address":"オンライン","place":"オンライン","lat":37.9084,"lon":139.055,"state":"active","id":null},{"event_id":"1437389","title":"【中止決定】旅するいっぴんいち＠新虎通り Vol.3","url":"http://tabusuruippin03.peatix.com","shortener_url":null,"started_at":"2020-03-06T08:00:00.000+09:00","ended_at":"2020-03-08T23:59:59.000+09:00","limit_number":null,"address":"港区西新橋2丁目16−6","place":"旅する新虎マーケット","lat":35.6665,"lon":139.751,"state":"active","id":null},{"event_id":"1441436","title":"Chilly Source JAM Vol.7 \"CITAN 3rd Anniversary\"","url":"http://csjamvol7.peatix.com","shortener_url":null,"started_at":"2020-03-21T07:00:00.000+09:00","ended_at":"2020-03-23T23:59:59.000+09:00","limit_number":null,"address":"中央区日本橋大伝馬町15−2","place":"シタン CITAN","lat":35.6916,"lon":139.781,"state":"active","id":null},{"event_id":"1439949","title":"【参加無料】デジタルマーケティングの弊社コンサル業務を体験してみませんか？","url":"http://mt-meetup20200326.peatix.com","shortener_url":null,"started_at":"2020-03-26T08:00:00.000+09:00","ended_at":"2020-03-28T23:59:59.000+09:00","limit_number":null,"address":"東京都文京区本郷3-20-7 山の手ビル3F","place":"株式会社Media Theater オフィス","lat":35.7056,"lon":139.763,"state":"active","id":null},{"event_id":"170065","title":"スクラム道関西 オープンジャム・オンライン","url":"https://scrumdo-kansai.connpass.com/event/170065/","shortener_url":null,"started_at":"2020-03-12T10:30:00.000+09:00","ended_at":"2020-03-12T12:00:00.000+09:00","limit_number":15,"address":"","place":"オンライン","lat":null,"lon":null,"state":"active","id":null},{"event_id":"1443440","title":"「あなた専用ヨガ」一緒に作りませんか？カウンセリング＋簡易診断、プライベートレッスン1回、動画付","url":"http://peatix.com/event/1443440","shortener_url":null,"started_at":"2020-03-24T10:00:00.000+09:00","ended_at":"2020-03-26T23:59:59.000+09:00","limit_number":null,"address":"東京都新宿区新宿3-38","place":"都内ご都合よい場所","lat":0.0,"lon":0.0,"state":"active","id":null},{"event_id":"1443070","title":"【オンライン開催】それ、逆に効率下げてませんか？リモートワークのポイント徹底解説セミナー","url":"http://peatix.com/event/1443070","shortener_url":null,"started_at":"2020-03-18T01:30:00.000+09:00","ended_at":"2020-03-20T23:59:59.000+09:00","limit_number":null,"address":"","place":"xxxonlineeventxxx","lat":0.0,"lon":0.0,"state":"active","id":null},{"event_id":"170198","title":"CCNA勉強会","url":"https://connpass.com/event/170198/","shortener_url":null,"started_at":"2020-03-21T01:00:00.000+09:00","ended_at":"2020-03-21T06:59:00.000+09:00","limit_number":1,"address":"東京都桜丘町22-19 JAMビル","place":"communSHIBUYA","lat":35.655,"lon":139.7,"state":"active","id":null},{"event_id":"170176","title":"【大阪】トランプマジックとAWSを活用したサービス開発を習得しよう！ 2020/03/14","url":"https://mackathon.connpass.com/event/170176/","shortener_url":null,"started_at":"2020-03-14T10:00:00.000+09:00","ended_at":"2020-03-14T13:00:00.000+09:00","limit_number":15,"address":"大阪市中央区本町四丁目７番７号飛鳥ビル３０３","place":"Kiiiya Hommachi","lat":34.6849,"lon":135.498,"state":"active","id":null},{"event_id":"112079","title":"Shaken: Mayfield, Browns bruised following blasting through 49ers","url":"https://atnd.org/events/112079","shortener_url":null,"started_at":"2020-03-11T17:00:00.000+09:00","ended_at":"2020-03-26T18:00:00.000+09:00","limit_number":null,"address":"","place":"","lat":null,"lon":null,"state":"closed","id":null},{"event_id":"112080","title":"Sturdy as metallic: Among heartbreak, Steelers rout Browns","url":"https://atnd.org/events/112080","shortener_url":null,"started_at":"2020-03-10T17:30:00.000+09:00","ended_at":"2020-03-25T17:00:00.000+09:00","limit_number":null,"address":"","place":"","lat":null,"lon":null,"state":"closed","id":null},{"event_id":"112082","title":"AFC West Preview: Chargers viewed as favorites within appealing department","url":"https://atnd.org/events/112082","shortener_url":null,"started_at":"2020-03-09T17:00:00.000+09:00","ended_at":"2020-03-10T17:30:00.000+09:00","limit_number":null,"address":"","place":"","lat":null,"lon":null,"state":"closed","id":null},{"event_id":"1442244","title":"ツクリテキャンプ（チームビルディングを楽しく学ぶ合宿）　PaKT #42","url":"http://tsukuritecamp.peatix.com","shortener_url":"https://bit.ly/2TBVivA","started_at":"2020-03-14T04:00:00.000+09:00","ended_at":"2020-03-16T23:59:59.000+09:00","limit_number":null,"address":"京都府京都市左京区下鴨東岸本町38-1","place":"パクトオフィス","lat":35.0463,"lon":135.775,"state":"active","id":null},{"event_id":"1443731","title":"（オンライン参加可）オウンドメディアで集客するなんて無理ゲーと思っていませんか？","url":"http://peatix.com/event/1443731","shortener_url":null,"started_at":"2020-03-12T06:00:00.000+09:00","ended_at":"2020-03-14T23:59:59.000+09:00","limit_number":null,"address":"","place":"xxxonlineeventxxx","lat":0.0,"lon":0.0,"state":"active","id":null},{"event_id":"1444263","title":"【3/20(金)14:00〜】春うらら？　始まりの春に、ちょっと普段と違うことをしてみませんか？　初めての方大歓迎！　本屋で語り合う、天狼院のファナティック読書会！〜デザート、コーヒーも一緒にいかがでしょうか？〜《テーマは”はじめまして”》【おひとりさま/読書初心者/大歓迎！】","url":"http://peatix.com/event/1444263","shortener_url":null,"started_at":"2020-03-20T05:00:00.000+09:00","ended_at":"2020-03-22T23:59:59.000+09:00","limit_number":null,"address":"京都市東山区博多町112−5","place":"京都天狼院","lat":35.0017,"lon":135.773,"state":"active","id":null},{"event_id":"1444448","title":"5月延期決定【BlockchainWorldValley】4月BCアカデミー\u0026アイデアソン　開校説明会\u0026実装社ピッチ","url":"http://peatix.com/event/1444448","shortener_url":"https://bit.ly/2TzWZJQ","started_at":"2020-03-31T21:30:00.000+09:00","ended_at":"2020-04-02T23:59:59.000+09:00","limit_number":null,"address":"東京都千代田区平河町1-4-3 平河町伏見ビル 2F","place":"Co-CreationLABO　18:00開場　半蔵門駅5分","lat":35.6828,"lon":139.739,"state":"active","id":null},{"event_id":"1420485","title":"【3月後半受付中！】プロ講師のオンライン英語レッスンを試してみませんか？　リラックスして受講OK【水道橋駅 徒歩1分】","url":"http://offline202003vipabc02.peatix.com","shortener_url":null,"started_at":"2020-03-16T02:00:00.000+09:00","ended_at":"2020-03-18T23:59:59.000+09:00","limit_number":null,"address":"東京都千代田区神田三崎町2-20-5","place":"東京　水道橋　VIPABC株式会社 住友不動産水道橋西口ビル7階","lat":35.7016,"lon":139.753,"state":"active","id":null},{"event_id":"105016","title":"Startup Weekend Niigata mini Vol.2 in 十日町【10名限定】3日間の食事＋懇親会＋泊まりで3,000円!!","url":"https://swniigata.doorkeeper.jp/events/105016","shortener_url":null,"started_at":"2020-03-20T11:00:00.000+09:00","ended_at":"2020-03-22T13:00:00.000+09:00","limit_number":10,"address":"新潟県十日町市未甲263番地","place":"ギルドハウス十日町","lat":37.1262,"lon":138.809,"state":"active","id":null},{"event_id":"1443534","title":"【２日間限定オンライン開催！】第４回遠恋複業課マッチングイベント～岩手県企業と遠恋複業しませんか？？～","url":"http://peatix.com/event/1443534","shortener_url":null,"started_at":"2020-03-13T10:00:00.000+09:00","ended_at":"2020-03-15T23:59:59.000+09:00","limit_number":null,"address":"","place":"xxxonlineeventxxx","lat":0.0,"lon":0.0,"state":"active","id":null},{"event_id":"1445003","title":"2020年春学期 4月4日開講！社会起業大学 学校説明会　社会起業の初めの一歩で必要なことを学びませんか？【オンライン可】","url":"http://peatix.com/event/1445003","shortener_url":null,"started_at":"2020-03-19T05:00:00.000+09:00","ended_at":"2020-03-21T23:59:59.000+09:00","limit_number":null,"address":"東京都千代田区二番町2番平田ビル1階","place":"社会起業大学","lat":35.687,"lon":139.738,"state":"active","id":null},{"event_id":"1444991","title":"2020年春学期 4月4日開講！社会起業大学 学校説明会　社会起業の初めの一歩で必要なことを学びませんか？【オンライン可】","url":"http://peatix.com/event/1444991","shortener_url":null,"started_at":"2020-03-19T04:00:00.000+09:00","ended_at":"2020-03-21T23:59:59.000+09:00","limit_number":null,"address":"東京都千代田区二番町2番平田ビル1階","place":"社会起業大学","lat":35.687,"lon":139.738,"state":"active","id":null},{"event_id":"1445010","title":"2020年春学期 4月4日開講！社会起業大学 学校説明会　社会起業の初めの一歩で必要なことを学びませんか？【オンライン可】","url":"http://peatix.com/event/1445010","shortener_url":null,"started_at":"2020-03-26T04:00:00.000+09:00","ended_at":"2020-03-28T23:59:59.000+09:00","limit_number":null,"address":"東京都千代田区二番町2番平田ビル1階","place":"社会起業大学","lat":35.687,"lon":139.738,"state":"active","id":null},{"event_id":"1445013","title":"2020年春学期 4月4日開講！社会起業大学 学校説明会　社会起業の初めの一歩で必要なことを学びませんか？【オンライン可】","url":"http://peatix.com/event/1445013","shortener_url":null,"started_at":"2020-03-26T05:00:00.000+09:00","ended_at":"2020-03-28T23:59:59.000+09:00","limit_number":null,"address":"東京都千代田区二番町2番平田ビル1階","place":"社会起業大学","lat":35.687,"lon":139.738,"state":"active","id":null},{"event_id":"112105","title":"Birthday bash for christian","url":"https://atnd.org/events/112105","shortener_url":null,"started_at":"2020-03-14T16:00:00.000+09:00","ended_at":"2020-03-16T23:59:59.000+09:00","limit_number":100,"address":"kota kasa blanka merah","place":"jalan selatan biru","lat":-6.22413,"lon":106.843,"state":"closed","id":null},{"event_id":"1444778","title":"＜オンライン開催＞初心者向け投資で効率的にお金増やしませんか？_20200313-1900","url":"http://peatix.com/event/1444778","shortener_url":null,"started_at":"2020-03-13T10:00:00.000+09:00","ended_at":"2020-03-15T23:59:59.000+09:00","limit_number":null,"address":"オンラインセミナー","place":"-","lat":0.0,"lon":0.0,"state":"active","id":null},{"event_id":"1444767","title":"＜オンライン開催＞初心者向け投資で効率的にお金増やしませんか？_20200312-1000","url":"http://peatix.com/event/1444767","shortener_url":null,"started_at":"2020-03-12T01:00:00.000+09:00","ended_at":"2020-03-14T23:59:59.000+09:00","limit_number":null,"address":"オンラインセミナー","place":"-","lat":0.0,"lon":0.0,"state":"active","id":null},{"event_id":"1444773","title":"＜オンライン開催＞初心者向け投資で効率的にお金増やしませんか？_20200313-1800","url":"http://peatix.com/event/1444773","shortener_url":null,"started_at":"2020-03-13T09:00:00.000+09:00","ended_at":"2020-03-15T23:59:59.000+09:00","limit_number":null,"address":"オンラインセミナー","place":"-","lat":0.0,"lon":0.0,"state":"active","id":null},{"event_id":"1446517","title":"2020年春学期 4月4日開講！社会起業大学 学校説明会　社会起業の初めの一歩で必要なことを学びませんか？【オンライン可】","url":"http://peatix.com/event/1446517","shortener_url":null,"started_at":"2020-03-23T11:00:00.000+09:00","ended_at":"2020-03-25T23:59:59.000+09:00","limit_number":null,"address":"東京都千代田区二番町2番平田ビル1階","place":"社会起業大学","lat":35.687,"lon":139.738,"state":"active","id":null},{"event_id":"1446550","title":"2020年春学期 4月4日開講！社会起業大学 学校説明会　社会起業の初めの一歩で必要なことを学びませんか？【オンライン可】","url":"http://peatix.com/event/1446550","shortener_url":null,"started_at":"2020-03-30T11:00:00.000+09:00","ended_at":"2020-04-01T23:59:59.000+09:00","limit_number":null,"address":"東京都千代田区二番町2番平田ビル1階","place":"社会起業大学","lat":35.687,"lon":139.738,"state":"active","id":null},{"event_id":"1446522","title":"2020年春学期 4月4日開講！社会起業大学 学校説明会　社会起業の初めの一歩で必要なことを学びませんか？【オンライン可】","url":"http://peatix.com/event/1446522","shortener_url":null,"started_at":"2020-03-23T10:00:00.000+09:00","ended_at":"2020-03-25T23:59:59.000+09:00","limit_number":null,"address":"東京都千代田区二番町2番平田ビル1階","place":"社会起業大学","lat":35.687,"lon":139.738,"state":"active","id":null},{"event_id":"1446543","title":"2020年春学期 4月4日開講！社会起業大学 学校説明会　社会起業の初めの一歩で必要なことを学びませんか？【オンライン可】","url":"http://peatix.com/event/1446543","shortener_url":null,"started_at":"2020-03-30T10:00:00.000+09:00","ended_at":"2020-04-01T23:59:59.000+09:00","limit_number":null,"address":"東京都千代田区二番町2番平田ビル1階","place":"社会起業大学","lat":35.687,"lon":139.738,"state":"active","id":null},{"event_id":"1447150","title":"合コン・街コン・異業種交流会・渋谷・道玄坂で出会いませんか？ DOUGENZAKA SATURDAYS　3月21日(土) 東京・渋谷・道玄坂","url":"http://peatix.com/event/1447150","shortener_url":null,"started_at":"2020-03-21T10:00:00.000+09:00","ended_at":"2020-03-23T23:59:59.000+09:00","limit_number":null,"address":"渋谷区道玄坂2丁目17−2 トップ美奄 2F","place":"東京･渋谷道玄坂のクラフトビールバー KOBUSHI BEER LOUNGE \u0026 BAR","lat":35.6588,"lon":139.697,"state":"active","id":null},{"event_id":"171044","title":"【リモートで再開】なんでもモクモク会＋プチ講座＠よこはま#19","url":"https://moku-moku-yokohama.connpass.com/event/171044/","shortener_url":null,"started_at":"2020-03-20T01:00:00.000+09:00","ended_at":"2020-03-20T09:00:00.000+09:00","limit_number":4,"address":"横浜市西区みなとみらい 3-7-1","place":"OCEAN GATE MINATO MIRAI@WeWork","lat":35.4581,"lon":139.634,"state":"active","id":null},{"event_id":"171040","title":"【再開】なんでもモクモク会＋プチ講座＠よこはま#20","url":"https://moku-moku-yokohama.connpass.com/event/171040/","shortener_url":null,"started_at":"2020-03-29T01:00:00.000+09:00","ended_at":"2020-03-29T09:00:00.000+09:00","limit_number":5,"address":"横浜市西区みなとみらい 3-7-1","place":"OCEAN GATE MINATO MIRAI@WeWork","lat":35.4581,"lon":139.634,"state":"active","id":null},{"event_id":"171041","title":"【再開】なんでもモクモク会＋プチ講座＠よこはま#19","url":"https://moku-moku-yokohama.connpass.com/event/171041/","shortener_url":null,"started_at":"2020-03-20T01:00:00.000+09:00","ended_at":"2020-03-20T09:00:00.000+09:00","limit_number":4,"address":"横浜市西区みなとみらい 3-7-1","place":"OCEAN GATE MINATO MIRAI@WeWork","lat":35.4581,"lon":139.634,"state":"active","id":null},{"event_id":"1447435","title":"【コロナ飲み放題】ビストロ！けいしん [ day2 ]","url":"http://ond-keishin-2.peatix.com","shortener_url":null,"started_at":"2020-03-20T09:00:00.000+09:00","ended_at":"2020-03-22T23:59:59.000+09:00","limit_number":null,"address":"〒153-0051 東京都目黒区上目黒2丁目16−1 リードシー中目黒 4F","place":"OND","lat":35.6425,"lon":139.698,"state":"active","id":null},{"event_id":"1447437","title":"【コロナ飲み放題】ビストロ！けいしん [ day1 ]","url":"http://ond-keishin-1.peatix.com","shortener_url":null,"started_at":"2020-03-19T09:00:00.000+09:00","ended_at":"2020-03-21T23:59:59.000+09:00","limit_number":null,"address":"〒153-0051 東京都目黒区上目黒2丁目16−1 リードシー中目黒 4F","place":"OND","lat":35.6425,"lon":139.698,"state":"active","id":null},{"event_id":"171098","title":"【IT業界に興味がある方向け】MESHでIoTプログラマ体験#6","url":"https://techseed.connpass.com/event/171098/","shortener_url":null,"started_at":"2020-03-26T03:00:00.000+09:00","ended_at":"2020-03-26T08:00:00.000+09:00","limit_number":10,"address":"千代田区神田富山町5-1 神田ビジネスキューブ 7F","place":"神田Room(会議室4)","lat":35.6939,"lon":139.773,"state":"active","id":null},{"event_id":"171215","title":"Kamakura Mok Mok Hack 71 - 鎌倉もくもく会","url":"https://kamkura-mokmok.connpass.com/event/171215/","shortener_url":null,"started_at":"2020-03-29T02:00:00.000+09:00","ended_at":"2020-03-29T06:00:00.000+09:00","limit_number":8,"address":"鎌倉市由比ガ浜2-7-12","place":"Garden \u0026 Space くるくる","lat":35.3143,"lon":139.547,"state":"active","id":null},{"event_id":"171176","title":"【オンライン】LINE Developer Group Kansaiオンラインハッカソン","url":"https://ldgk.connpass.com/event/171176/","shortener_url":"https://bit.ly/2J0eX1U","started_at":"2020-03-28T02:00:00.000+09:00","ended_at":"2020-03-29T08:30:00.000+09:00","limit_number":30,"address":"","place":"オンライン","lat":null,"lon":null,"state":"active","id":null},{"event_id":"171253","title":"スクラム道関西 オープンジャム・オンライン","url":"https://scrumdo-kansai.connpass.com/event/171253/","shortener_url":null,"started_at":"2020-03-31T10:30:00.000+09:00","ended_at":"2020-03-31T12:30:00.000+09:00","limit_number":17,"address":"","place":"オンライン","lat":null,"lon":null,"state":"active","id":null},{"event_id":"1443498","title":"【★桜満開★】にこにこ思い出撮影会","url":"http://niconico-photo.peatix.com","shortener_url":null,"started_at":"2020-03-21T00:00:00.000+09:00","ended_at":"2020-03-23T23:59:59.000+09:00","limit_number":null,"address":"東京都日野市平山5丁目","place":"平山城址公園","lat":0.0,"lon":0.0,"state":"active","id":null},{"event_id":"1449785","title":"＊緊急開催！＊【福岡 3/27(金)読書会DX】新しい出会いの季節！ほんのちょっぴりいつもと違うことをはじめてみませんか？〜本屋で夜に飲み食いしながら読書会をしてみましょう〜《初参加・お一人での参加、大歓迎！》","url":"http://peatix.com/event/1449785","shortener_url":null,"started_at":"2020-03-27T10:30:00.000+09:00","ended_at":"2020-03-29T23:59:59.000+09:00","limit_number":null,"address":"福岡市中央区 今泉1-9-12","place":"福岡天狼院","lat":33.5855,"lon":130.4,"state":"active","id":null},{"event_id":"171530","title":"【オンライン】トランプマジックと動画ライブ動画配信サービスの開発を習得しよう！ 2020/03/28","url":"https://mackathon.connpass.com/event/171530/","shortener_url":null,"started_at":"2020-03-28T06:00:00.000+09:00","ended_at":"2020-03-28T08:00:00.000+09:00","limit_number":15,"address":"オンライン","place":"オンライン","lat":34.6849,"lon":135.498,"state":"active","id":null},{"event_id":"1449801","title":"【3月24日開催】就活生のみなさん！「オンライン面接」で困ってません？ ～人事・ベンダー・経験者で不安を解消します～|イグラボ #1","url":"http://ignight-lab001-2.peatix.com","shortener_url":null,"started_at":"2020-03-24T10:00:00.000+09:00","ended_at":"2020-03-26T23:59:59.000+09:00","limit_number":null,"address":"","place":"xxxonlineeventxxx","lat":0.0,"lon":0.0,"state":"active","id":null},{"event_id":"112181","title":"Schulen verwenden tragbare Störsender, um Handys zu verbieten","url":"https://atnd.org/events/112181","shortener_url":null,"started_at":"2020-03-22T18:30:00.000+09:00","ended_at":"2020-03-30T17:30:00.000+09:00","limit_number":100,"address":"","place":"","lat":null,"lon":null,"state":"closed","id":null},{"event_id":"112190","title":"Schools use cell phone jammers to ban cell phones","url":"https://atnd.org/events/112190","shortener_url":null,"started_at":"2020-03-22T16:00:00.000+09:00","ended_at":"2020-03-30T17:30:00.000+09:00","limit_number":null,"address":"","place":"","lat":null,"lon":null,"state":"closed","id":null},{"event_id":"171829","title":"【オンライン限定】Salesforce Saturday 赤坂＃10","url":"https://salesforcesaturday-akasaka.connpass.com/event/171829/","shortener_url":null,"started_at":"2020-03-28T04:00:00.000+09:00","ended_at":"2020-03-28T08:00:00.000+09:00","limit_number":60,"address":"オンライン","place":"Salesforce Saturday Online","lat":null,"lon":null,"state":"active","id":null},{"event_id":"171847","title":"【リモート（Zoom）で再開】なんでもモクモク会＋プチ講座＠よこはま#20","url":"https://moku-moku-yokohama.connpass.com/event/171847/","shortener_url":null,"started_at":"2020-03-29T01:00:00.000+09:00","ended_at":"2020-03-29T09:00:00.000+09:00","limit_number":13,"address":"横浜市西区みなとみらい 3-7-1","place":"OCEAN GATE MINATO MIRAI@WeWork","lat":35.4581,"lon":139.634,"state":"active","id":null},{"event_id":"1290620259288801283","title":"ANSTO's National Science Week Hackathon | ANSTO","url":"https://www.ansto.gov.au/national-science-week-hackathon","shortener_url":null,"started_at":"2020-03-20T20:59:00.000+09:00","ended_at":"2020-03-20T23:59:59.000+09:00","limit_number":null,"address":null,"place":"online","lat":null,"lon":null,"state":"active","id":null},{"event_id":"1297003095780548608","title":"WiDS HIROSHIMA","url":"https://wids.hiroshima.jp/","shortener_url":"https://bit.ly/3l48wNn","started_at":"2020-03-17T12:00:00.000+09:00","ended_at":"2020-08-22T17:00:00.000+09:00","limit_number":null,"address":null,"place":"online","lat":null,"lon":null,"state":"active","id":null},{"event_id":"1302397108037791744","title":"Winners of our first Facebook Online Hackathon announced","url":"https://developers.facebook.com/blog/post/2020/03/25/winners-our-first-facebook-0nline-hackathon-announced/","shortener_url":null,"started_at":"2020-03-20T02:00:00.000+09:00","ended_at":"2020-08-03T02:00:00.000+09:00","limit_number":null,"address":null,"place":"online","lat":null,"lon":null,"state":"active","id":null},{"event_id":"1315357612515438597","title":"A teenage hackathon creates solutions for media literacy | КОАЛИЦИЯ ЗА МЕДИЙНА ГРАМОТНОСТ","url":"http://gramoten.li/2020/05/08/a-teenage-hackathon-creates-solutions-for-media-literacy/","shortener_url":null,"started_at":"2020-03-17T00:00:00.000+09:00","ended_at":"2020-10-11T06:52:00.000+09:00","limit_number":null,"address":null,"place":"online","lat":null,"lon":null,"state":"active","id":null},{"event_id":"1328320653309579265","title":"福野泰介の一日一創 / Create every day by Taisuke Fukuno","url":"https://fukuno.jig.jp/","shortener_url":null,"started_at":"2020-03-18T22:00:00.000+09:00","ended_at":"2020-11-16T00:00:00.000+09:00","limit_number":null,"address":"福井県勝山市にある私立の学校「かつやま子どもの村小・中学校」の見学デーに参加しました。","place":"福井県勝山市にある私立の学校「かつやま子どもの村小・中学校」の見学デーに参加しました。","lat":36.1081,"lon":136.563,"state":"active","id":null},{"event_id":"1328020932783325184","title":"Code for OSAKA 大阪をITのチカラで変える！","url":"https://code4.osaka","shortener_url":null,"started_at":"2020-03-18T09:00:00.000+09:00","ended_at":"2020-10-24T09:00:00.000+09:00","limit_number":null,"address":"大阪府、府内市町村、企業、大学、シビックテック、経済団体など245企業・団体からなるコンソーシアムである「大阪スマートシティパートナーズフォーラム」を設立されました。大阪のスマートシティ実現に向けて公 ...","place":"大阪府、府内市町村、企業、大学、シビックテック、経済団体など245企業・団体からなるコンソーシアムである「大阪スマートシティパートナーズフォーラム」を設立されました。大阪のスマートシティ実現に向けて公 ... ","lat":34.6474,"lon":135.511,"state":"active","id":null},{"event_id":"1354007517873885185","title":"クルマとスマホをなかよくするSDLアプリコンテスト","url":"https://sdl-contest.com/","shortener_url":"https://bit.ly/3jyteTP","started_at":"2020-03-02T00:00:00.000+09:00","ended_at":"2021-03-08T23:59:00.000+09:00","limit_number":null,"address":null,"place":"online","lat":null,"lon":null,"state":"active","id":null},{"event_id":"1358703113226641408","title":"Tinderbox PlayAway Games Festival - Bitsy One-Day Jam!","url":"https://itch.io/jam/tinderbox-playaway-bitsy-jam","shortener_url":"https://bit.ly/3aSTs0O","started_at":"2020-03-02T09:00:00.000+09:00","ended_at":"2021-03-02T19:00:00.000+09:00","limit_number":null,"address":null,"place":"online","lat":null,"lon":null,"state":"active","id":null},{"event_id":"1362748934762991618","title":"Ökumenischer Hackathon 2021","url":"https://www.pro-medienmagazin.de/kultur/veranstaltungen/2021/02/19/oekumenischer-hackathon-2021/","shortener_url":null,"started_at":"2020-03-31T00:00:00.000+09:00","ended_at":"2021-02-19T00:00:00.000+09:00","limit_number":null,"address":null,"place":"online","lat":null,"lon":null,"state":"active","id":null},{"event_id":"1369439708317618182","title":"HudsonAlpha's Tech Challenge","url":"https://hudsonalpha.org/techchallenge/","shortener_url":null,"started_at":"2020-03-06T02:30:00.000+09:00","ended_at":"2021-01-22T08:00:00.000+09:00","limit_number":null,"address":null,"place":"online","lat":null,"lon":null,"state":"active","id":null},{"event_id":"1381916190121988099","title":"Presidential Hackathon","url":"https://presidential-hackathon.taiwan.gov.tw/en/international-track/","shortener_url":null,"started_at":"2020-03-19T10:00:00.000+09:00","ended_at":"2020-09-18T10:00:00.000+09:00","limit_number":null,"address":null,"place":"online","lat":null,"lon":null,"state":"active","id":null},{"event_id":"1405079262739288066","title":"OHBM BrainHack 2021","url":"https://ohbm.github.io/hackathon2021/","shortener_url":null,"started_at":"2020-03-04T00:00:00.000+09:00","ended_at":"2020-03-04T14:59:59.000+09:00","limit_number":null,"address":null,"place":"online","lat":null,"lon":null,"state":"active","id":null},{"event_id":"1405569024113664002","title":"Český tým vyhrál Evropský zelený hackathon. Chce delší životnost nábytku","url":"https://www.obnovitelne.cz/clanek/1635/cesky-tym-vyhral-evropsky-zeleny-hackathon-chce-delsi-zivotnost-nabytku/","shortener_url":null,"started_at":"2020-03-05T00:00:00.000+09:00","ended_at":"2020-03-05T14:59:59.000+09:00","limit_number":null,"address":null,"place":"online","lat":null,"lon":null,"state":"active","id":null},{"event_id":"1413104090809192448","title":"Red Hat Kubernetes Operator Project　アイデアソン 2021 Spring online イベントレポート","url":"https://www.redhat.com/ja/campaign/kubernetes-operator-project-ideathon2021report","shortener_url":null,"started_at":"2020-03-25T00:00:00.000+09:00","ended_at":"2020-03-25T14:59:59.000+09:00","limit_number":null,"address":null,"place":"online","lat":null,"lon":null,"state":"active","id":null},{"event_id":"1420427971551272966","title":"#AyobaHack","url":"https://ayobahack.devpost.com/","shortener_url":null,"started_at":"2020-03-31T00:00:00.000+09:00","ended_at":"2020-03-31T14:59:59.000+09:00","limit_number":null,"address":null,"place":"online","lat":null,"lon":null,"state":"active","id":null},{"event_id":"101414202610","title":"How To Develop a Successful Artificial Intelligence Tech Startup Hackathon","url":"https://www.eventbrite.com/e/how-to-develop-a-successful-artificial-intelligence-tech-startup-hackathon-tickets-101414202610","shortener_url":null,"started_at":"2020-03-31T11:00:00.000+09:00","ended_at":"2022-12-27T16:00:00.000+09:00","limit_number":null,"address":null,"place":"online","lat":null,"lon":null,"state":"active","id":null},{"event_id":"101427157358","title":"How To Develop a Successful Drone Tech Startup Business Hackathon","url":"https://www.eventbrite.com/e/how-to-develop-a-successful-drone-tech-startup-business-hackathon-tickets-101427157358","shortener_url":null,"started_at":"2020-03-31T11:00:00.000+09:00","ended_at":"2022-12-27T16:00:00.000+09:00","limit_number":null,"address":null,"place":"online","lat":null,"lon":null,"state":"active","id":null},{"event_id":"101426094178","title":"How To Develop a Successful Connected Vehicle Tech Startup Hackathon","url":"https://www.eventbrite.com/e/how-to-develop-a-successful-connected-vehicle-tech-startup-hackathon-tickets-101426094178","shortener_url":null,"started_at":"2020-03-31T11:00:00.000+09:00","ended_at":"2022-12-29T16:00:00.000+09:00","limit_number":null,"address":null,"place":"online","lat":null,"lon":null,"state":"active","id":null},{"event_id":"101426800290","title":"How To Develop a Successful Big Data \u0026 Analytics Tech Startup Hackathon","url":"https://www.eventbrite.com/e/how-to-develop-a-successful-big-data-analytics-tech-startup-hackathon-tickets-101426800290","shortener_url":null,"started_at":"2020-03-30T11:00:00.000+09:00","ended_at":"2022-06-29T15:00:00.000+09:00","limit_number":null,"address":null,"place":"online","lat":null,"lon":null,"state":"active","id":null},{"event_id":"101451407892","title":"How To Develop a Successful Virtual Reality VR Tech Startup Hackathon","url":"https://www.eventbrite.com/e/how-to-develop-a-successful-virtual-reality-vr-tech-startup-hackathon-tickets-101451407892","shortener_url":null,"started_at":"2020-03-31T11:00:00.000+09:00","ended_at":"2022-12-25T16:00:00.000+09:00","limit_number":null,"address":null,"place":"online","lat":null,"lon":null,"state":"active","id":null},{"event_id":"101424340934","title":"Develop a Successful Smart Farming Tech Startup Business Today!","url":"https://www.eventbrite.com/e/develop-a-successful-smart-farming-tech-startup-business-today-tickets-101424340934","shortener_url":null,"started_at":"2020-03-30T11:00:00.000+09:00","ended_at":"2022-12-27T16:00:00.000+09:00","limit_number":null,"address":null,"place":"online","lat":null,"lon":null,"state":"active","id":null},{"event_id":"100840502658","title":"Virtual Happy Hour with Influencers in National Security Innovation","url":"https://www.eventbrite.com/e/virtual-happy-hour-with-influencers-in-national-security-innovation-tickets-100840502658","shortener_url":null,"started_at":"2020-03-23T21:30:00.000+09:00","ended_at":"2023-07-31T23:00:00.000+09:00","limit_number":null,"address":null,"place":"online","lat":null,"lon":null,"state":"active","id":null},{"event_id":"101359825968","title":"[Virtual Info Session] Thinking About a Tech Career? Start Here.","url":"https://www.eventbrite.com/e/virtual-info-session-thinking-about-a-tech-career-start-here-tickets-101359825968","shortener_url":null,"started_at":"2020-03-31T16:00:00.000+09:00","ended_at":"2021-12-08T02:00:00.000+09:00","limit_number":null,"address":null,"place":"online","lat":null,"lon":null,"state":"active","id":null},{"event_id":"100671869271","title":"Develop a Successful Artificial Intelligence Startup Business","url":"https://www.eventbrite.com/e/develop-a-successful-artificial-intelligence-startup-business-tickets-100671869271","shortener_url":null,"started_at":"2020-03-28T04:00:00.000+09:00","ended_at":"2022-06-28T08:00:00.000+09:00","limit_number":null,"address":"Virtual Workshop, Osaka, Osaka prefektur","place":"Osaka","lat":34.6937,"lon":135.502,"state":"active","id":null},{"event_id":"100671803073","title":"Develop a Successful Artificial Intelligence Startup Business","url":"https://www.eventbrite.com/e/develop-a-successful-artificial-intelligence-startup-business-tickets-100671803073","shortener_url":null,"started_at":"2020-03-26T04:00:00.000+09:00","ended_at":"2022-12-27T08:00:00.000+09:00","limit_number":null,"address":"Virtual Workshop, Tokyo, Tokyo","place":"Tokyo","lat":35.6804,"lon":139.769,"state":"active","id":null},{"event_id":"93961221543","title":"TMC Monthly Education Training Series (METS)","url":"https://www.eventbrite.com/e/tmc-monthly-education-training-series-mets-tickets-93961221543","shortener_url":null,"started_at":"2020-03-04T21:30:00.000+09:00","ended_at":"2021-12-01T22:30:00.000+09:00","limit_number":null,"address":null,"place":"online","lat":null,"lon":null,"state":"active","id":null},{"event_id":"100417393126","title":"REMOTE Free Intro to Coding Workshop with Grand Circus","url":"https://www.eventbrite.com/e/remote-free-intro-to-coding-workshop-with-grand-circus-tickets-100417393126","shortener_url":null,"started_at":"2020-03-24T22:00:00.000+09:00","ended_at":"2021-12-15T01:00:00.000+09:00","limit_number":null,"address":null,"place":"online","lat":null,"lon":null,"state":"active","id":null},{"event_id":"1455127587726970883","title":"Power the Coast by Christopher Robertson","url":"https://koltonix.itch.io/power-the-coast","shortener_url":null,"started_at":"2020-03-21T10:52:00.000+09:00","ended_at":"2021-11-01T22:27:00.000+09:00","limit_number":null,"address":null,"place":"online","lat":null,"lon":null,"state":"active","id":null},{"event_id":"100823080548","title":"REMOTE Grand Circus Bootcamp Info Session","url":"https://www.eventbrite.com/e/remote-grand-circus-bootcamp-info-session-tickets-100823080548","shortener_url":null,"started_at":"2020-03-25T22:00:00.000+09:00","ended_at":"2021-12-15T17:45:00.000+09:00","limit_number":null,"address":null,"place":"online","lat":null,"lon":null,"state":"active","id":null},{"event_id":"100417393126","title":"Virtual Free Intro to Coding Workshop with Grand Circus","url":"https://www.eventbrite.com/e/virtual-free-intro-to-coding-workshop-with-grand-circus-tickets-100417393126","shortener_url":null,"started_at":"2020-03-24T22:00:00.000+09:00","ended_at":"2022-12-21T01:00:00.000+09:00","limit_number":null,"address":null,"place":"online","lat":null,"lon":null,"state":"active","id":null},{"event_id":"100823080548","title":"Virtual Grand Circus Bootcamp Info Session","url":"https://www.eventbrite.com/e/virtual-grand-circus-bootcamp-info-session-tickets-100823080548","shortener_url":null,"started_at":"2020-03-25T22:00:00.000+09:00","ended_at":"2022-09-28T22:45:00.000+09:00","limit_number":null,"address":null,"place":"online","lat":null,"lon":null,"state":"active","id":null},{"event_id":"100852049194","title":"WHW2N - VIRTUAL COFFEE CLIQUE","url":"https://www.eventbrite.com/e/whw2n-virtual-coffee-clique-tickets-100852049194","shortener_url":null,"started_at":"2020-03-24T14:30:00.000+09:00","ended_at":"2022-12-13T17:00:00.000+09:00","limit_number":null,"address":null,"place":"online","lat":null,"lon":null,"state":"active","id":null},{"event_id":"100423886548","title":"Intro to HTML, CSS, \u0026 JavaScript Workshop","url":"https://www.eventbrite.com/e/intro-to-html-css-javascript-workshop-tickets-100423886548","shortener_url":null,"started_at":"2020-03-30T22:00:00.000+09:00","ended_at":"2021-12-14T02:00:00.000+09:00","limit_number":null,"address":null,"place":"online","lat":null,"lon":null,"state":"active","id":null},{"event_id":"99573715664","title":"Virtual Money 101","url":"https://www.eventbrite.com/e/virtual-money-101-tickets-99573715664","shortener_url":null,"started_at":"2020-03-17T13:30:00.000+09:00","ended_at":"2022-12-15T19:30:00.000+09:00","limit_number":null,"address":null,"place":"online","lat":null,"lon":null,"state":"active","id":null},{"event_id":"89854012771","title":"Resilient Shore Meet Up","url":"https://www.eventbrite.com/e/resilient-shore-meet-up-tickets-89854012771","shortener_url":null,"started_at":"2020-03-18T00:30:00.000+09:00","ended_at":"2022-08-17T02:00:00.000+09:00","limit_number":null,"address":null,"place":"online","lat":null,"lon":null,"state":"active","id":null},{"event_id":"97160580913","title":"SAFFA \u0026 Friends Global Networking","url":"https://www.eventbrite.co.uk/e/saffa-friends-global-networking-registration-97160580913","shortener_url":null,"started_at":"2020-03-11T18:00:00.000+09:00","ended_at":"2023-02-08T20:30:00.000+09:00","limit_number":null,"address":null,"place":"online","lat":null,"lon":null,"state":"active","id":null},{"event_id":"101129352616","title":"Social Connection amidst Physical Distancing","url":"https://www.eventbrite.com/e/social-connection-amidst-physical-distancing-tickets-101129352616","shortener_url":null,"started_at":"2020-03-28T17:00:00.000+09:00","ended_at":"2021-12-29T18:00:00.000+09:00","limit_number":null,"address":null,"place":"online","lat":null,"lon":null,"state":"active","id":null},{"event_id":"99540795198","title":"Forex Fundamentals and Technicals Webinar","url":"https://www.eventbrite.co.uk/e/forex-fundamentals-and-technicals-webinar-tickets-99540795198","shortener_url":null,"started_at":"2020-03-15T18:00:00.000+09:00","ended_at":"2022-06-26T18:00:00.000+09:00","limit_number":null,"address":null,"place":"online","lat":null,"lon":null,"state":"active","id":null},{"event_id":"101426800290","title":"Develop a Successful Big Data \u0026 Analytics Tech Startup Business Today!","url":"https://www.eventbrite.com/e/develop-a-successful-big-data-analytics-tech-startup-business-today-tickets-101426800290","shortener_url":null,"started_at":"2020-03-30T11:00:00.000+09:00","ended_at":"2022-12-28T16:00:00.000+09:00","limit_number":null,"address":null,"place":"online","lat":null,"lon":null,"state":"active","id":null},{"event_id":"87978400765","title":"Employer Showcases - Philadelphia","url":"https://www.eventbrite.com/e/employer-showcases-philadelphia-tickets-87978400765","shortener_url":null,"started_at":"2020-03-03T17:00:00.000+09:00","ended_at":"2022-07-22T19:00:00.000+09:00","limit_number":null,"address":null,"place":"online","lat":null,"lon":null,"state":"active","id":null},{"event_id":"87978400765","title":"Employer Showcases (EST) - Philadelphia","url":"https://www.eventbrite.com/e/employer-showcases-est-philadelphia-tickets-87978400765","shortener_url":null,"started_at":"2020-03-03T17:00:00.000+09:00","ended_at":"2022-07-22T19:00:00.000+09:00","limit_number":null,"address":null,"place":"online","lat":null,"lon":null,"state":"active","id":null},{"event_id":"100809251184","title":"BSC's Business Success Global Forum   Online","url":"https://www.eventbrite.com/e/bscs-business-success-global-forum-online-tickets-100809251184","shortener_url":null,"started_at":"2020-03-26T17:00:00.000+09:00","ended_at":"2022-12-01T18:00:00.000+09:00","limit_number":null,"address":null,"place":"online","lat":null,"lon":null,"state":"active","id":null},{"event_id":"100809251184","title":"BSC's Business Success Global Forum   Online","url":"https://www.eventbrite.com/e/bscs-business-success-global-forumtm-online-tickets-100809251184","shortener_url":null,"started_at":"2020-03-26T17:00:00.000+09:00","ended_at":"2023-12-07T18:00:00.000+09:00","limit_number":null,"address":null,"place":"online","lat":null,"lon":null,"state":"active","id":null},{"event_id":"100423886548","title":"Intro to HTML, CSS, \u0026 JavaScript 2-Night Workshop","url":"https://www.eventbrite.com/e/intro-to-html-css-javascript-2-night-workshop-tickets-100423886548","shortener_url":null,"started_at":"2020-03-30T22:00:00.000+09:00","ended_at":"2022-12-22T02:00:00.000+09:00","limit_number":null,"address":null,"place":"online","lat":null,"lon":null,"state":"active","id":null},{"event_id":"100417393126","title":"Intro to Coding Workshop (Free, Virtual)","url":"https://www.eventbrite.com/e/intro-to-coding-workshop-free-virtual-tickets-100417393126","shortener_url":null,"started_at":"2020-03-24T22:00:00.000+09:00","ended_at":"2024-01-11T01:00:00.000+09:00","limit_number":null,"address":null,"place":"online","lat":null,"lon":null,"state":"active","id":null},{"event_id":"100823080548","title":"Coding Bootcamp Info Session (Free, Virtual)","url":"https://www.eventbrite.com/e/coding-bootcamp-info-session-free-virtual-tickets-100823080548","shortener_url":null,"started_at":"2020-03-25T22:00:00.000+09:00","ended_at":"2023-06-28T22:45:00.000+09:00","limit_number":null,"address":null,"place":"online","lat":null,"lon":null,"state":"active","id":null}]