[{"event_id":"99771","title":"【中止】Startup Weekend Osaka＠立命館【中止】","url":"https://swosaka.doorkeeper.jp/events/99771","shortener_url":"https://bit.ly/32yEOJe","started_at":"2020-12-11T09:30:00.000+09:00","ended_at":"2020-12-13T13:00:00.000+09:00","limit_number":43,"address":"大阪府茨木市 岩倉町2-150","place":"立命館いばらきフューチャープラザ　1階イベントホール","lat":34.8099,"lon":135.562,"state":"active","id":null},{"event_id":null,"title":"PSN Hackathon","url":"https://psnhackathon.devpost.com/","shortener_url":"https://bit.ly/2DKGO7q","started_at":"2020-12-18T12:00:00.000+09:00","ended_at":"2020-12-20T12:00:00.000+09:00","limit_number":null,"address":null,"place":"Online","lat":null,"lon":null,"state":"active","id":null},{"event_id":"189496","title":"GitLab Japan Hackathon 4Q '2020 in 日本語 Day 1","url":"https://gitlab-jp.connpass.com/event/189496/","shortener_url":"https://bit.ly/35TmU5B","started_at":"2020-12-02T08:00:00.000+09:00","ended_at":"2020-12-02T13:00:00.000+09:00","limit_number":10,"address":"オンライン","place":"オンライン","lat":null,"lon":null,"state":"active","id":null},{"event_id":"189683","title":"GitLab Japan Hackathon 4Q '2020 in 日本語 Day 2","url":"https://gitlab-jp.connpass.com/event/189683/","shortener_url":"https://bit.ly/32LqKvD","started_at":"2020-12-03T08:00:00.000+09:00","ended_at":"2020-12-03T13:00:00.000+09:00","limit_number":10,"address":"オンライン","place":"オンライン","lat":null,"lon":null,"state":"active","id":null},{"event_id":"1616589","title":"辻凪子と大森くみこの第1回活弁公演「ジャムの月世界活弁旅行」at ユーロライブ（夜の部）","url":"https://iamjam-tokyo-20201226-2.peatix.com","shortener_url":null,"started_at":"2020-12-26T10:00:00.000+09:00","ended_at":"2020-12-28T23:59:59.000+09:00","limit_number":null,"address":"渋谷区円山町１−５","place":"ユーロライブ","lat":0.0,"lon":0.0,"state":"active","id":null},{"event_id":"1616583","title":"辻凪子と大森くみこの第1回活弁公演「ジャムの月世界活弁旅行」at ユーロライブ（午後の部）","url":"https://iamjam-tokyo-20201226-1.peatix.com","shortener_url":null,"started_at":"2020-12-26T05:30:00.000+09:00","ended_at":"2020-12-28T23:59:59.000+09:00","limit_number":null,"address":"渋谷区円山町１−５","place":"ユーロライブ","lat":0.0,"lon":0.0,"state":"active","id":null},{"event_id":"190997","title":"ハッタツソン2020デモプレゼン・審査発表","url":"https://ledesone.connpass.com/event/190997/","shortener_url":"https://bit.ly/2T0mcMk","started_at":"2020-12-07T10:00:00.000+09:00","ended_at":"2020-12-07T12:00:00.000+09:00","limit_number":100,"address":"オンライン","place":"オンライン","lat":null,"lon":null,"state":"active","id":null},{"event_id":null,"title":"Nucleotide Hackathon","url":"https://nucleotide-hackathon.devpost.com/","shortener_url":"https://bit.ly/3k3R4Yr","started_at":"2020-12-04T15:00:00.000+09:00","ended_at":"2020-12-07T21:00:00.000+09:00","limit_number":null,"address":null,"place":"Online","lat":null,"lon":null,"state":"active","id":null},{"event_id":"111169","title":"Startup Weekend 秋田","url":"https://swakita.doorkeeper.jp/events/111169","shortener_url":"https://bit.ly/34aiUwB","started_at":"2020-12-18T09:00:00.000+09:00","ended_at":"2020-12-20T11:00:00.000+09:00","limit_number":30,"address":"秋田県秋田市旭北栄町1-48","place":"トラパンツビル","lat":39.7158,"lon":140.131,"state":"active","id":null},{"event_id":"193282","title":"ハッタツソン2020(12/5~7)","url":"https://ledesone.connpass.com/event/193282/","shortener_url":"https://bit.ly/3msX11A","started_at":"2020-12-05T01:00:00.000+09:00","ended_at":"2020-12-07T12:00:00.000+09:00","limit_number":20,"address":"オンライン","place":"オンライン","lat":null,"lon":null,"state":"active","id":null},{"event_id":"194308","title":"アイマスハッカソン2020 ONLINE！","url":"https://imas.connpass.com/event/194308/","shortener_url":"https://bit.ly/36vbwMj","started_at":"2020-12-05T01:00:00.000+09:00","ended_at":"2020-12-05T11:00:00.000+09:00","limit_number":50,"address":"","place":"オンライン","lat":null,"lon":null,"state":"active","id":null},{"event_id":"194160","title":"空想の「まち」をみんなで考えよう！","url":"https://connpass.com/event/194160/","shortener_url":null,"started_at":"2020-12-06T03:30:00.000+09:00","ended_at":"2020-12-06T07:30:00.000+09:00","limit_number":8,"address":"奈良市三条本町１３番１号","place":"奈良市ボランティアインフォメーションセンター会議室１","lat":34.6792,"lon":135.817,"state":"active","id":null},{"event_id":"193816","title":"プログラミング合宿（Siv3D x オブジェクト指向エクササイズ）","url":"https://connpass.com/event/193816/","shortener_url":"https://bit.ly/3l97NKc","started_at":"2020-12-26T00:00:00.000+09:00","ended_at":"2020-12-27T12:00:00.000+09:00","limit_number":15,"address":"","place":"オンライン","lat":null,"lon":null,"state":"active","id":null},{"event_id":null,"title":"SharkHacks","url":"https://sharkhacks.devpost.com/","shortener_url":null,"started_at":"2020-12-04T15:00:00.000+09:00","ended_at":"2020-12-06T13:00:00.000+09:00","limit_number":null,"address":null,"place":"Online","lat":null,"lon":null,"state":"active","id":null},{"event_id":null,"title":"HackWise 2020","url":"https://hackwise2020.devpost.com/","shortener_url":null,"started_at":"2020-12-04T08:30:00.000+09:00","ended_at":"2020-12-06T07:00:00.000+09:00","limit_number":null,"address":null,"place":"Online","lat":null,"lon":null,"state":"active","id":null},{"event_id":null,"title":"Campus 2030 testing","url":"https://testing-11273.devpost.com/","shortener_url":null,"started_at":"2020-12-08T05:00:00.000+09:00","ended_at":"2020-12-09T22:00:00.000+09:00","limit_number":null,"address":null,"place":"Online","lat":null,"lon":null,"state":"active","id":null},{"event_id":null,"title":"Hacking for Humanity : Health Systems of The New Normal","url":"https://hacking-for-humanity-nepal.devpost.com/","shortener_url":null,"started_at":"2020-12-02T05:00:00.000+09:00","ended_at":"2020-12-20T18:00:00.000+09:00","limit_number":null,"address":null,"place":"Online","lat":null,"lon":null,"state":"active","id":null},{"event_id":null,"title":"LETS HACK 2020","url":"https://letshack.devpost.com/","shortener_url":null,"started_at":"2020-12-19T05:30:00.000+09:00","ended_at":"2020-12-20T17:30:00.000+09:00","limit_number":null,"address":"India","place":"Online","lat":null,"lon":null,"state":"active","id":null},{"event_id":"113754","title":"【12/4（金）・11（金）】初心者向け・２回で学ぶシリーズ①『PythonとJupyterNotebookの基礎』","url":"https://soleildatadojo.doorkeeper.jp/events/113754","shortener_url":"https://bit.ly/2GFdZuq","started_at":"2020-12-04T09:30:00.000+09:00","ended_at":"2020-12-11T11:30:00.000+09:00","limit_number":8,"address":"大阪府大阪市北区西天満二丁目５番３号（堂島深川ビル３階）","place":"SCRIBBLE OSAKA LAB（SOL）（大阪メトロ御堂筋線「淀屋橋」駅から徒歩４分）","lat":34.6951,"lon":135.502,"state":"closed","id":null},{"event_id":"126826279817","title":"AMIF - Hackathon des Territoires 2020","url":"https://www.eventbrite.fr/e/billets-amif-hackathon-des-territoires-2020-126826279817","shortener_url":"https://bit.ly/2Icbpgt","started_at":"2020-12-01T17:00:00.000+09:00","ended_at":"2020-12-03T03:00:00.000+09:00","limit_number":null,"address":null,"place":"online","lat":null,"lon":null,"state":"active","id":null},{"event_id":"113985","title":"『IoT, Python, Machine Learning \u0026 Raspberry PI』もくもく会#45","url":"https://soleildatadojo.doorkeeper.jp/events/113985","shortener_url":null,"started_at":"2020-12-15T10:00:00.000+09:00","ended_at":"2020-12-15T12:00:00.000+09:00","limit_number":6,"address":"大阪府大阪市北区西天満二丁目５番３号（堂島深川ビル３階）","place":"SCRIBBLE OSAKA LAB（SOL）（大阪メトロ御堂筋線「淀屋橋」駅から徒歩４分）","lat":34.6951,"lon":135.502,"state":"active","id":null},{"event_id":null,"title":"CatHacks: Winter Edition","url":"https://cathacks-winter-edition.devpost.com/","shortener_url":null,"started_at":"2020-12-11T23:00:00.000+09:00","ended_at":"2020-12-13T19:00:00.000+09:00","limit_number":null,"address":null,"place":"Online","lat":null,"lon":null,"state":"active","id":null},{"event_id":"114250","title":"【大阪開催】マテリアルズインフォマティクス勉強会#1","url":"https://soleildatadojo.doorkeeper.jp/events/114250","shortener_url":"https://bit.ly/3kMyVO8","started_at":"2020-12-02T10:00:00.000+09:00","ended_at":"2020-12-02T12:00:00.000+09:00","limit_number":5,"address":"大阪市北区西天満二丁目5番3号（堂島深川ビル3階）","place":"SCRIBBLE OSAKA LAB（SOL）（大阪メトロ御堂筋線「淀屋橋」駅1番出口から徒歩４分）","lat":34.6952,"lon":135.502,"state":"closed","id":null},{"event_id":"196614","title":"(第118回)Python mini Hack-a-thon(オンライン?)","url":"https://pyhack.connpass.com/event/196614/","shortener_url":"https://bit.ly/3pJoT4b","started_at":"2020-12-12T02:00:00.000+09:00","ended_at":"2020-12-12T10:00:00.000+09:00","limit_number":24,"address":"オンライン","place":"オンライン","lat":null,"lon":null,"state":"active","id":null},{"event_id":null,"title":"HubIT Online-Designathon ","url":"https://hubit-designathon.devpost.com/","shortener_url":null,"started_at":"2020-12-04T05:00:00.000+09:00","ended_at":"2020-12-06T16:00:00.000+09:00","limit_number":null,"address":null,"place":"Online","lat":null,"lon":null,"state":"active","id":null},{"event_id":null,"title":"Civic Hackathon 2020","url":"https://cfphacks2020.devpost.com/","shortener_url":"https://bit.ly/3fi8DCm","started_at":"2020-12-04T05:00:00.000+09:00","ended_at":"2020-12-09T18:45:00.000+09:00","limit_number":null,"address":"Pakistan","place":"The Hackathon is online","lat":null,"lon":null,"state":"active","id":null},{"event_id":null,"title":"TrailHacks","url":"https://irhs-trailhacks.devpost.com/","shortener_url":null,"started_at":"2020-12-12T14:00:00.000+09:00","ended_at":"2020-12-13T00:00:00.000+09:00","limit_number":null,"address":null,"place":"Online","lat":null,"lon":null,"state":"active","id":null},{"event_id":null,"title":"Who Done It Hacks?","url":"https://whodoneithacks.devpost.com/","shortener_url":null,"started_at":"2020-12-11T15:00:00.000+09:00","ended_at":"2020-12-13T13:00:00.000+09:00","limit_number":null,"address":null,"place":"Online","lat":null,"lon":null,"state":"active","id":null},{"event_id":null,"title":"Winter Hacklympics","url":"https://winterhacklympics.devpost.com/","shortener_url":null,"started_at":"2020-12-18T15:00:00.000+09:00","ended_at":"2020-12-20T13:00:00.000+09:00","limit_number":null,"address":null,"place":"Online","lat":null,"lon":null,"state":"active","id":null},{"event_id":null,"title":"BeaverHacks Winter 2021","url":"https://beaverhacks-winter-2021.devpost.com/","shortener_url":"https://bit.ly/2IXTZE3","started_at":"2020-12-17T08:00:00.000+09:00","ended_at":"2020-12-21T01:00:00.000+09:00","limit_number":null,"address":null,"place":"Online","lat":null,"lon":null,"state":"active","id":null},{"event_id":null,"title":"AngelHacks 2.0","url":"https://angelhacks-2.devpost.com/","shortener_url":null,"started_at":"2020-12-19T05:00:00.000+09:00","ended_at":"2020-12-21T07:30:00.000+09:00","limit_number":null,"address":null,"place":"Online","lat":null,"lon":null,"state":"active","id":null},{"event_id":null,"title":"Holiday Hacks","url":"https://holidayhacks.devpost.com/","shortener_url":null,"started_at":"2020-12-25T15:00:00.000+09:00","ended_at":"2020-12-27T13:00:00.000+09:00","limit_number":null,"address":null,"place":"Online","lat":null,"lon":null,"state":"active","id":null},{"event_id":"1328431308914253826","title":"2020 Epic MegaJam","url":"https://itch.io/jam/2020-epic-megajam","shortener_url":"https://bit.ly/3fhJhEL","started_at":"2020-12-04T19:00:00.000+09:00","ended_at":"2020-12-11T19:00:00.000+09:00","limit_number":null,"address":null,"place":"online","lat":null,"lon":null,"state":"active","id":null},{"event_id":null,"title":"HackDuke: Code for Good","url":"https://code-for-good.devpost.com/","shortener_url":null,"started_at":"2020-12-05T05:00:00.000+09:00","ended_at":"2020-12-06T21:00:00.000+09:00","limit_number":null,"address":null,"place":"Online","lat":null,"lon":null,"state":"active","id":null},{"event_id":"196729","title":"Code for Toyama Cityのシビックテック・ナイト#28","url":"https://codefortoyama.connpass.com/event/196729/","shortener_url":null,"started_at":"2020-12-01T10:00:00.000+09:00","ended_at":"2020-12-01T12:00:00.000+09:00","limit_number":100,"address":"富山県富山市高田５２７","place":"富山県総合情報センター","lat":36.691,"lon":137.188,"state":"active","id":null},{"event_id":null,"title":"Helyx India Hacks","url":"https://helyxindiahacks.devpost.com/","shortener_url":null,"started_at":"2020-12-25T18:30:00.000+09:00","ended_at":"2020-12-31T18:15:00.000+09:00","limit_number":null,"address":null,"place":"Online","lat":null,"lon":null,"state":"active","id":null},{"event_id":"113748","title":"［無料］スタートアップの始め方","url":"https://swkobe.doorkeeper.jp/events/113748","shortener_url":null,"started_at":"2020-12-27T05:00:00.000+09:00","ended_at":"2020-12-27T08:00:00.000+09:00","limit_number":20,"address":"神戸市中央区磯辺通2‐2‐10 ワンノットトレーズビル2階","place":"コワーキングスペースWAY OUT","lat":34.6901,"lon":135.199,"state":"active","id":null},{"event_id":"114515","title":"Startup Weekend 守山 Vol.5 ONLINE","url":"https://swmoriyama.doorkeeper.jp/events/114515","shortener_url":"https://bit.ly/39hbYk7","started_at":"2020-12-18T09:30:00.000+09:00","ended_at":"2020-12-20T12:00:00.000+09:00","limit_number":60,"address":null,"place":"","lat":null,"lon":null,"state":"active","id":null},{"event_id":"195301","title":"【オンラインセミナー開催】12/9（水）テーマ『SDGsとデータサイエンス』","url":"https://widshiroshima.connpass.com/event/195301/","shortener_url":"https://bit.ly/3nVybs2","started_at":"2020-12-09T09:30:00.000+09:00","ended_at":"2020-12-09T11:30:00.000+09:00","limit_number":100,"address":"オンライン","place":"オンライン","lat":null,"lon":null,"state":"active","id":null},{"event_id":"114556","title":"【オンライン・オフライン併催】『つくりながら学ぶ！Pythonによる因果分析』読書会#2","url":"https://soleildatadojo.doorkeeper.jp/events/114556","shortener_url":"https://bit.ly/3m6CwYV","started_at":"2020-12-09T10:00:00.000+09:00","ended_at":"2020-12-09T12:00:00.000+09:00","limit_number":13,"address":"大阪市北区西天満二丁目5番3号（堂島深川ビル3階）","place":"SCRIBBLE OSAKA LAB（SOL）（大阪メトロ御堂筋線「淀屋橋」駅1番出口から徒歩４分）","lat":34.6952,"lon":135.502,"state":"active","id":null},{"event_id":null,"title":"The Neural Hack","url":"https://theneuralhack.devpost.com/","shortener_url":"https://bit.ly/3mgZv3F","started_at":"2020-12-04T05:30:00.000+09:00","ended_at":"2020-12-05T17:30:00.000+09:00","limit_number":null,"address":null,"place":"Online","lat":null,"lon":null,"state":"active","id":null},{"event_id":null,"title":"queer_hack 2020","url":"https://queer-hack.devpost.com/","shortener_url":null,"started_at":"2020-12-05T16:00:00.000+09:00","ended_at":"2020-12-06T18:00:00.000+09:00","limit_number":null,"address":null,"place":"Online","lat":null,"lon":null,"state":"active","id":null},{"event_id":null,"title":"TechTogether New York","url":"https://techtogether-new-york-2020.devpost.com/","shortener_url":null,"started_at":"2020-12-04T23:00:00.000+09:00","ended_at":"2020-12-06T19:00:00.000+09:00","limit_number":null,"address":null,"place":"Online","lat":null,"lon":null,"state":"active","id":null},{"event_id":"197718","title":"Unity1週間ゲームジャムで 出すものを考えよう！","url":"https://qitz.connpass.com/event/197718/","shortener_url":"https://bit.ly/3lpQKmr","started_at":"2020-12-21T10:00:00.000+09:00","ended_at":"2020-12-21T13:00:00.000+09:00","limit_number":10,"address":"〒210-0023 神奈川県川崎市川崎区小川町１３−２０","place":"高木ビル 6F Qitzオフィス","lat":35.5276,"lon":139.698,"state":"active","id":null},{"event_id":null,"title":"Campus2030","url":"https://campus2030.devpost.com/","shortener_url":null,"started_at":"2020-12-08T19:00:00.000+09:00","ended_at":"2020-12-09T17:00:00.000+09:00","limit_number":null,"address":"Brinellvgen 23, 114 28 Stockholm, Sweden","place":"Online: High-fidelity, Slack","lat":null,"lon":null,"state":"active","id":null},{"event_id":null,"title":"DrChrono's Virtual Healthcare Hackathon 2021","url":"https://drchronohackathon2021.devpost.com/","shortener_url":"https://bit.ly/3g51ENH","started_at":"2020-12-01T12:00:00.000+09:00","ended_at":"2021-01-13T04:45:00.000+09:00","limit_number":null,"address":null,"place":"Online","lat":null,"lon":null,"state":"active","id":null},{"event_id":"126582398361","title":"DeveloperWeek New York 2020 Hackathon","url":"https://www.eventbrite.com/e/developerweek-new-york-2020-hackathon-registration-126582398361","shortener_url":"https://bit.ly/39rnU2V","started_at":"2020-12-01T03:00:00.000+09:00","ended_at":"2020-12-11T07:00:00.000+09:00","limit_number":null,"address":null,"place":"online","lat":null,"lon":null,"state":"active","id":null},{"event_id":null,"title":"QuHacks 2020","url":"https://quhacks2020.devpost.com/","shortener_url":null,"started_at":"2020-12-19T15:00:00.000+09:00","ended_at":"2020-12-20T01:00:00.000+09:00","limit_number":null,"address":null,"place":"Online","lat":null,"lon":null,"state":"active","id":null},{"event_id":null,"title":"Penn Engineering EAS546 Fall 2020","url":"https://eas546-20c.devpost.com/","shortener_url":null,"started_at":"2020-12-02T17:00:00.000+09:00","ended_at":"2020-12-06T22:00:00.000+09:00","limit_number":null,"address":null,"place":"Online","lat":null,"lon":null,"state":"active","id":null},{"event_id":null,"title":"HackCamp 2020","url":"https://hackcamp2020.devpost.com/","shortener_url":"https://bit.ly/3qkE8Rj","started_at":"2020-12-06T17:00:00.000+09:00","ended_at":"2020-12-07T04:00:00.000+09:00","limit_number":null,"address":null,"place":"Online","lat":null,"lon":null,"state":"active","id":null},{"event_id":"1334319694782709761","title":"India Australia Circular Economy Hackathon - CSIRO","url":"https://events.csiro.au/Events/2020/October/7/India-Australia-Circular-Economy-Hackathon","shortener_url":null,"started_at":"2020-12-01T00:00:00.000+09:00","ended_at":"2020-12-01T14:59:59.000+09:00","limit_number":null,"address":null,"place":"online","lat":null,"lon":null,"state":"active","id":null},{"event_id":"1334086186638315520","title":"Green Charcoal Hackathon launched to deal with farm fires \u0026 residue","url":"https://varindia.com/news/green-charcoal-hackathon-launched-to-deal-with-farm-fires--residue","shortener_url":null,"started_at":"2020-12-02T00:00:00.000+09:00","ended_at":"2020-12-02T14:59:59.000+09:00","limit_number":null,"address":null,"place":"online","lat":null,"lon":null,"state":"active","id":null},{"event_id":null,"title":"KuriusHacks: Christmas Edition","url":"https://kuriushacks-christmas-edition.devpost.com/","shortener_url":null,"started_at":"2020-12-28T21:00:00.000+09:00","ended_at":"2020-12-30T21:00:00.000+09:00","limit_number":null,"address":null,"place":"Online","lat":null,"lon":null,"state":"active","id":null},{"event_id":null,"title":"Eco-It Biohackathon","url":"https://eco-it-biohackathon-11439.devpost.com/","shortener_url":"https://bit.ly/3gb9FAq","started_at":"2020-12-04T22:00:00.000+09:00","ended_at":"2020-12-06T22:00:00.000+09:00","limit_number":null,"address":null,"place":"Online","lat":null,"lon":null,"state":"active","id":null},{"event_id":"196634","title":"#ヒーローズリーグ オンライン 決勝・BINGO大会  \u0026 #ProtoOut DEMO DAY","url":"https://mashupawards.connpass.com/event/196634/","shortener_url":"https://bit.ly/33OoVhU","started_at":"2020-12-12T03:00:00.000+09:00","ended_at":"2020-12-12T11:30:00.000+09:00","limit_number":132,"address":"","place":"オンライン","lat":null,"lon":null,"state":"active","id":null},{"event_id":"198020","title":"AITCシニア技術者勉強会「一からはじめるIoT 5周目」第2回 センサー操作編","url":"https://aitc-senior.connpass.com/event/198020/","shortener_url":"https://bit.ly/3quf0aK","started_at":"2020-12-18T10:00:00.000+09:00","ended_at":"2020-12-18T12:00:00.000+09:00","limit_number":30,"address":null,"place":"","lat":null,"lon":null,"state":"active","id":null},{"event_id":"198125","title":"【初心者歓迎】12/16（水）データ活用コンペ応募のための『アイデアのまとめ方』","url":"https://widshiroshima.connpass.com/event/198125/","shortener_url":"https://bit.ly/3g9v796","started_at":"2020-12-16T09:30:00.000+09:00","ended_at":"2020-12-16T11:30:00.000+09:00","limit_number":60,"address":"オンライン","place":"オンライン","lat":null,"lon":null,"state":"active","id":null},{"event_id":"1334826411333459970","title":"Game Jam Madrid Crea, 2ª Edición","url":"https://itch.io/jam/game-jam-madrid-crea-2-edicion","shortener_url":"https://bit.ly/3omxvw7","started_at":"2020-12-11T17:30:00.000+09:00","ended_at":"2020-12-20T19:00:00.000+09:00","limit_number":null,"address":null,"place":"online","lat":null,"lon":null,"state":"active","id":null},{"event_id":"1335372171405893632","title":"LynXmas 2020","url":"https://itch.io/jam/lynxmas2020","shortener_url":"https://bit.ly/3lN6jFd","started_at":"2020-12-01T00:00:00.000+09:00","ended_at":"2020-12-15T00:00:00.000+09:00","limit_number":null,"address":null,"place":"online","lat":null,"lon":null,"state":"active","id":null},{"event_id":null,"title":"CSE 143 Au20 Final Projects","url":"https://cse-143-au20-final-projects.devpost.com/","shortener_url":null,"started_at":"2020-12-07T02:15:00.000+09:00","ended_at":"2020-12-12T07:45:00.000+09:00","limit_number":null,"address":null,"place":"Online","lat":null,"lon":null,"state":"active","id":null},{"event_id":"198312","title":"第29回 PCNひろしま こどもプログラミング教室","url":"https://pcn-hiroshima.connpass.com/event/198312/","shortener_url":"https://bit.ly/3qwzy2t","started_at":"2020-12-27T01:30:00.000+09:00","ended_at":"2020-12-27T03:30:00.000+09:00","limit_number":13,"address":"オンライン","place":"オンライン","lat":34.3941,"lon":132.459,"state":"active","id":null},{"event_id":"198416","title":"[初心者歓迎！][川崎]1Weekゲームジャムで作られたゲームで遊ぶ会+LT募集","url":"https://kawasaki-unity.connpass.com/event/198416/","shortener_url":"https://bit.ly/3opdCnW","started_at":"2020-12-27T10:00:00.000+09:00","ended_at":"2020-12-27T13:00:00.000+09:00","limit_number":17,"address":"〒210-0023 神奈川県川崎市川崎区小川町１３−２０","place":"高木ビル 6F Qitzオフィス","lat":35.5276,"lon":139.698,"state":"active","id":null},{"event_id":"198376","title":"スクラム道関西 オープン・ジャム・オンライン","url":"https://scrumdo-kansai.connpass.com/event/198376/","shortener_url":null,"started_at":"2020-12-14T11:00:00.000+09:00","ended_at":"2020-12-14T13:00:00.000+09:00","limit_number":25,"address":"オンライン","place":"オンライン","lat":null,"lon":null,"state":"active","id":null},{"event_id":"130322804015","title":"IBMZ-4-Good Ideathon: Learn | Code | Create | Change the World","url":"https://www.eventbrite.com/e/ibmz-4-good-ideathon-tickets-130322804015","shortener_url":"https://bit.ly/37IiAWe","started_at":"2020-12-20T00:00:00.000+09:00","ended_at":"2020-12-20T05:00:00.000+09:00","limit_number":null,"address":null,"place":"online","lat":null,"lon":null,"state":"active","id":null},{"event_id":null,"title":"User Experience Design Class 2020","url":"https://kelas-dpp-2020.devpost.com/","shortener_url":null,"started_at":"2020-12-07T15:00:00.000+09:00","ended_at":"2020-12-25T10:00:00.000+09:00","limit_number":null,"address":null,"place":"Online","lat":null,"lon":null,"state":"active","id":null},{"event_id":"198539","title":"1日目~年末年始0泊9日オンラインもくもく合宿","url":"https://get-post.connpass.com/event/198539/","shortener_url":null,"started_at":"2020-12-26T00:00:00.000+09:00","ended_at":"2021-12-26T14:00:00.000+09:00","limit_number":null,"address":"","place":"オンライン","lat":null,"lon":null,"state":"active","id":null},{"event_id":"198505","title":"Kamakura Mok Mok Hack 98 - 鎌倉もくもく会","url":"https://kamkura-mokmok.connpass.com/event/198505/","shortener_url":"https://bit.ly/3mX2Q8a","started_at":"2020-12-12T02:00:00.000+09:00","ended_at":"2020-12-12T05:00:00.000+09:00","limit_number":7,"address":"オンライン","place":"zoom","lat":null,"lon":null,"state":"active","id":null},{"event_id":"1336023490328219650","title":"r/technology - Travel agent leaked customer data by – this is embarrassing - giving it away in a hackathon","url":"https://www.reddit.com/r/technology/comments/k8fl5w/travel_agent_leaked_customer_data_by_this_is/","shortener_url":null,"started_at":"2020-12-07T00:00:00.000+09:00","ended_at":"2020-12-07T14:59:59.000+09:00","limit_number":null,"address":null,"place":"online","lat":null,"lon":null,"state":"active","id":null},{"event_id":"198598","title":"【Webマーケティング】マーケのプロに聞くLP改善アドバイス会！","url":"https://tokyofreelance.connpass.com/event/198598/","shortener_url":null,"started_at":"2020-12-09T21:00:00.000+09:00","ended_at":"2020-12-09T22:30:00.000+09:00","limit_number":500,"address":null,"place":"","lat":null,"lon":null,"state":"active","id":null},{"event_id":"1336433515907452928","title":"r/siacoin - Congrats to SkyDB hackathon finalists. Demo day is Wed Dec 9 at 3 pm ET","url":"https://www.reddit.com/r/siacoin/comments/k9dm2y/congrats_to_skydb_hackathon_finalists_demo_day_is/","shortener_url":"https://bit.ly/39Y9asr","started_at":"2020-12-09T00:00:00.000+09:00","ended_at":"2020-12-09T14:59:59.000+09:00","limit_number":null,"address":null,"place":"online","lat":null,"lon":null,"state":"active","id":null},{"event_id":null,"title":"QODE Internet Fest","url":"https://qode.devpost.com/","shortener_url":"https://bit.ly/3m5FDzv","started_at":"2020-12-19T18:30:00.000+09:00","ended_at":"2020-12-28T18:15:00.000+09:00","limit_number":null,"address":null,"place":"Online","lat":null,"lon":null,"state":"active","id":null},{"event_id":null,"title":"HackTJ 7.5","url":"https://hacktj2020.devpost.com/","shortener_url":null,"started_at":"2020-12-10T19:15:00.000+09:00","ended_at":"2020-12-13T21:00:00.000+09:00","limit_number":null,"address":null,"place":"Online","lat":null,"lon":null,"state":"active","id":null},{"event_id":null,"title":"The Open Innovation University Hackathon","url":"https://innovate.devpost.com/","shortener_url":"https://bit.ly/2LvgvWj","started_at":"2020-12-18T05:00:00.000+09:00","ended_at":"2020-12-23T22:00:00.000+09:00","limit_number":null,"address":null,"place":"Online","lat":null,"lon":null,"state":"active","id":null},{"event_id":"128743831265","title":"INTEROPen Hackathon: Anticipatory Care Plans","url":"https://www.eventbrite.co.uk/e/interopen-hackathon-anticipatory-care-plans-tickets-128743831265","shortener_url":"https://bit.ly/3mbuyNh","started_at":"2020-12-16T18:00:00.000+09:00","ended_at":"2020-12-18T02:30:00.000+09:00","limit_number":null,"address":null,"place":"online","lat":null,"lon":null,"state":"active","id":null},{"event_id":"130322804015","title":"IBMZ-4-Good Ideathon: Learn | Code | Create | Change the World","url":"https://www.eventbrite.com/e/ibmz-4-good-ideathon-learn-code-create-change-the-world-tickets-130322804015","shortener_url":"https://bit.ly/3a4qV9s","started_at":"2020-12-20T00:00:00.000+09:00","ended_at":"2020-12-20T05:00:00.000+09:00","limit_number":null,"address":null,"place":"online","lat":null,"lon":null,"state":"active","id":null},{"event_id":"196145","title":"ストレッチwithARハッカソン","url":"https://withar.connpass.com/event/196145/","shortener_url":"https://bit.ly/2INco74","started_at":"2020-12-13T10:00:00.000+09:00","ended_at":"2020-12-13T13:00:00.000+09:00","limit_number":null,"address":"オンライン","place":"ZOOM","lat":null,"lon":null,"state":"active","id":null},{"event_id":"115143","title":"IGDA琉球大学主催　GameJam!","url":"https://igda-ryukyus.doorkeeper.jp/events/115143","shortener_url":"https://bit.ly/3oTAhJz","started_at":"2020-12-26T00:00:00.000+09:00","ended_at":"2020-12-27T10:00:00.000+09:00","limit_number":40,"address":"〒903-0129 沖縄県中頭郡西原町千原１番地","place":"琉球大学地域創生総合研究棟５階  部屋番号  501・502・508","lat":26.2476,"lon":127.765,"state":"active","id":null},{"event_id":"1338311757262184448","title":"Code Ninjas Celebrates Computer Science Education Week with Annual Holiday Hackathon, Hour of Code™ Events","url":"https://www.prnewswire.com/news-releases/code-ninjas-celebrates-computer-science-education-week-with-annual-holiday-hackathon-hour-of-code-events-301187156.html","shortener_url":null,"started_at":"2020-12-07T10:05:00.000+09:00","ended_at":"2020-12-07T14:59:59.000+09:00","limit_number":null,"address":null,"place":"online","lat":null,"lon":null,"state":"active","id":null},{"event_id":"199116","title":"Kamakura Mok Mok Hack 99 - 鎌倉もくもく会","url":"https://kamkura-mokmok.connpass.com/event/199116/","shortener_url":"https://bit.ly/2WhMXO8","started_at":"2020-12-19T02:00:00.000+09:00","ended_at":"2020-12-19T05:00:00.000+09:00","limit_number":7,"address":"オンライン","place":"zoom","lat":null,"lon":null,"state":"active","id":null},{"event_id":"1338516186385018881","title":"IT-studenten winnen hackathon politie","url":"https://nnieuws.be/node/166910","shortener_url":null,"started_at":"2020-12-14T00:00:00.000+09:00","ended_at":"2020-12-14T14:59:59.000+09:00","limit_number":null,"address":null,"place":"online","lat":null,"lon":null,"state":"active","id":null},{"event_id":null,"title":"2020ethcon","url":"https://2020ethcon.devpost.com/","shortener_url":null,"started_at":"2020-12-15T15:00:00.000+09:00","ended_at":"2020-12-18T15:00:00.000+09:00","limit_number":null,"address":"Seoul, South Korea","place":"Online","lat":null,"lon":null,"state":"active","id":null},{"event_id":"1338730571200000002","title":"SHIBUYA スタートアップ100に掲載していただけました！！ | カベウチブログ","url":"https://www.idea-kabeuchi.com/blog-posts/shibuya-sutatoatupu100nijie-zai-siteitadakemasita","shortener_url":null,"started_at":"2020-12-15T13:00:00.000+09:00","ended_at":"2020-12-15T14:59:59.000+09:00","limit_number":null,"address":null,"place":"online","lat":null,"lon":null,"state":"active","id":null},{"event_id":null,"title":"Med-Tech Hackathon","url":"https://med-tech-hackathon.devpost.com/","shortener_url":"https://bit.ly/3gWBwF7","started_at":"2020-12-19T13:00:00.000+09:00","ended_at":"2020-12-21T12:00:00.000+09:00","limit_number":null,"address":null,"place":"Online","lat":null,"lon":null,"state":"active","id":null},{"event_id":"199336","title":"【#3】エンジニアの集まる家を作ろう","url":"https://connpass.com/event/199336/","shortener_url":"https://bit.ly/3nAiabe","started_at":"2020-12-19T02:00:00.000+09:00","ended_at":"2020-12-19T09:00:00.000+09:00","limit_number":10,"address":"大阪府大阪市東住吉区","place":"家","lat":34.6217,"lon":135.53,"state":"active","id":null},{"event_id":"133178796365","title":"Win $500 cash!! 27-28 Dec, 24hr Christmas Virtual Hackathon.","url":"https://www.eventbrite.co.nz/e/win-500-cash-27-28-dec-24hr-christmas-virtual-hackathon-tickets-133178796365","shortener_url":"https://bit.ly/3oVbTaq","started_at":"2020-12-27T09:00:00.000+09:00","ended_at":"2020-12-28T09:00:00.000+09:00","limit_number":null,"address":null,"place":"online","lat":null,"lon":null,"state":"active","id":null},{"event_id":"1339547385719119872","title":"OASIS Hackathon | Errachidia 2019 – OASIS AGRITECH Hackathon | Errachidia 2019","url":"https://oasishackathon.org/fr/","shortener_url":null,"started_at":"2020-12-10T00:00:00.000+09:00","ended_at":"2020-12-10T12:01:00.000+09:00","limit_number":null,"address":null,"place":"online","lat":null,"lon":null,"state":"active","id":null},{"event_id":"1340016516851503105","title":"Infotech","url":"https://www.infotechinc.com/blog/hackathon-2020-reflection-from-a-35-year-infotecher/","shortener_url":null,"started_at":"2020-12-03T00:00:00.000+09:00","ended_at":"2020-12-03T05:00:00.000+09:00","limit_number":null,"address":null,"place":"online","lat":null,"lon":null,"state":"active","id":null},{"event_id":"131903221085","title":"Holiday Cheer Hackathon Opening Ceremony","url":"https://www.eventbrite.com/e/holiday-cheer-hackathon-opening-ceremony-tickets-131903221085","shortener_url":null,"started_at":"2020-12-19T05:00:00.000+09:00","ended_at":"2020-12-19T07:00:00.000+09:00","limit_number":null,"address":null,"place":"online","lat":null,"lon":null,"state":"active","id":null},{"event_id":null,"title":"BitsxLaMarato","url":"https://bitsxlamarato-2020.devpost.com/","shortener_url":"https://bit.ly/37xehhA","started_at":"2020-12-19T22:00:00.000+09:00","ended_at":"2020-12-20T11:15:00.000+09:00","limit_number":null,"address":null,"place":"Online","lat":null,"lon":null,"state":"active","id":null},{"event_id":"1340641308310786048","title":"BRI Data Hackathon","url":"https://brihackathon.id/","shortener_url":"https://bit.ly/3p9jja7","started_at":"2020-12-15T00:13:00.000+09:00","ended_at":"2020-12-21T19:29:00.000+09:00","limit_number":null,"address":null,"place":"online","lat":null,"lon":null,"state":"active","id":null},{"event_id":null,"title":"Test","url":"https://nwtest.devpost.com/","shortener_url":null,"started_at":"2020-12-22T05:15:00.000+09:00","ended_at":"2021-01-01T01:00:00.000+09:00","limit_number":null,"address":null,"place":"Online","lat":null,"lon":null,"state":"active","id":null},{"event_id":"199831","title":"Kamakura Mok Mok Hack 100 - 鎌倉もくもく会","url":"https://kamkura-mokmok.connpass.com/event/199831/","shortener_url":"https://bit.ly/37I6dLh","started_at":"2020-12-26T02:00:00.000+09:00","ended_at":"2020-12-26T05:00:00.000+09:00","limit_number":7,"address":"オンライン","place":"zoom","lat":null,"lon":null,"state":"active","id":null},{"event_id":"1341533561984327681","title":"Coinparty Hackathon : Pacesetting the Future of Bitcoin Cash Finance","url":"https://read.cash/@BitcoinCash247/coinparty-hackathon-pacesetting-the-future-of-bitcoin-cash-finance-a9e5da0e","shortener_url":"https://bit.ly/2KnJZ8u","started_at":"2020-12-22T23:50:00.000+09:00","ended_at":"2020-12-23T14:59:59.000+09:00","limit_number":null,"address":null,"place":"online","lat":null,"lon":null,"state":"active","id":null},{"event_id":null,"title":"Research Optimus","url":"https://research-optimus.devpost.com/","shortener_url":null,"started_at":"2020-12-31T05:00:00.000+09:00","ended_at":"2020-12-31T22:00:00.000+09:00","limit_number":null,"address":null,"place":"Online","lat":null,"lon":null,"state":"active","id":null},{"event_id":null,"title":"Hackathon Santri","url":"https://hackathon-santri.devpost.com/","shortener_url":"https://bit.ly/3pkajPs","started_at":"2020-12-28T05:00:00.000+09:00","ended_at":"2021-01-16T10:00:00.000+09:00","limit_number":null,"address":null,"place":"Online","lat":null,"lon":null,"state":"active","id":null},{"event_id":null,"title":"Bng gi xe XEOTO","url":"https://xeoto.devpost.com/","shortener_url":null,"started_at":"2020-12-28T05:00:00.000+09:00","ended_at":"2021-08-31T21:00:00.000+09:00","limit_number":null,"address":null,"place":"Online","lat":null,"lon":null,"state":"active","id":null},{"event_id":"1343772407811567616","title":"IIHM's SAHAS Cell Launches SAHASON Hackathon For Innovative Business Model ideas","url":"https://www.prnewswire.com/in/news-releases/iihm-s-sahas-cell-launches-sahason-hackathon-for-innovative-business-model-ideas-879433359.html","shortener_url":null,"started_at":"2020-12-28T05:30:00.000+09:00","ended_at":"2020-12-28T15:12:00.000+09:00","limit_number":null,"address":null,"place":"online","lat":null,"lon":null,"state":"active","id":null},{"event_id":"1344356613507919872","title":"NEM Virtual Hackathon - DropsEarn","url":"https://dropsearn.com/events/nem-virtual-hackathon/","shortener_url":"https://bit.ly/2WUwvUa","started_at":"2020-12-30T03:00:00.000+09:00","ended_at":"2021-01-05T15:00:00.000+09:00","limit_number":null,"address":null,"place":"online","lat":null,"lon":null,"state":"active","id":null},{"event_id":"1350543858220765184","title":"Two NSSA affiliates shine in Microsoft Hackathon | OANA NEWS","url":"http://www.oananews.org/content/news/general/two-nssa-affiliates-shine-microsoft-hackathon","shortener_url":"https://bit.ly/3par1kV","started_at":"2020-12-28T02:00:00.000+09:00","ended_at":"2021-01-19T22:35:00.000+09:00","limit_number":null,"address":null,"place":"online","lat":null,"lon":null,"state":"active","id":null},{"event_id":"1359729227549970432","title":"India Australia Circular Economy Hackathon Awards Ceremony - CSIRO","url":"https://events.csiro.au/Events/2021/January/21/IACE-Hackathon-Awards-Ceremony","shortener_url":null,"started_at":"2020-12-21T03:30:00.000+09:00","ended_at":"2020-12-21T04:30:00.000+09:00","limit_number":null,"address":null,"place":"online","lat":null,"lon":null,"state":"active","id":null},{"event_id":"1393381282248151044","title":"Scienc-ome XR Innovation Hub | Scienc-ome","url":"https://www.scienc-ome.com/sxr","shortener_url":null,"started_at":"2020-12-17T01:30:00.000+09:00","ended_at":"2021-05-15T23:30:00.000+09:00","limit_number":null,"address":"東京都、つくば市、科学技術振興機構(JST)、","place":"東京都、つくば市、科学技術振興機構(JST)、","lat":36.071,"lon":140.115,"state":"active","id":null},{"event_id":"1394943626757636098","title":"【公開講座】2021年度 第1回「社会デザイン・ビジネスラボin青森」新規事業創出アイデアソン～災害対応～ | 青森中央学院大学","url":"https://www.aomoricgu.ac.jp/blog/aomoricgu/news/article-56879/","shortener_url":"https://bit.ly/3v4vzMx","started_at":"2020-12-01T17:00:00.000+09:00","ended_at":"2021-06-28T20:00:00.000+09:00","limit_number":null,"address":"青森県青森市大字横内字神田12番1 電話:017-728-0121 FAX:017-738-8333","place":"青森県青森市大字横内字神田12番1 電話:017-728-0121 FAX:017-738-8333\r","lat":40.785,"lon":140.762,"state":"active","id":null},{"event_id":"1398595909005373440","title":"トップページ - 学生団体WAKA×YAMA2021","url":"http://wakaxyama.jp/","shortener_url":null,"started_at":"2020-12-14T00:00:00.000+09:00","ended_at":"2021-05-24T00:00:00.000+09:00","limit_number":null,"address":null,"place":"online","lat":null,"lon":null,"state":"active","id":null},{"event_id":"1429609789164691456","title":"【公開講座】2021年度 第２回「社会デザイン・ビジネスラボ in ⻘森」（8/26・9/6）開催のお知らせ | 青森中央学院大学","url":"https://www.aomoricgu.ac.jp/blog/aomoricgu/news/article-57974/","shortener_url":"https://bit.ly/384taaD","started_at":"2020-12-01T18:00:00.000+09:00","ended_at":"2021-09-06T20:00:00.000+09:00","limit_number":null,"address":"青森県青森市大字横内字神田12番1 電話:017-728-0121 FAX:017-738-8333","place":"青森県青森市大字横内字神田12番1 電話:017-728-0121 FAX:017-738-8333\r","lat":40.7846,"lon":140.763,"state":"active","id":null},{"event_id":"66906682689","title":"Let's Build Online Lessons Together","url":"https://www.eventbrite.co.uk/e/lets-build-online-lessons-together-tickets-66906682689","shortener_url":null,"started_at":"2020-12-14T20:00:00.000+09:00","ended_at":"2021-12-06T21:00:00.000+09:00","limit_number":null,"address":null,"place":"online","lat":null,"lon":null,"state":"active","id":null},{"event_id":"1441212047140827138","title":"Últimos dias para as inscrições na 2ª edição do Hackathon OLX Brasil | Valor Agregado","url":"https://valoragregado.com/2021/09/23/ultimos-dias-para-as-inscricoes-na-2a-edicao-do-hackathon-olx-brasil/","shortener_url":null,"started_at":"2020-12-15T00:00:00.000+09:00","ended_at":"2021-09-23T00:00:00.000+09:00","limit_number":null,"address":null,"place":"online","lat":null,"lon":null,"state":"active","id":null},{"event_id":"130641326725","title":"SpatialChat Weekly Demo","url":"https://www.eventbrite.com/e/spatialchat-weekly-demo-tickets-130641326725","shortener_url":null,"started_at":"2020-12-01T16:00:00.000+09:00","ended_at":"2023-04-26T17:00:00.000+09:00","limit_number":null,"address":null,"place":"online","lat":null,"lon":null,"state":"active","id":null},{"event_id":"131342217107","title":"Non-binary Craft Group","url":"https://www.eventbrite.com/e/non-binary-craft-group-tickets-131342217107","shortener_url":null,"started_at":"2020-12-03T01:00:00.000+09:00","ended_at":"2024-05-30T02:00:00.000+09:00","limit_number":null,"address":null,"place":"online","lat":null,"lon":null,"state":"active","id":null},{"event_id":"129933894777","title":"Studio One E-Meetup - Pennsylvania","url":"https://www.eventbrite.com/e/studio-one-e-meetup-pennsylvania-tickets-129933894777","shortener_url":null,"started_at":"2020-12-12T01:00:00.000+09:00","ended_at":"2023-09-07T03:00:00.000+09:00","limit_number":null,"address":null,"place":"online","lat":null,"lon":null,"state":"active","id":null},{"event_id":"66906682689","title":"Let's Build Online Lessons Together (Monday Edition)","url":"https://www.eventbrite.co.uk/e/lets-build-online-lessons-together-monday-edition-tickets-66906682689","shortener_url":null,"started_at":"2020-12-14T20:00:00.000+09:00","ended_at":"2021-12-06T21:00:00.000+09:00","limit_number":null,"address":null,"place":"online","lat":null,"lon":null,"state":"active","id":null},{"event_id":"132699330269","title":"A Trip to Mars - An Immersive Escape Room Experience","url":"https://www.eventbrite.com/e/a-trip-to-mars-an-immersive-escape-room-experience-tickets-132699330269","shortener_url":null,"started_at":"2020-12-19T00:45:00.000+09:00","ended_at":"2022-09-28T01:45:00.000+09:00","limit_number":null,"address":null,"place":"online","lat":null,"lon":null,"state":"active","id":null},{"event_id":"134412696995","title":"How to become a magnetic and respected expert in your field","url":"https://www.eventbrite.co.uk/e/how-to-become-a-magnetic-and-respected-expert-in-your-field-tickets-134412696995","shortener_url":null,"started_at":"2020-12-28T20:30:00.000+09:00","ended_at":"2021-12-27T21:30:00.000+09:00","limit_number":null,"address":null,"place":"online","lat":null,"lon":null,"state":"active","id":null},{"event_id":"128347706445","title":"Online Coding Drop-In","url":"https://www.eventbrite.co.uk/e/online-coding-drop-in-tickets-128347706445","shortener_url":null,"started_at":"2020-12-14T19:00:00.000+09:00","ended_at":"2021-12-13T21:00:00.000+09:00","limit_number":null,"address":null,"place":"online","lat":null,"lon":null,"state":"active","id":null},{"event_id":"132587989245","title":"Keller Williams Preferred Properties","url":"https://www.eventbrite.com/e/keller-williams-preferred-properties-tickets-132587989245","shortener_url":null,"started_at":"2020-12-15T22:00:00.000+09:00","ended_at":"2022-01-25T23:30:00.000+09:00","limit_number":null,"address":null,"place":"online","lat":null,"lon":null,"state":"active","id":null},{"event_id":"130881485045","title":"QCSWC 4th Tuesday Webinars (FREE)","url":"https://www.eventbrite.com/e/qcswc-4th-tuesday-webinars-free-tickets-130881485045","shortener_url":null,"started_at":"2020-12-23T00:00:00.000+09:00","ended_at":"2022-12-28T01:00:00.000+09:00","limit_number":null,"address":null,"place":"online","lat":null,"lon":null,"state":"active","id":null},{"event_id":"129663046663","title":"Texas Leadership Network Mastermind","url":"https://www.eventbrite.com/e/texas-leadership-network-mastermind-tickets-129663046663","shortener_url":null,"started_at":"2020-12-10T18:00:00.000+09:00","ended_at":"2022-12-08T19:00:00.000+09:00","limit_number":null,"address":null,"place":"online","lat":null,"lon":null,"state":"active","id":null},{"event_id":"128667862039","title":"Learn To Code - C#- Virtual","url":"https://www.eventbrite.com/e/learn-to-code-c-virtual-tickets-128667862039","shortener_url":null,"started_at":"2020-12-03T00:00:00.000+09:00","ended_at":"2021-12-23T01:00:00.000+09:00","limit_number":null,"address":null,"place":"online","lat":null,"lon":null,"state":"active","id":null},{"event_id":"132293297815","title":"How To Make Money During A Global Pandemic With Internet, Quantum and A.I","url":"https://www.eventbrite.com/e/how-to-make-money-during-a-global-pandemic-with-internet-quantum-and-ai-tickets-132293297815","shortener_url":null,"started_at":"2020-12-10T00:00:00.000+09:00","ended_at":"2021-12-09T01:00:00.000+09:00","limit_number":null,"address":null,"place":"online","lat":null,"lon":null,"state":"active","id":null},{"event_id":"132965731081","title":"Sourced Investor Network Meetup (Oxford UK)","url":"https://www.eventbrite.co.uk/e/sourced-investor-network-meetup-oxford-uk-tickets-132965731081","shortener_url":null,"started_at":"2020-12-22T20:00:00.000+09:00","ended_at":"2021-12-28T21:00:00.000+09:00","limit_number":null,"address":null,"place":"online","lat":null,"lon":null,"state":"active","id":null},{"event_id":"131731443293","title":"Virtual Business Networking","url":"https://www.eventbrite.com/e/virtual-business-networking-tickets-131731443293","shortener_url":null,"started_at":"2020-12-14T19:00:00.000+09:00","ended_at":"2021-12-13T20:00:00.000+09:00","limit_number":null,"address":null,"place":"online","lat":null,"lon":null,"state":"active","id":null},{"event_id":"133595336247","title":"Semantic Brain Stimulation","url":"https://www.eventbrite.de/e/semantic-brain-stimulation-tickets-133595336247","shortener_url":null,"started_at":"2020-12-26T08:00:00.000+09:00","ended_at":"2022-11-19T09:00:00.000+09:00","limit_number":null,"address":null,"place":"online","lat":null,"lon":null,"state":"active","id":null},{"event_id":"131740331879","title":"COFFEE \u0026 CONSCIOUSNESS","url":"https://www.eventbrite.com.au/e/coffee-consciousness-tickets-131740331879","shortener_url":null,"started_at":"2020-12-08T20:30:00.000+09:00","ended_at":"2022-11-01T22:00:00.000+09:00","limit_number":null,"address":null,"place":"online","lat":null,"lon":null,"state":"active","id":null},{"event_id":"132852596693","title":"Intro to Web Design \u0026 Development:  Virtual Information Session","url":"https://www.eventbrite.com/e/intro-to-web-design-development-virtual-information-session-tickets-132852596693","shortener_url":null,"started_at":"2020-12-14T23:30:00.000+09:00","ended_at":"2022-12-14T00:30:00.000+09:00","limit_number":null,"address":null,"place":"online","lat":null,"lon":null,"state":"active","id":null}]