[{"event_id":"263730845057","title":"ATIGS Japan 2024","url":"https://www.eventbrite.com/e/atigs-japan-2024-tickets-263730845057","shortener_url":null,"started_at":"2024-06-16T08:00:00.000+09:00","ended_at":"2024-06-19T17:00:00.000+09:00","limit_number":null,"address":"W.B.G Marive East 14F, 2-6 Nakase Mihama-ku, Chiba, Chiba 2617114","place":"Chiba Convention Bureau And International Center","lat":35.6481,"lon":140.038,"state":"active","id":null},{"event_id":"liminal2","title":"Liminal Game Jam 2024","url":"https://itch.io/jam/liminal2","shortener_url":"https://bit.ly/41csqer","started_at":"2024-06-20T02:00:00.000+09:00","ended_at":"2024-07-23T04:00:00.000+09:00","limit_number":null,"address":null,"place":"Online","lat":null,"lon":null,"state":"active","id":null},{"event_id":"summer-horror-jam","title":"#1 Summer Horror Jam","url":"https://itch.io/jam/summer-horror-jam","shortener_url":null,"started_at":"2024-06-22T02:00:00.000+09:00","ended_at":"2024-09-22T02:00:00.000+09:00","limit_number":null,"address":null,"place":"Online","lat":null,"lon":null,"state":"active","id":null},{"event_id":"1st-annual-julia-game-jam-cash-prizes","title":"1st Annual Julia Game Jam (Cash Prizes!)","url":"https://itch.io/jam/1st-annual-julia-game-jam-cash-prizes","shortener_url":"https://bit.ly/3NuP9Nh","started_at":"2024-06-01T01:00:00.000+09:00","ended_at":"2024-06-17T12:00:00.000+09:00","limit_number":null,"address":null,"place":"Online","lat":null,"lon":null,"state":"active","id":null},{"event_id":"700437847457","title":"Climathon 2024 - Greater Toronto Area, Canada (June 7-9th Weekend)","url":"https://www.eventbrite.ca/e/climathon-2024-greater-toronto-area-canada-june-7-9th-weekend-tickets-700437847457","shortener_url":null,"started_at":"2024-06-08T03:00:00.000+09:00","ended_at":"2024-06-10T06:00:00.000+09:00","limit_number":null,"address":null,"place":"online","lat":null,"lon":null,"state":"active","id":null},{"event_id":"neo-twiny-jam-24","title":"Neo-Twiny Jam","url":"https://itch.io/jam/neo-twiny-jam-24","shortener_url":null,"started_at":"2024-06-01T13:00:00.000+09:00","ended_at":"2024-07-01T13:00:00.000+09:00","limit_number":null,"address":null,"place":"Online","lat":null,"lon":null,"state":"active","id":null},{"event_id":"yaoi-game-jam-2024","title":"Yaoi Game Jam 2024","url":"https://itch.io/jam/yaoi-game-jam-2024","shortener_url":"https://bit.ly/3HplFgf","started_at":"2024-06-30T23:00:00.000+09:00","ended_at":"2024-08-31T23:00:00.000+09:00","limit_number":null,"address":null,"place":"Online","lat":null,"lon":null,"state":"active","id":null},{"event_id":"cga-jam-2024","title":"CGA Jam 2024","url":"https://itch.io/jam/cga-jam-2024","shortener_url":null,"started_at":"2024-06-01T07:00:00.000+09:00","ended_at":"2024-06-17T07:00:00.000+09:00","limit_number":null,"address":null,"place":"Online","lat":null,"lon":null,"state":"active","id":null},{"event_id":"167138","title":"Startup Weekend Tokyo Cebu 4th","url":"https://swtokyo.doorkeeper.jp/events/167138","shortener_url":"https://bit.ly/3uu9njE","started_at":"2024-06-14T18:00:00.000+09:00","ended_at":"2024-06-16T20:00:00.000+09:00","limit_number":85,"address":"8WC4+526, Mindanao Ave, Cebu City, 6000 Cebu, フィリピン","place":"Latitude Corporate Center, Enspace Cebu 2nd","lat":null,"lon":null,"state":"active","id":null},{"event_id":"3859368","title":"Social Hack Day #62 (虎ノ門会場+オンライン)","url":"https://socialhackday62.peatix.com/","shortener_url":"https://bit.ly/3SPw22l","started_at":"2024-06-22T10:45:00.000+09:00","ended_at":"2024-06-23T00:00:00.000+09:00","limit_number":null,"address":"東京都港区⻁ノ門1-1-3 磯村ビル３階","place":"官民共創HUB / オンライン（ハイブリッド）","lat":null,"lon":null,"state":"active","id":null},{"event_id":"themed-horror-game-jam-18","title":"Themed Horror Game Jam  #18","url":"https://itch.io/jam/themed-horror-game-jam-18","shortener_url":"https://bit.ly/3SO5kH3","started_at":"2024-06-28T06:59:59.000+09:00","ended_at":"2024-08-07T06:59:59.000+09:00","limit_number":null,"address":null,"place":"Online","lat":null,"lon":null,"state":"active","id":null},{"event_id":"godot-wild-jam-70","title":"Godot Wild Jam #70","url":"https://itch.io/jam/godot-wild-jam-70","shortener_url":null,"started_at":"2024-06-15T05:00:00.000+09:00","ended_at":"2024-06-24T05:00:00.000+09:00","limit_number":null,"address":null,"place":"Online","lat":null,"lon":null,"state":"active","id":null},{"event_id":"3879854","title":"仕事と介護 応援フォーラムin北九州","url":"https://shigoto-kaigo.peatix.com/","shortener_url":null,"started_at":"2024-06-15T10:00:00.000+09:00","ended_at":"2024-06-16T00:00:00.000+09:00","limit_number":null,"address":"北九州市小倉北区浅野３丁目９−３０ 2F","place":"北九州国際会議場","lat":33.8902,"lon":130.888,"state":"active","id":null},{"event_id":"3879854","title":"仕事と介護 応援フォーラムin北九州","url":"https://shigoto-kaigo.peatix.com","shortener_url":null,"started_at":"2024-06-15T10:00:00.000+09:00","ended_at":"2024-06-16T00:00:00.000+09:00","limit_number":null,"address":"北九州市小倉北区浅野３丁目９−３０ 2F","place":"北九州国際会議場","lat":33.8902,"lon":130.888,"state":"active","id":null},{"event_id":"3859368","title":"Social Hack Day #62 (虎ノ門会場+オンライン)","url":"https://socialhackday62.peatix.com","shortener_url":"https://bit.ly/3SPw22l","started_at":"2024-06-22T10:45:00.000+09:00","ended_at":"2024-06-23T00:00:00.000+09:00","limit_number":null,"address":"東京都港区⻁ノ門1-1-3 磯村ビル３階","place":"官民共創HUB / オンライン（ハイブリッド）","lat":null,"lon":null,"state":"active","id":null},{"event_id":"climate-jam-2024","title":"Climate Jam 2024","url":"https://itch.io/jam/climate-jam-2024","shortener_url":null,"started_at":"2024-06-16T04:00:00.000+09:00","ended_at":"2024-07-21T04:00:00.000+09:00","limit_number":null,"address":null,"place":"Online","lat":null,"lon":null,"state":"active","id":null},{"event_id":"udc-jam-30","title":"UDC Jam #30","url":"https://itch.io/jam/udc-jam-30","shortener_url":null,"started_at":"2024-06-01T07:00:00.000+09:00","ended_at":"2024-06-17T07:00:00.000+09:00","limit_number":null,"address":null,"place":"Online","lat":null,"lon":null,"state":"active","id":null},{"event_id":"168796","title":"［第四回］Startup Weekend 秋田","url":"https://swakita.doorkeeper.jp/events/168796","shortener_url":"https://bit.ly/3IVLKnX","started_at":"2024-06-28T18:00:00.000+09:00","ended_at":"2024-06-30T19:00:00.000+09:00","limit_number":46,"address":"〒010-0875 秋田県秋田市千秋明徳町３１６","place":"秋田市文化創造館　スタジオB","lat":39.7193,"lon":140.123,"state":"active","id":null},{"event_id":"3895939","title":"森と木のアイディアソン　もっかそん #4","url":"https://peatix.com/event/3895939","shortener_url":"https://bit.ly/3IZdUye","started_at":"2024-06-08T10:00:00.000+09:00","ended_at":"2024-06-09T00:00:00.000+09:00","limit_number":null,"address":"名古屋市中区栄３丁目１８−１ ナディアパーク デザインセンタービル 4階","place":"ナゴヤイノベーターズガレージ","lat":35.1655,"lon":136.905,"state":"active","id":null},{"event_id":"171342","title":"Startup Weekend 守山 Vol.9","url":"https://swmoriyama.doorkeeper.jp/events/171342","shortener_url":"https://bit.ly/3J5osMc","started_at":"2024-06-21T18:30:00.000+09:00","ended_at":"2024-06-23T21:30:00.000+09:00","limit_number":null,"address":"滋賀県守山市勝部一丁目13番1号","place":"あまが池プラザ    ※最終日のプレゼンはチカ守山で行います。","lat":35.0534,"lon":135.991,"state":"active","id":null},{"event_id":"168806","title":"［第三回］Startup Weekend 釧路","url":"https://swkushiro.doorkeeper.jp/events/168806","shortener_url":"https://bit.ly/4cVPHH4","started_at":"2024-06-14T18:00:00.000+09:00","ended_at":"2024-06-16T19:00:00.000+09:00","limit_number":40,"address":"北海道釧路市錦町２丁目４ 釧路フィッシャーマンズワーフMOO 2F","place":"港まちベース 946BANYA","lat":42.9818,"lon":144.383,"state":"active","id":null},{"event_id":"171859","title":"スタンフォード大学d.schoolでも教えているインストラクターによるデザイン思考ワークショップ（同時通訳あり）","url":"https://designthinking.doorkeeper.jp/events/171859","shortener_url":"https://bit.ly/3vuk0DW","started_at":"2024-06-11T10:00:00.000+09:00","ended_at":"2024-06-12T17:30:00.000+09:00","limit_number":45,"address":"東京都千代田区六番町1-7 Ohmae@workビル地下1F","place":"","lat":35.6878,"lon":139.735,"state":"active","id":null},{"event_id":"314983","title":"TechSeeker Hackathon 2024（テックシーカー ハッカソン）","url":"https://techseeker.connpass.com/event/314983/","shortener_url":"https://bit.ly/3PSJykY","started_at":"2024-06-08T12:00:00.000+09:00","ended_at":"2024-06-09T14:00:00.000+09:00","limit_number":80,"address":"大阪市住之江区南港北2-1-10 ATC","place":"ATC特設会場","lat":34.6381,"lon":135.411,"state":"active","id":null},{"event_id":"minigame-a-month-june-2024","title":"Minigame a Month - JUNE 2024","url":"https://itch.io/jam/minigame-a-month-june-2024","shortener_url":null,"started_at":"2024-06-01T13:00:00.000+09:00","ended_at":"2024-07-01T12:59:59.000+09:00","limit_number":null,"address":null,"place":"Online","lat":null,"lon":null,"state":"active","id":null},{"event_id":"3919666","title":"《無料》女性限定 起業・開業・独立 支援セミナ 2024年06月06日開催 ： コムロ（小室）コンサルティンググループ","url":"https://hick.peatix.com","shortener_url":null,"started_at":"2024-06-06T13:30:00.000+09:00","ended_at":"2024-06-07T00:00:00.000+09:00","limit_number":null,"address":"東京都渋谷区代々木1-30-15","place":"コムロコンサルティンググループオフィス","lat":35.6816,"lon":139.702,"state":"active","id":null},{"event_id":"171458","title":"［第二回］Startup Weekend 富士","url":"https://swfuji.doorkeeper.jp/events/171458","shortener_url":"https://bit.ly/3vWtjMY","started_at":"2024-06-14T18:00:00.000+09:00","ended_at":"2024-06-16T19:00:00.000+09:00","limit_number":40,"address":"〒416-0917 静岡県富士市元町９３","place":"GUESTHOUSE 富士と碧","lat":35.1522,"lon":138.647,"state":"active","id":null},{"event_id":"171386","title":"［第5回］StartupWeekend長崎・佐世保@長崎大学","url":"https://swsasebo.doorkeeper.jp/events/171386","shortener_url":"https://bit.ly/3Wepm0G","started_at":"2024-06-28T17:00:00.000+09:00","ended_at":"2024-06-30T20:00:00.000+09:00","limit_number":30,"address":"〒850-0003 長崎県長崎市片淵４丁目２１","place":"長崎大学片淵キャンパス　片淵総合研究棟101号教室","lat":32.7593,"lon":129.888,"state":"active","id":null},{"event_id":"170816","title":"［第６回］StartupWeekend 宇都宮","url":"https://swutsunomiya.doorkeeper.jp/events/170816","shortener_url":"https://bit.ly/3Qa1vLO","started_at":"2024-06-21T18:00:00.000+09:00","ended_at":"2024-06-23T19:00:00.000+09:00","limit_number":60,"address":"栃木県宇都宮市江野町98　／　栃木県宇都宮市馬場通り1丁目1-1（二荒山会館）","place":"Cafe ink Blue　／　若者まちなか活動・交流センター","lat":36.5622,"lon":139.885,"state":"active","id":null},{"event_id":"sbigjam2024","title":"'So Bad it's Good' Jam 2024","url":"https://itch.io/jam/sbigjam2024","shortener_url":null,"started_at":"2024-06-29T08:00:00.000+09:00","ended_at":"2024-07-08T07:59:59.000+09:00","limit_number":null,"address":null,"place":"Online","lat":null,"lon":null,"state":"active","id":null},{"event_id":"hexcode-jam-3","title":"Hexcode Palette Showdown Jam 3","url":"https://itch.io/jam/hexcode-jam-3","shortener_url":null,"started_at":"2024-06-14T09:00:00.000+09:00","ended_at":"2024-06-24T13:59:59.000+09:00","limit_number":null,"address":null,"place":"Online","lat":null,"lon":null,"state":"active","id":null},{"event_id":"rsj","title":"Russia Summer GameJam","url":"https://itch.io/jam/rsj","shortener_url":"https://bit.ly/3U8Uf45","started_at":"2024-06-01T17:00:00.000+09:00","ended_at":"2024-06-07T20:00:00.000+09:00","limit_number":null,"address":null,"place":"Online","lat":null,"lon":null,"state":"active","id":null},{"event_id":"3927881","title":"社会実装若手の会","url":"https://siwakate.peatix.com","shortener_url":null,"started_at":"2024-06-29T13:00:00.000+09:00","ended_at":"2024-07-01T00:00:00.000+09:00","limit_number":null,"address":"〒247-0013 横浜市栄区上郷町1499-1","place":"横浜市上郷・森の家","lat":35.3438,"lon":139.584,"state":"active","id":null},{"event_id":"315125","title":"マイクロマウス合宿2024","url":"https://connpass.com/event/315125/","shortener_url":"https://bit.ly/3UgL01Y","started_at":"2024-06-22T13:00:00.000+09:00","ended_at":"2024-06-23T11:00:00.000+09:00","limit_number":null,"address":"","place":"東京理科大学　野田キャンパス","lat":null,"lon":null,"state":"active","id":null},{"event_id":"160344","title":"［第３回］Startup Weekend 石見＠温泉津","url":"https://swiwami.doorkeeper.jp/events/160344","shortener_url":"https://bit.ly/44gC2q7","started_at":"2024-06-28T18:00:00.000+09:00","ended_at":"2024-06-30T19:00:00.000+09:00","limit_number":30,"address":" 島根県大田市温泉津町小浜イ４９３番地１ ふれあい館2F","place":"コワーキングスペース メガネワークス","lat":35.0906,"lon":132.356,"state":"active","id":null},{"event_id":"haxejam-2024-summer-jam","title":"HaxeJam 2024: Summer Jam","url":"https://itch.io/jam/haxejam-2024-summer-jam","shortener_url":null,"started_at":"2024-06-10T02:45:00.000+09:00","ended_at":"2024-06-16T07:00:00.000+09:00","limit_number":null,"address":null,"place":"Online","lat":null,"lon":null,"state":"active","id":null},{"event_id":"weeksauce-30","title":"Week Sauce (June 2024)","url":"https://itch.io/jam/weeksauce-30","shortener_url":null,"started_at":"2024-06-01T16:00:00.000+09:00","ended_at":"2024-07-01T16:00:00.000+09:00","limit_number":null,"address":null,"place":"Online","lat":null,"lon":null,"state":"active","id":null},{"event_id":"mental-health-game-dev-champions-2024","title":"Safe In Our World Mental Health Game Dev Champions 2024","url":"https://itch.io/jam/mental-health-game-dev-champions-2024","shortener_url":null,"started_at":"2024-06-01T08:00:00.000+09:00","ended_at":"2024-11-01T08:59:59.000+09:00","limit_number":null,"address":null,"place":"Online","lat":null,"lon":null,"state":"active","id":null},{"event_id":"171737","title":"[無料]長岡での一歩の踏み出し方","url":"https://swnagaoka.doorkeeper.jp/events/171737","shortener_url":null,"started_at":"2024-06-08T13:30:00.000+09:00","ended_at":"2024-06-08T15:30:00.000+09:00","limit_number":15,"address":"〒940-0062 新潟県長岡市大手通2-4-5 Wiseビル 3階　(旧:BiCビル)","place":"assemble長岡","lat":37.4478,"lon":138.848,"state":"active","id":null},{"event_id":"pjp-game-jam-2024-1","title":"PJP Game Jam 2024-1","url":"https://itch.io/jam/pjp-game-jam-2024-1","shortener_url":"https://bit.ly/3UIQunI","started_at":"2024-06-01T09:59:59.000+09:00","ended_at":"2024-06-03T09:59:59.000+09:00","limit_number":null,"address":null,"place":"Online","lat":null,"lon":null,"state":"active","id":null},{"event_id":"one-game-a-month-36","title":"One Game a Month #36","url":"https://itch.io/jam/one-game-a-month-36","shortener_url":null,"started_at":"2024-06-02T00:00:00.000+09:00","ended_at":"2024-06-30T00:00:00.000+09:00","limit_number":null,"address":null,"place":"Online","lat":null,"lon":null,"state":"active","id":null},{"event_id":"3929064","title":"富士山・御殿場ワーケーションWEEK2024","url":"https://fujisan-gotemba-workcation-week2024.peatix.com","shortener_url":null,"started_at":"2024-06-02T17:00:00.000+09:00","ended_at":"2024-06-09T00:00:00.000+09:00","limit_number":null,"address":"御殿場市新橋１９８８−１７","place":"noctarium/MountCinema","lat":35.3008,"lon":138.933,"state":"active","id":null},{"event_id":"the-secret-cult-horror-jam","title":"The Secret Cult Horror Jam","url":"https://itch.io/jam/the-secret-cult-horror-jam","shortener_url":null,"started_at":"2024-06-07T12:00:00.000+09:00","ended_at":"2024-06-16T12:00:00.000+09:00","limit_number":null,"address":null,"place":"Online","lat":null,"lon":null,"state":"active","id":null},{"event_id":"theana-game-jam-weeklyjam-22","title":"Theana Game Jam - WeeklyJam #22","url":"https://itch.io/jam/theana-game-jam-weeklyjam-22","shortener_url":"https://bit.ly/3WrZpuI","started_at":"2024-06-02T22:00:00.000+09:00","ended_at":"2024-06-09T22:00:00.000+09:00","limit_number":null,"address":null,"place":"Online","lat":null,"lon":null,"state":"active","id":null},{"event_id":"theana-game-jam-weeklyjam-23","title":"Theana Game Jam - WeeklyJam #23","url":"https://itch.io/jam/theana-game-jam-weeklyjam-23","shortener_url":"https://bit.ly/4bpMspK","started_at":"2024-06-16T22:00:00.000+09:00","ended_at":"2024-06-23T22:00:00.000+09:00","limit_number":null,"address":null,"place":"Online","lat":null,"lon":null,"state":"active","id":null},{"event_id":"theana-game-jam-weeklyjam-24","title":"Theana Game Jam - WeeklyJam #24","url":"https://itch.io/jam/theana-game-jam-weeklyjam-24","shortener_url":"https://bit.ly/3Wqb4KE","started_at":"2024-06-30T22:00:00.000+09:00","ended_at":"2024-07-07T22:00:00.000+09:00","limit_number":null,"address":null,"place":"Online","lat":null,"lon":null,"state":"active","id":null},{"event_id":"touhou-pride-6","title":"Touhou Pride Game Jam 6","url":"https://itch.io/jam/touhou-pride-6","shortener_url":"https://bit.ly/3UNwVug","started_at":"2024-06-10T04:00:00.000+09:00","ended_at":"2024-06-24T04:00:00.000+09:00","limit_number":null,"address":null,"place":"Online","lat":null,"lon":null,"state":"active","id":null},{"event_id":"3941918","title":"SHIBUYA QWS（渋谷キューズ） 見学ツアー 2024年6月","url":"https://kengaku202406.peatix.com","shortener_url":null,"started_at":"2024-06-12T18:00:00.000+09:00","ended_at":"2024-06-27T00:00:00.000+09:00","limit_number":null,"address":"渋谷区渋谷２丁目２４−１２","place":"SHIBUYA QWS （渋谷キューズ）","lat":35.6584,"lon":139.702,"state":"active","id":null},{"event_id":"ssjresourcemanagement","title":"Summer Slow Jams 2024: Resource Management","url":"https://itch.io/jam/ssjresourcemanagement","shortener_url":"https://bit.ly/3ycpIeq","started_at":"2024-06-09T12:00:00.000+09:00","ended_at":"2024-06-25T15:59:59.000+09:00","limit_number":null,"address":null,"place":"Online","lat":null,"lon":null,"state":"active","id":null},{"event_id":"318572","title":"【PLATEAUハッカソン プレイベント】初めての人に向けて経験者から技術要素やポイントを伝授！","url":"https://asciistartup.connpass.com/event/318572/","shortener_url":"https://bit.ly/3WyUkko","started_at":"2024-06-03T19:30:00.000+09:00","ended_at":"2024-06-03T21:15:00.000+09:00","limit_number":120,"address":"オンライン","place":"オンライン","lat":null,"lon":null,"state":"active","id":null},{"event_id":"318573","title":"PLATEAU Hack Challenge 2024 for ルーキー","url":"https://asciistartup.connpass.com/event/318573/","shortener_url":"https://bit.ly/3WzQDLe","started_at":"2024-06-15T09:50:00.000+09:00","ended_at":"2024-06-16T19:30:00.000+09:00","limit_number":140,"address":"オンライン","place":"オンライン","lat":null,"lon":null,"state":"active","id":null},{"event_id":"3916378","title":"東京オープンデータディ2024　「サステナビリティ」　～社会課題とその解決方法をデータから考える～","url":"https://todd2024.peatix.com","shortener_url":null,"started_at":"2024-06-08T10:00:00.000+09:00","ended_at":"2024-06-09T00:00:00.000+09:00","limit_number":null,"address":"文京区本郷７丁目３−１","place":"ダイワユビキタス学術研究館","lat":35.7081,"lon":139.763,"state":"active","id":null},{"event_id":"olygames-2024","title":"OlyGames 2024 - Prizes!","url":"https://itch.io/jam/olygames-2024","shortener_url":null,"started_at":"2024-06-20T16:00:00.000+09:00","ended_at":"2024-07-29T15:59:59.000+09:00","limit_number":null,"address":null,"place":"Online","lat":null,"lon":null,"state":"active","id":null},{"event_id":"3942625","title":"【2024/6/8(土)13:00〜オンライン開催】書籍『AI時代の職業作曲家スタイル 逆張りのサバイバル戦略』出版直前イベント～「AIとポジティブに向き合う方法」 出演：山口哲一、浅田祐介","url":"https://yamaguchiseminar44pre.peatix.com","shortener_url":null,"started_at":"2024-06-08T13:00:00.000+09:00","ended_at":"2024-06-09T00:00:00.000+09:00","limit_number":null,"address":"","place":"xxxonlineeventxxx","lat":null,"lon":null,"state":"active","id":null},{"event_id":"mini-jame-gam-31","title":"Mini Jame Gam #31","url":"https://itch.io/jam/mini-jame-gam-31","shortener_url":"https://bit.ly/3wwmB0m","started_at":"2024-06-07T20:00:00.000+09:00","ended_at":"2024-06-10T06:00:00.000+09:00","limit_number":null,"address":null,"place":"Online","lat":null,"lon":null,"state":"active","id":null},{"event_id":"bluebeard-jam","title":"Bluebeard Jam","url":"https://itch.io/jam/bluebeard-jam","shortener_url":null,"started_at":"2024-06-10T13:00:00.000+09:00","ended_at":"2024-07-10T13:00:00.000+09:00","limit_number":null,"address":null,"place":"Online","lat":null,"lon":null,"state":"active","id":null},{"event_id":"3958458","title":"Live Excitement Products Hackathon","url":"https://craftstadium.peatix.com","shortener_url":"https://bit.ly/3KoqdF0","started_at":"2024-06-14T18:00:00.000+09:00","ended_at":"2024-06-30T00:00:00.000+09:00","limit_number":null,"address":"京都市下京区石不動之町695番地 枡儀洛央ビル B1F","place":"イベントホール洛央","lat":34.9989,"lon":135.766,"state":"active","id":null},{"event_id":"173477","title":"Startupの入り口・アイデアの作り方を考えてみよう！","url":"https://swiwami.doorkeeper.jp/events/173477","shortener_url":null,"started_at":"2024-06-01T16:00:00.000+09:00","ended_at":"2024-06-01T18:00:00.000+09:00","limit_number":15,"address":"島根県大田市温泉津町小浜イ４９３番地１ ふれあい館2F","place":"コワーキングスペース メガネワークス ","lat":35.0906,"lon":132.356,"state":"active","id":null},{"event_id":"166241","title":"ハックツハッカソン ~ステゴカップ~","url":"https://hackz-community.doorkeeper.jp/events/166241","shortener_url":"https://bit.ly/3Kn71aU","started_at":"2024-06-15T10:00:00.000+09:00","ended_at":"2024-06-16T19:00:00.000+09:00","limit_number":40,"address":"〒811-4153 福岡県宗像市吉留４６１","place":"グローバルアリーナ","lat":33.7928,"lon":130.636,"state":"active","id":null},{"event_id":"173514","title":"”良い”アイデアの作り方（※Startup Weekend 苫小牧vol.5 プレイベント）","url":"https://swtomakomai.doorkeeper.jp/events/173514","shortener_url":null,"started_at":"2024-06-09T10:00:00.000+09:00","ended_at":"2024-06-09T13:00:00.000+09:00","limit_number":20,"address":"北海道苫小牧市表町5丁目11-5 ふれんどビル･テナント棟1F","place":"ココトマ ラウンジ ","lat":42.6398,"lon":141.598,"state":"active","id":null},{"event_id":"170932","title":"未来起点アイデアの作り方","url":"https://swtakamatsu.doorkeeper.jp/events/170932","shortener_url":"https://bit.ly/45515MZ","started_at":"2024-06-23T13:30:00.000+09:00","ended_at":"2024-06-23T15:30:00.000+09:00","limit_number":15,"address":"香川県高松市サンポート2-1 高松シンボルタワー タワー棟4・5階","place":"Setouchi-i-Base","lat":34.3525,"lon":134.047,"state":"active","id":null},{"event_id":"173797","title":"Startup Weekendつくば 12th プレイベント　～アイデアを形にするって面白い～","url":"https://swtsukuba.doorkeeper.jp/events/173797","shortener_url":"https://bit.ly/4c07f3i","started_at":"2024-06-22T18:15:00.000+09:00","ended_at":"2024-06-22T21:00:00.000+09:00","limit_number":50,"address":"茨城県つくば市天久保3丁目21-3 星谷ビル2-A","place":"Tsukuba Place Lab","lat":36.1055,"lon":140.109,"state":"active","id":null},{"event_id":"174006","title":"アントレプレナーの思考法","url":"https://founderscircle.doorkeeper.jp/events/174006","shortener_url":null,"started_at":"2024-06-06T19:00:00.000+09:00","ended_at":"2024-06-06T20:30:00.000+09:00","limit_number":15,"address":null,"place":"","lat":null,"lon":null,"state":"active","id":null},{"event_id":"micro-jam-015","title":"Micro Jam 015: Ghost ($$ Prizes)","url":"https://itch.io/jam/micro-jam-015","shortener_url":"https://bit.ly/3KrY9Aw","started_at":"2024-06-01T07:00:00.000+09:00","ended_at":"2024-06-03T07:00:00.000+09:00","limit_number":null,"address":null,"place":"Online","lat":null,"lon":null,"state":"active","id":null},{"event_id":"3952043","title":"電気学会誘電・絶縁材料研究会「国際会議報告，一般（誘電・絶縁材料，有機薄膜・デバイス）」","url":"https://20240625dei.peatix.com","shortener_url":null,"started_at":"2024-06-25T13:30:00.000+09:00","ended_at":"2024-06-26T00:00:00.000+09:00","limit_number":null,"address":"","place":"xxxonlineeventxxx","lat":null,"lon":null,"state":"active","id":null},{"event_id":"3963571","title":"ミンキー（Claris FileMaker みんなで考えよう・聞いてみよう） #147","url":"https://minkey147.peatix.com","shortener_url":null,"started_at":"2024-06-01T15:00:00.000+09:00","ended_at":"2024-06-02T00:00:00.000+09:00","limit_number":null,"address":"","place":"xxxonlineeventxxx","lat":null,"lon":null,"state":"active","id":null},{"event_id":"3966479","title":"GuardTech検討コミュニティ 第84回ミーティング","url":"https://guardtech84.peatix.com","shortener_url":null,"started_at":"2024-06-13T20:00:00.000+09:00","ended_at":"2024-06-14T00:00:00.000+09:00","limit_number":null,"address":"","place":"xxxonlineeventxxx","lat":null,"lon":null,"state":"active","id":null},{"event_id":"interstellar-game-jam-6","title":"Interstellar Game Jam 6","url":"https://itch.io/jam/interstellar-game-jam-6","shortener_url":"https://bit.ly/3X1E8Zp","started_at":"2024-06-06T13:00:00.000+09:00","ended_at":"2024-06-11T13:00:00.000+09:00","limit_number":null,"address":null,"place":"Online","lat":null,"lon":null,"state":"active","id":null},{"event_id":"3934635","title":"NIKKOワーケーションWEEK","url":"https://week240607.peatix.com","shortener_url":null,"started_at":"2024-06-07T10:00:00.000+09:00","ended_at":"2024-06-15T00:00:00.000+09:00","limit_number":null,"address":"栃木県日光市","place":"栃木県日光市","lat":36.7199,"lon":139.698,"state":"active","id":null},{"event_id":"3960151","title":"【参加費無料】6/7　アイデアソン国分寺：地域を盛り上げるアイデアを創出！テーマ：3Dプリンターの活用方法","url":"https://kokubunji20240607.peatix.com","shortener_url":"https://bit.ly/4aGOSiI","started_at":"2024-06-07T17:00:00.000+09:00","ended_at":"2024-06-08T00:00:00.000+09:00","limit_number":null,"address":"国分寺市南町３丁目２２−１０","place":"オープンイノベーションフィールド多摩 国分寺館","lat":35.6987,"lon":139.478,"state":"active","id":null},{"event_id":"barkeep-jam","title":"Barkeep Jam","url":"https://itch.io/jam/barkeep-jam","shortener_url":null,"started_at":"2024-06-14T19:00:00.000+09:00","ended_at":"2024-08-15T09:00:00.000+09:00","limit_number":null,"address":null,"place":"Online","lat":null,"lon":null,"state":"active","id":null},{"event_id":"thinky-puzzle-game-jam-4","title":"Thinky Puzzle Game Jam 4","url":"https://itch.io/jam/thinky-puzzle-game-jam-4","shortener_url":"https://bit.ly/3VnQsC1","started_at":"2024-06-28T08:00:00.000+09:00","ended_at":"2024-07-06T07:59:59.000+09:00","limit_number":null,"address":null,"place":"Online","lat":null,"lon":null,"state":"active","id":null},{"event_id":"pursuing-pixels-james-jam-game-gam-3","title":"Pursuing Pixels James Jam Game Gam #3","url":"https://itch.io/jam/pursuing-pixels-james-jam-game-gam-3","shortener_url":null,"started_at":"2024-06-17T13:00:00.000+09:00","ended_at":"2024-06-25T13:00:00.000+09:00","limit_number":null,"address":null,"place":"Online","lat":null,"lon":null,"state":"active","id":null},{"event_id":"3949559","title":"鈴鹿サーキット：スタートアップチャレンジ #2","url":"https://suzuka002.peatix.com","shortener_url":null,"started_at":"2024-06-01T09:00:00.000+09:00","ended_at":"2024-06-02T00:00:00.000+09:00","limit_number":null,"address":"鈴鹿市稲生町７９９２","place":"鈴鹿サーキット","lat":34.8437,"lon":136.539,"state":"active","id":null},{"event_id":"3952315","title":"イノベーションラヂヲ#11「人生が20倍変わる！？」、アイディアを生み出し、行動した先に見えるイノベーション","url":"https://innovation-radio11.peatix.com","shortener_url":null,"started_at":"2024-06-05T18:30:00.000+09:00","ended_at":"2024-06-06T00:00:00.000+09:00","limit_number":null,"address":"大阪市北区大深町３−１","place":"グランフロント大阪 北館","lat":34.7059,"lon":135.494,"state":"active","id":null},{"event_id":"trans-representation-jam-24","title":"Trans Representation Jam 24","url":"https://itch.io/jam/trans-representation-jam-24","shortener_url":null,"started_at":"2024-06-22T07:00:00.000+09:00","ended_at":"2024-08-26T07:00:00.000+09:00","limit_number":null,"address":null,"place":"Online","lat":null,"lon":null,"state":"active","id":null},{"event_id":"3953701","title":"「企業の問いで遊んでみる！」QWS Question Storming with NOK","url":"https://qws-question-storming-240621.peatix.com","shortener_url":null,"started_at":"2024-06-21T16:00:00.000+09:00","ended_at":"2024-06-22T00:00:00.000+09:00","limit_number":null,"address":"渋谷区渋谷２丁目 渋谷スクランブルスクエア 15F","place":"SHIBUYA QWS （渋谷キューズ）","lat":35.6584,"lon":139.702,"state":"active","id":null},{"event_id":"the-weirdcore-jam","title":"The Weirdcore Jam","url":"https://itch.io/jam/the-weirdcore-jam","shortener_url":null,"started_at":"2024-06-01T15:00:00.000+09:00","ended_at":"2024-08-01T15:00:00.000+09:00","limit_number":null,"address":null,"place":"Online","lat":null,"lon":null,"state":"active","id":null},{"event_id":"3966069","title":"「デザインレベルを引き上げる！ ユーザー心理の可視化とデザイン検証の進め方」#16","url":"https://uxcaravan-ideation-202406.peatix.com","shortener_url":null,"started_at":"2024-06-11T12:05:00.000+09:00","ended_at":"2024-06-12T00:00:00.000+09:00","limit_number":null,"address":"","place":"xxxonlineeventxxx","lat":null,"lon":null,"state":"active","id":null},{"event_id":"monthly-zeno-jam-1","title":"Monthly ZenoJam-The perfect jam for beginners","url":"https://itch.io/jam/monthly-zeno-jam-1","shortener_url":"https://bit.ly/3wNbArU","started_at":"2024-06-22T18:30:00.000+09:00","ended_at":"2024-07-03T18:30:00.000+09:00","limit_number":null,"address":null,"place":"Online","lat":null,"lon":null,"state":"active","id":null},{"event_id":"3960021","title":"ツクバマチナカソン2024","url":"https://tsukubamachinakathon2024.peatix.com","shortener_url":null,"started_at":"2024-06-22T13:00:00.000+09:00","ended_at":"2024-09-29T00:00:00.000+09:00","limit_number":null,"address":"つくば市吾妻１丁目１０−１ つくばセンタービル １F","place":"co-en（コーエン）","lat":36.0819,"lon":140.114,"state":"active","id":null},{"event_id":"emergencia-gamejam-universidad-publica","title":"Emergencia gamejam I: Universidad Pblica","url":"https://itch.io/jam/emergencia-gamejam-universidad-publica","shortener_url":"https://bit.ly/3V2IvR9","started_at":"2024-06-15T12:00:00.000+09:00","ended_at":"2024-06-24T11:59:59.000+09:00","limit_number":null,"address":null,"place":"Online","lat":null,"lon":null,"state":"active","id":null},{"event_id":"goms-flappy-jam","title":"Gom's FLAPPY JAM","url":"https://itch.io/jam/goms-flappy-jam","shortener_url":null,"started_at":"2024-06-15T01:00:00.000+09:00","ended_at":"2024-06-17T01:00:00.000+09:00","limit_number":null,"address":null,"place":"Online","lat":null,"lon":null,"state":"active","id":null},{"event_id":"gt24","title":"Games Transformed 2024 - No War But Class War","url":"https://itch.io/jam/gt24","shortener_url":null,"started_at":"2024-06-01T08:00:00.000+09:00","ended_at":"2024-06-22T08:00:00.000+09:00","limit_number":null,"address":null,"place":"Online","lat":null,"lon":null,"state":"active","id":null},{"event_id":"fixitvn","title":"\"Fix the Worst Visual Novels\" Jam!","url":"https://itch.io/jam/fixitvn","shortener_url":null,"started_at":"2024-06-07T16:00:00.000+09:00","ended_at":"2024-07-05T16:00:00.000+09:00","limit_number":null,"address":null,"place":"Online","lat":null,"lon":null,"state":"active","id":null},{"event_id":"lame-jam-40","title":"lame jam 40","url":"https://itch.io/jam/lame-jam-40","shortener_url":null,"started_at":"2024-06-14T18:00:00.000+09:00","ended_at":"2024-06-17T18:00:00.000+09:00","limit_number":null,"address":null,"place":"Online","lat":null,"lon":null,"state":"active","id":null},{"event_id":"2024-summer-cougarcup","title":"2024 Summer CougarCup","url":"https://itch.io/jam/2024-summer-cougarcup","shortener_url":null,"started_at":"2024-06-08T04:00:00.000+09:00","ended_at":"2024-06-15T22:00:00.000+09:00","limit_number":null,"address":null,"place":"Online","lat":null,"lon":null,"state":"active","id":null},{"event_id":"vaarn-summer-jam-24","title":"VAARN SUMMER JAM '24","url":"https://itch.io/jam/vaarn-summer-jam-24","shortener_url":null,"started_at":"2024-06-01T08:00:00.000+09:00","ended_at":"2024-09-01T07:00:00.000+09:00","limit_number":null,"address":null,"place":"Online","lat":null,"lon":null,"state":"active","id":null},{"event_id":"devs-that-jam-36hr-challenge-jun24","title":"Devs That Jam 36hr Challenge #3","url":"https://itch.io/jam/devs-that-jam-36hr-challenge-jun24","shortener_url":null,"started_at":"2024-06-29T19:00:00.000+09:00","ended_at":"2024-07-01T07:00:00.000+09:00","limit_number":null,"address":null,"place":"Online","lat":null,"lon":null,"state":"active","id":null},{"event_id":"mehu-jam-3","title":"mehu jam 3","url":"https://itch.io/jam/mehu-jam-3","shortener_url":null,"started_at":"2024-06-14T22:00:00.000+09:00","ended_at":"2024-06-16T22:00:00.000+09:00","limit_number":null,"address":null,"place":"Online","lat":null,"lon":null,"state":"active","id":null},{"event_id":"rev-your-dev-engine","title":"Rev-Your-Engines","url":"https://itch.io/jam/rev-your-dev-engine","shortener_url":null,"started_at":"2024-06-08T13:00:00.000+09:00","ended_at":"2024-06-23T12:59:59.000+09:00","limit_number":null,"address":null,"place":"Online","lat":null,"lon":null,"state":"active","id":null},{"event_id":"indie-city-jams-007-protojam","title":"Indie City Jams #007 - PROTOJAM","url":"https://itch.io/jam/indie-city-jams-007-protojam","shortener_url":null,"started_at":"2024-06-03T03:30:00.000+09:00","ended_at":"2024-06-03T06:30:00.000+09:00","limit_number":null,"address":null,"place":"Online","lat":null,"lon":null,"state":"active","id":null},{"event_id":"abyssals-pixel-game-jam-9","title":"Abyssal's Pixel Game Jam #9","url":"https://itch.io/jam/abyssals-pixel-game-jam-9","shortener_url":"https://bit.ly/455oUV8","started_at":"2024-06-22T01:00:00.000+09:00","ended_at":"2024-06-25T01:00:00.000+09:00","limit_number":null,"address":null,"place":"Online","lat":null,"lon":null,"state":"active","id":null},{"event_id":"chill-jam-9","title":"Chill Devs: Chill Jam 9","url":"https://itch.io/jam/chill-jam-9","shortener_url":"https://bit.ly/455oUEC","started_at":"2024-06-10T06:00:00.000+09:00","ended_at":"2024-06-24T06:00:00.000+09:00","limit_number":null,"address":null,"place":"Online","lat":null,"lon":null,"state":"active","id":null},{"event_id":"cgdc-speedgame-classic-2024","title":"CGDC Speedgame: Classic 2024","url":"https://itch.io/jam/cgdc-speedgame-classic-2024","shortener_url":null,"started_at":"2024-06-01T23:00:00.000+09:00","ended_at":"2024-06-16T12:00:00.000+09:00","limit_number":null,"address":null,"place":"Online","lat":null,"lon":null,"state":"active","id":null},{"event_id":"cfgj12","title":"Construct French Game Jam 12(#CFGJ12)","url":"https://itch.io/jam/cfgj12","shortener_url":"https://bit.ly/3yE37rn","started_at":"2024-06-29T03:00:00.000+09:00","ended_at":"2024-09-02T06:59:59.000+09:00","limit_number":null,"address":null,"place":"Online","lat":null,"lon":null,"state":"active","id":null},{"event_id":"mixjam-12","title":"MixJam 12","url":"https://itch.io/jam/mixjam-12","shortener_url":null,"started_at":"2024-06-03T04:00:00.000+09:00","ended_at":"2024-06-10T04:00:00.000+09:00","limit_number":null,"address":null,"place":"Online","lat":null,"lon":null,"state":"active","id":null},{"event_id":"pixel-asset-pack-jam-9","title":"Pixel Asset Pack Jam #9","url":"https://itch.io/jam/pixel-asset-pack-jam-9","shortener_url":null,"started_at":"2024-06-10T15:00:00.000+09:00","ended_at":"2024-06-24T15:00:00.000+09:00","limit_number":null,"address":null,"place":"Online","lat":null,"lon":null,"state":"active","id":null},{"event_id":"narrascope-jam-2024","title":"NarraScope 2024 Game Jam","url":"https://itch.io/jam/narrascope-jam-2024","shortener_url":"https://bit.ly/3X2Csi5","started_at":"2024-06-07T07:00:00.000+09:00","ended_at":"2024-06-20T14:59:59.000+09:00","limit_number":null,"address":null,"place":"Online","lat":null,"lon":null,"state":"active","id":null},{"event_id":"hyper-1-hour-game-jam-060","title":"Hyper 1 HOUR Game Jam! TOPIC: ??????","url":"https://itch.io/jam/hyper-1-hour-game-jam-060","shortener_url":"https://bit.ly/3wMciWn","started_at":"2024-06-01T07:00:00.000+09:00","ended_at":"2024-06-01T08:10:00.000+09:00","limit_number":null,"address":null,"place":"Online","lat":null,"lon":null,"state":"active","id":null},{"event_id":"ludum-praxi","title":"Ludum Praxi","url":"https://itch.io/jam/ludum-praxi","shortener_url":null,"started_at":"2024-06-16T16:00:00.000+09:00","ended_at":"2024-07-01T16:00:00.000+09:00","limit_number":null,"address":null,"place":"Online","lat":null,"lon":null,"state":"active","id":null},{"event_id":"tigerjam-4-2024","title":"TigerJ(am) #4 2024","url":"https://itch.io/jam/tigerjam-4-2024","shortener_url":null,"started_at":"2024-06-29T01:00:00.000+09:00","ended_at":"2024-07-07T01:00:00.000+09:00","limit_number":null,"address":null,"place":"Online","lat":null,"lon":null,"state":"active","id":null},{"event_id":"frame-game-jam","title":"Frame Games Jam Espaa (premio de hasta 45.000)","url":"https://itch.io/jam/frame-game-jam","shortener_url":null,"started_at":"2024-06-15T00:00:00.000+09:00","ended_at":"2024-06-16T21:00:00.000+09:00","limit_number":null,"address":null,"place":"Online","lat":null,"lon":null,"state":"active","id":null},{"event_id":"drop-bear-mini-fest","title":"Drop Bear Mini Game Fest","url":"https://itch.io/jam/drop-bear-mini-fest","shortener_url":null,"started_at":"2024-06-08T23:00:00.000+09:00","ended_at":"2024-06-18T23:00:00.000+09:00","limit_number":null,"address":null,"place":"Online","lat":null,"lon":null,"state":"active","id":null},{"event_id":"pp-jam-4","title":"PP Jam #4","url":"https://itch.io/jam/pp-jam-4","shortener_url":null,"started_at":"2024-06-08T05:00:00.000+09:00","ended_at":"2024-06-10T05:00:00.000+09:00","limit_number":null,"address":null,"place":"Online","lat":null,"lon":null,"state":"active","id":null},{"event_id":"fr-nouvim-3000-an-2024","title":"[FR] Nouvim 3000 numro 6 (jeux textuels)","url":"https://itch.io/jam/fr-nouvim-3000-an-2024","shortener_url":null,"started_at":"2024-06-01T05:00:00.000+09:00","ended_at":"2024-07-01T05:00:00.000+09:00","limit_number":null,"address":null,"place":"Online","lat":null,"lon":null,"state":"active","id":null},{"event_id":"boss-bash-jam-2","title":"BOSS BASH JAM 2","url":"https://itch.io/jam/boss-bash-jam-2","shortener_url":null,"started_at":"2024-06-18T23:00:00.000+09:00","ended_at":"2024-07-08T23:00:00.000+09:00","limit_number":null,"address":null,"place":"Online","lat":null,"lon":null,"state":"active","id":null},{"event_id":"jama-jam-june-2024","title":"JAMA Jam - June 2024","url":"https://itch.io/jam/jama-jam-june-2024","shortener_url":null,"started_at":"2024-06-01T08:00:00.000+09:00","ended_at":"2024-06-03T08:00:00.000+09:00","limit_number":null,"address":null,"place":"Online","lat":null,"lon":null,"state":"active","id":null},{"event_id":"maliyo-summer-game-jam-2024-edition","title":"Maliyo Summer Game Jam 2024 Edition","url":"https://itch.io/jam/maliyo-summer-game-jam-2024-edition","shortener_url":"https://bit.ly/4chizZh","started_at":"2024-06-21T20:00:00.000+09:00","ended_at":"2024-06-29T07:59:59.000+09:00","limit_number":null,"address":null,"place":"Online","lat":null,"lon":null,"state":"active","id":null},{"event_id":"accountability-jam-june-2024","title":"Accountability Jam: June 2024","url":"https://itch.io/jam/accountability-jam-june-2024","shortener_url":"https://bit.ly/3wNbzEm","started_at":"2024-06-01T08:00:00.000+09:00","ended_at":"2024-07-01T08:00:00.000+09:00","limit_number":null,"address":null,"place":"Online","lat":null,"lon":null,"state":"active","id":null},{"event_id":"games-for-loves-cause-jam-24","title":"Cause Jam 24","url":"https://itch.io/jam/games-for-loves-cause-jam-24","shortener_url":null,"started_at":"2024-06-08T09:00:00.000+09:00","ended_at":"2024-07-01T12:59:59.000+09:00","limit_number":null,"address":null,"place":"Online","lat":null,"lon":null,"state":"active","id":null},{"event_id":"harold-jam-2024","title":"Harold Jam 2024: Heroic Return","url":"https://itch.io/jam/harold-jam-2024","shortener_url":null,"started_at":"2024-06-01T15:00:00.000+09:00","ended_at":"2024-07-01T15:00:00.000+09:00","limit_number":null,"address":null,"place":"Online","lat":null,"lon":null,"state":"active","id":null},{"event_id":"mini-jam-160-light","title":"Mini Jam 160: Light","url":"https://itch.io/jam/mini-jam-160-light","shortener_url":null,"started_at":"2024-06-07T13:00:00.000+09:00","ended_at":"2024-06-10T13:00:00.000+09:00","limit_number":null,"address":null,"place":"Online","lat":null,"lon":null,"state":"active","id":null},{"event_id":"queerjoyjam2024","title":"Queer Joy Jam 2024","url":"https://itch.io/jam/queerjoyjam2024","shortener_url":null,"started_at":"2024-06-14T13:00:00.000+09:00","ended_at":"2024-07-19T13:00:00.000+09:00","limit_number":null,"address":null,"place":"Online","lat":null,"lon":null,"state":"active","id":null},{"event_id":"crossroads-jam-2024","title":"Crossroads Jam","url":"https://itch.io/jam/crossroads-jam-2024","shortener_url":null,"started_at":"2024-06-07T13:00:00.000+09:00","ended_at":"2024-06-22T13:00:00.000+09:00","limit_number":null,"address":null,"place":"Online","lat":null,"lon":null,"state":"active","id":null},{"event_id":"nsfw-minijam-6","title":"NSFW MiniJam #6","url":"https://itch.io/jam/nsfw-minijam-6","shortener_url":"https://bit.ly/3Vmv7Zn","started_at":"2024-06-15T07:00:00.000+09:00","ended_at":"2024-06-24T08:00:00.000+09:00","limit_number":null,"address":null,"place":"Online","lat":null,"lon":null,"state":"active","id":null},{"event_id":"lxdjam24","title":"LXD Jam 24","url":"https://itch.io/jam/lxdjam24","shortener_url":"https://bit.ly/3wX1NiS","started_at":"2024-06-11T17:00:00.000+09:00","ended_at":"2024-06-14T21:00:00.000+09:00","limit_number":null,"address":null,"place":"Online","lat":null,"lon":null,"state":"active","id":null},{"event_id":"rpgm9-concept-jam","title":"RPGM9 Concept Jam","url":"https://itch.io/jam/rpgm9-concept-jam","shortener_url":null,"started_at":"2024-06-15T13:00:00.000+09:00","ended_at":"2024-07-01T13:00:00.000+09:00","limit_number":null,"address":null,"place":"Online","lat":null,"lon":null,"state":"active","id":null},{"event_id":"trijam-273","title":"Trijam #273: The 3 hour game jam","url":"https://itch.io/jam/trijam-273","shortener_url":"https://bit.ly/3X3bc3d","started_at":"2024-06-07T18:00:00.000+09:00","ended_at":"2024-06-10T18:00:00.000+09:00","limit_number":null,"address":null,"place":"Online","lat":null,"lon":null,"state":"active","id":null},{"event_id":"3969824","title":"簡単にオリジナルAIボットが作れる高機能AIアプリ「Coze」徹底解説ウェビナー","url":"https://coze.peatix.com","shortener_url":null,"started_at":"2024-06-08T19:00:00.000+09:00","ended_at":"2024-06-09T00:00:00.000+09:00","limit_number":null,"address":"","place":"xxxonlineeventxxx","lat":null,"lon":null,"state":"active","id":null},{"event_id":"3912816","title":"うず・うずカイギin Nikko #5 うずうずアイディアソンin Nikko","url":"https://peatix.com/event/3912816","shortener_url":"https://bit.ly/3V7UzR6","started_at":"2024-06-13T18:00:00.000+09:00","ended_at":"2024-06-14T00:00:00.000+09:00","limit_number":null,"address":"日光市御幸町５９１","place":"mekke日光郷土センター","lat":36.7499,"lon":139.611,"state":"active","id":null},{"event_id":"3968072","title":"社内新規事業プログラムで社員を動かすには？　－アイデアを、生み、高める、実践集－","url":"https://eiicon-event-20240613.peatix.com","shortener_url":null,"started_at":"2024-06-13T17:30:00.000+09:00","ended_at":"2024-06-14T00:00:00.000+09:00","limit_number":null,"address":"","place":"xxxonlineeventxxx","lat":null,"lon":null,"state":"active","id":null},{"event_id":"-zombeez-game-jam-by-fan-studio","title":"Zombeez Game Jam by Fan Studio♂","url":"https://itch.io/jam/-zombeez-game-jam-by-fan-studio","shortener_url":"https://bit.ly/4aOlOWG","started_at":"2024-06-14T06:00:00.000+09:00","ended_at":"2024-07-01T05:59:00.000+09:00","limit_number":null,"address":null,"place":"Online","lat":null,"lon":null,"state":"active","id":null},{"event_id":"3966101","title":"生成AIで変わる！カスタマージャニーマップを使ったアイデア発想法","url":"https://uxcaravan-ai-202406.peatix.com","shortener_url":null,"started_at":"2024-06-20T14:00:00.000+09:00","ended_at":"2024-06-21T00:00:00.000+09:00","limit_number":null,"address":"","place":"xxxonlineeventxxx","lat":null,"lon":null,"state":"active","id":null},{"event_id":"black-cat-jam-1","title":"Black Cat Jam","url":"https://itch.io/jam/black-cat-jam-1","shortener_url":null,"started_at":"2024-06-25T23:00:00.000+09:00","ended_at":"2024-07-01T23:00:00.000+09:00","limit_number":null,"address":null,"place":"Online","lat":null,"lon":null,"state":"active","id":null},{"event_id":"doujin-fest","title":"Doujin Fest","url":"https://itch.io/jam/doujin-fest","shortener_url":null,"started_at":"2024-06-03T19:00:00.000+09:00","ended_at":"2024-10-04T18:59:59.000+09:00","limit_number":null,"address":null,"place":"Online","lat":null,"lon":null,"state":"active","id":null},{"event_id":"gcpl-creative-crunch-2024","title":"GCPL Creative Crunch 2024","url":"https://itch.io/jam/gcpl-creative-crunch-2024","shortener_url":"https://bit.ly/3V1KXrf","started_at":"2024-06-29T23:30:00.000+09:00","ended_at":"2024-07-02T03:00:00.000+09:00","limit_number":null,"address":null,"place":"Online","lat":null,"lon":null,"state":"active","id":null},{"event_id":"summerjam-2024","title":"Summer Jam 2024","url":"https://itch.io/jam/summerjam-2024","shortener_url":"https://bit.ly/4aLRA6S","started_at":"2024-06-25T20:00:00.000+09:00","ended_at":"2024-07-03T00:00:00.000+09:00","limit_number":null,"address":null,"place":"Online","lat":null,"lon":null,"state":"active","id":null},{"event_id":"172192","title":"［無料］ アントレプレナーの思考法","url":"https://swnagaoka.doorkeeper.jp/events/172192","shortener_url":null,"started_at":"2024-06-23T20:30:00.000+09:00","ended_at":"2024-06-23T22:00:00.000+09:00","limit_number":15,"address":null,"place":"","lat":null,"lon":null,"state":"active","id":null},{"event_id":"queerwrath","title":"QUEER WRATH GAME JAM","url":"https://itch.io/jam/queerwrath","shortener_url":"https://bit.ly/3UYwOek","started_at":"2024-06-04T13:00:00.000+09:00","ended_at":"2024-07-01T12:59:59.000+09:00","limit_number":null,"address":null,"place":"Online","lat":null,"lon":null,"state":"active","id":null},{"event_id":"libgdx-jam-29","title":"libGDX Jam 29","url":"https://itch.io/jam/libgdx-jam-29","shortener_url":null,"started_at":"2024-06-16T09:00:00.000+09:00","ended_at":"2024-06-23T09:00:00.000+09:00","limit_number":null,"address":null,"place":"Online","lat":null,"lon":null,"state":"active","id":null},{"event_id":"hyper-1-hour-game-jam-061","title":"Hyper 1 HOUR Game Jam! TOPIC: ??????","url":"https://itch.io/jam/hyper-1-hour-game-jam-061","shortener_url":"https://bit.ly/3X6TBau","started_at":"2024-06-08T07:00:00.000+09:00","ended_at":"2024-06-08T08:10:00.000+09:00","limit_number":null,"address":null,"place":"Online","lat":null,"lon":null,"state":"active","id":null},{"event_id":"micro-jam-016","title":"Micro Jam 016: Space ($$ Prizes)","url":"https://itch.io/jam/micro-jam-016","shortener_url":"https://bit.ly/3V8ZGAN","started_at":"2024-06-15T07:00:00.000+09:00","ended_at":"2024-06-17T07:00:00.000+09:00","limit_number":null,"address":null,"place":"Online","lat":null,"lon":null,"state":"active","id":null},{"event_id":"3943924","title":"都知事杯オープンデータ・ハッカソン 2024 募集イベント 1","url":"https://odh-tokyo2024-pre1.peatix.com","shortener_url":"https://bit.ly/459zhr9","started_at":"2024-06-08T14:00:00.000+09:00","ended_at":"2024-06-09T00:00:00.000+09:00","limit_number":null,"address":"","place":"xxxonlineeventxxx","lat":null,"lon":null,"state":"active","id":null},{"event_id":"3966172","title":"都知事杯オープンデータ・ハッカソン 2024 募集イベント 2","url":"https://odh-tokyo2024-pre2.peatix.com","shortener_url":"https://bit.ly/4c69NNB","started_at":"2024-06-22T14:00:00.000+09:00","ended_at":"2024-06-23T00:00:00.000+09:00","limit_number":null,"address":"","place":"xxxonlineeventxxx","lat":null,"lon":null,"state":"active","id":null},{"event_id":"godocikowy-dzem-10","title":"Godocikowy Dem #10","url":"https://itch.io/jam/godocikowy-dzem-10","shortener_url":null,"started_at":"2024-06-08T01:00:00.000+09:00","ended_at":"2024-06-10T06:59:59.000+09:00","limit_number":null,"address":null,"place":"Online","lat":null,"lon":null,"state":"active","id":null},{"event_id":"summer-horror-jam-2024","title":"Summer  Horror Jam 2024","url":"https://itch.io/jam/summer-horror-jam-2024","shortener_url":null,"started_at":"2024-06-22T02:00:00.000+09:00","ended_at":"2024-09-22T02:00:00.000+09:00","limit_number":null,"address":null,"place":"Online","lat":null,"lon":null,"state":"active","id":null},{"event_id":"the-foot-jam","title":"The Foot Jam","url":"https://itch.io/jam/the-foot-jam","shortener_url":null,"started_at":"2024-06-28T12:00:00.000+09:00","ended_at":"2024-07-01T12:00:00.000+09:00","limit_number":null,"address":null,"place":"Online","lat":null,"lon":null,"state":"active","id":null},{"event_id":"polo-sul-gamejam-2024","title":"Polo Sul gamejam 2024","url":"https://itch.io/jam/polo-sul-gamejam-2024","shortener_url":"https://bit.ly/3RaMWbu","started_at":"2024-06-07T12:00:00.000+09:00","ended_at":"2024-06-09T12:00:00.000+09:00","limit_number":null,"address":null,"place":"Online","lat":null,"lon":null,"state":"active","id":null},{"event_id":"buddy-up-jam-spring-2024","title":"Buddy Up Jam: Spring 2024","url":"https://itch.io/jam/buddy-up-jam-spring-2024","shortener_url":null,"started_at":"2024-06-14T20:00:00.000+09:00","ended_at":"2024-07-01T02:00:00.000+09:00","limit_number":null,"address":null,"place":"Online","lat":null,"lon":null,"state":"active","id":null},{"event_id":"3969446","title":"「ココから人生が変わった」女性のための4日間の自己開発合宿「GILP」　無料説明会","url":"https://gilp-online.peatix.com","shortener_url":"https://bit.ly/3RfhfOm","started_at":"2024-06-08T20:00:00.000+09:00","ended_at":"2024-06-25T00:00:00.000+09:00","limit_number":null,"address":"","place":"xxxonlineeventxxx","lat":null,"lon":null,"state":"active","id":null},{"event_id":"3969208","title":"『AI時代の職業作曲家スタイル 逆張りのサバイバル戦略』発売記念トークイベント：AI嫌悪は現代のラッダイト運動だ！宣言／山口哲一＋浅田祐介＋すがやみつる（ゲスト）","url":"https://rm-ai.peatix.com","shortener_url":null,"started_at":"2024-06-30T15:00:00.000+09:00","ended_at":"2024-07-08T00:00:00.000+09:00","limit_number":null,"address":"","place":"xxxonlineeventxxx","lat":null,"lon":null,"state":"active","id":null},{"event_id":"3970032","title":"いばらき家業イノベーションサミット2024","url":"https://ibaraki-kagyo-innovation-summit-2024.peatix.com","shortener_url":null,"started_at":"2024-06-29T13:00:00.000+09:00","ended_at":"2024-06-30T00:00:00.000+09:00","limit_number":null,"address":"","place":"xxxonlineeventxxx","lat":null,"lon":null,"state":"active","id":null},{"event_id":"untitled-game-jam-94","title":"Untitled Game Jam #94","url":"https://itch.io/jam/untitled-game-jam-94","shortener_url":"https://bit.ly/45b5a2e","started_at":"2024-06-14T09:00:00.000+09:00","ended_at":"2024-06-24T09:00:00.000+09:00","limit_number":null,"address":null,"place":"Online","lat":null,"lon":null,"state":"active","id":null},{"event_id":"4013580","title":"ミンキー（Claris FileMaker みんなで考えよう・聞いてみよう） #148","url":"https://minkey148.peatix.com","shortener_url":null,"started_at":"2024-06-08T15:00:00.000+09:00","ended_at":"2024-06-09T00:00:00.000+09:00","limit_number":null,"address":"","place":"xxxonlineeventxxx","lat":null,"lon":null,"state":"active","id":null},{"event_id":"3971092","title":"『ザ・スタートアップ ネット起業！あのバカにやらせてみよう』出版記念パーティー","url":"https://anobakafukkan.peatix.com","shortener_url":null,"started_at":"2024-06-20T19:00:00.000+09:00","ended_at":"2024-06-21T00:00:00.000+09:00","limit_number":null,"address":"港区虎ノ門５丁目 9 番 1","place":"麻布台ヒルズ ガーデンプラザB","lat":35.6618,"lon":139.744,"state":"active","id":null},{"event_id":"2d-game-jam-official","title":"2D Game Jam - 2024","url":"https://itch.io/jam/2d-game-jam-official","shortener_url":"https://bit.ly/3KzAsXg","started_at":"2024-06-21T07:00:00.000+09:00","ended_at":"2024-07-01T01:00:00.000+09:00","limit_number":null,"address":null,"place":"Online","lat":null,"lon":null,"state":"active","id":null},{"event_id":"trijam-274","title":"Trijam #274: The 3 hour game jam","url":"https://itch.io/jam/trijam-274","shortener_url":"https://bit.ly/3yTczra","started_at":"2024-06-14T18:00:00.000+09:00","ended_at":"2024-06-17T18:00:00.000+09:00","limit_number":null,"address":null,"place":"Online","lat":null,"lon":null,"state":"active","id":null},{"event_id":"migjam-20","title":"MigJam #20 | Winner $20","url":"https://itch.io/jam/migjam-20","shortener_url":"https://bit.ly/3KzNGn2","started_at":"2024-06-15T11:00:00.000+09:00","ended_at":"2024-06-30T11:00:00.000+09:00","limit_number":null,"address":null,"place":"Online","lat":null,"lon":null,"state":"active","id":null},{"event_id":"friendly-music-jam-2","title":"Friendly Music Jam 2","url":"https://itch.io/jam/friendly-music-jam-2","shortener_url":null,"started_at":"2024-06-28T15:00:00.000+09:00","ended_at":"2024-07-12T15:00:00.000+09:00","limit_number":null,"address":null,"place":"Online","lat":null,"lon":null,"state":"active","id":null},{"event_id":"hyper-1-hour-game-jam-062","title":"Hyper 1 HOUR Game Jam! TOPIC: ??????","url":"https://itch.io/jam/hyper-1-hour-game-jam-062","shortener_url":"https://bit.ly/4edfon4","started_at":"2024-06-15T07:00:00.000+09:00","ended_at":"2024-06-15T08:10:00.000+09:00","limit_number":null,"address":null,"place":"Online","lat":null,"lon":null,"state":"active","id":null},{"event_id":"4017241","title":"簡単にオリジナルAIボットが作れる「Coze」業務活用ウェビナー","url":"https://coze2.peatix.com","shortener_url":null,"started_at":"2024-06-17T19:00:00.000+09:00","ended_at":"2024-06-18T00:00:00.000+09:00","limit_number":null,"address":"","place":"xxxonlineeventxxx","lat":null,"lon":null,"state":"active","id":null},{"event_id":"4018185","title":"【参加費無料！】しゃべくらべ Vol.21｜地方×パラレルキャリア-奈良・三島・南相馬で活躍している3名でしゃべくらべ！","url":"https://peatix.com/event/4018185","shortener_url":null,"started_at":"2024-06-25T19:30:00.000+09:00","ended_at":"2024-06-26T00:00:00.000+09:00","limit_number":null,"address":"","place":"xxxonlineeventxxx","lat":null,"lon":null,"state":"active","id":null},{"event_id":"4017530","title":"Co-Souビジネスコンチェルト #2","url":"https://co-sou-event2.peatix.com","shortener_url":null,"started_at":"2024-06-28T19:00:00.000+09:00","ended_at":"2024-07-15T00:00:00.000+09:00","limit_number":null,"address":"港区港南２丁目１６−１","place":"品川イーストワンタワー","lat":35.6279,"lon":139.741,"state":"active","id":null},{"event_id":"4013714","title":"NEUU活用アイデアソン #1  by  \"Beyond The Frame Studio\"","url":"https://neuuidea.peatix.com","shortener_url":"https://bit.ly/3x9OXOp","started_at":"2024-06-30T18:00:00.000+09:00","ended_at":"2024-07-01T00:00:00.000+09:00","limit_number":null,"address":"新宿区西新宿１丁目５−１１","place":"NEUU XR Communication Hub","lat":35.6928,"lon":139.698,"state":"active","id":null},{"event_id":"4016176","title":"REFUGEE WEEK@PYNT｜ よりよい難民キャンプの環境とは？ -難民シェルターの事例紹介＆アイデアソンワークショップ-","url":"https://refugeeweek0620.peatix.com","shortener_url":"https://bit.ly/3x8lkgs","started_at":"2024-06-20T18:30:00.000+09:00","ended_at":"2024-06-21T00:00:00.000+09:00","limit_number":null,"address":"千代田区飯田橋２丁目１８−３ 日建設計東京本社ビル","place":"㈱日建設計","lat":35.6995,"lon":139.751,"state":"active","id":null},{"event_id":"4016079","title":"炎上から学ぶ！日本とイギリスの広告BAR","url":"https://enjocheck.peatix.com","shortener_url":null,"started_at":"2024-06-13T17:30:00.000+09:00","ended_at":"2024-06-14T00:00:00.000+09:00","limit_number":null,"address":"〒151-0053 東京都渋谷区代々木１丁目１０−７ B1F","place":"代々木のバーchill house(チルハウス)","lat":35.682,"lon":139.698,"state":"active","id":null},{"event_id":"pp-jam-5","title":"PP Jam #5","url":"https://itch.io/jam/pp-jam-5","shortener_url":null,"started_at":"2024-06-22T05:00:00.000+09:00","ended_at":"2024-06-24T06:00:00.000+09:00","limit_number":null,"address":null,"place":"Online","lat":null,"lon":null,"state":"active","id":null},{"event_id":"vr-jam-2","title":"VR Jam 2","url":"https://itch.io/jam/vr-jam-2","shortener_url":null,"started_at":"2024-06-21T22:00:00.000+09:00","ended_at":"2024-07-01T13:00:00.000+09:00","limit_number":null,"address":null,"place":"Online","lat":null,"lon":null,"state":"active","id":null},{"event_id":"ranked-practice-jam-6","title":"Ranked Practice Jam #6","url":"https://itch.io/jam/ranked-practice-jam-6","shortener_url":null,"started_at":"2024-06-17T23:00:00.000+09:00","ended_at":"2024-06-25T12:59:59.000+09:00","limit_number":null,"address":null,"place":"Online","lat":null,"lon":null,"state":"active","id":null},{"event_id":"practice-jam-6","title":"Practice Jam #6","url":"https://itch.io/jam/practice-jam-6","shortener_url":null,"started_at":"2024-06-17T23:00:00.000+09:00","ended_at":"2024-06-25T12:59:59.000+09:00","limit_number":null,"address":null,"place":"Online","lat":null,"lon":null,"state":"active","id":null},{"event_id":"gdk-summer-jam-2024","title":"GDK Summer Jam 2024","url":"https://itch.io/jam/gdk-summer-jam-2024","shortener_url":null,"started_at":"2024-06-22T08:00:00.000+09:00","ended_at":"2024-06-24T08:00:00.000+09:00","limit_number":null,"address":null,"place":"Online","lat":null,"lon":null,"state":"active","id":null},{"event_id":"scorejam30","title":"ScoreSpace Jam #30! ","url":"https://itch.io/jam/scorejam30","shortener_url":"https://bit.ly/3KFb7uS","started_at":"2024-06-22T04:00:00.000+09:00","ended_at":"2024-06-25T04:00:00.000+09:00","limit_number":null,"address":null,"place":"Online","lat":null,"lon":null,"state":"active","id":null},{"event_id":"4020305","title":"WheeLog!アプリ超会議 in Zoom 2024","url":"https://wheelog20240616.peatix.com","shortener_url":null,"started_at":"2024-06-16T20:00:00.000+09:00","ended_at":"2024-06-17T00:00:00.000+09:00","limit_number":null,"address":"","place":"xxxonlineeventxxx","lat":null,"lon":null,"state":"active","id":null},{"event_id":"side-task-2024","title":"Side Task 2024 - Edio GREVE 2024","url":"https://itch.io/jam/side-task-2024","shortener_url":"https://bit.ly/3RsDzUJ","started_at":"2024-06-15T10:00:00.000+09:00","ended_at":"2024-06-22T07:00:00.000+09:00","limit_number":null,"address":null,"place":"Online","lat":null,"lon":null,"state":"active","id":null},{"event_id":"semplice","title":"Semplice","url":"https://itch.io/jam/semplice","shortener_url":null,"started_at":"2024-06-22T16:00:00.000+09:00","ended_at":"2024-07-01T16:00:00.000+09:00","limit_number":null,"address":null,"place":"Online","lat":null,"lon":null,"state":"active","id":null},{"event_id":"wild-and-proud","title":"Wild and Proud","url":"https://itch.io/jam/wild-and-proud","shortener_url":null,"started_at":"2024-06-22T05:00:00.000+09:00","ended_at":"2024-06-25T05:00:00.000+09:00","limit_number":null,"address":null,"place":"Online","lat":null,"lon":null,"state":"active","id":null},{"event_id":"4021631","title":"『スマートライフ実現に向けて』のAI活用セミナー開催！【6/21・22開催 松山セミナー①】","url":"https://peatix.com/event/4021631","shortener_url":null,"started_at":"2024-06-21T18:30:00.000+09:00","ended_at":"2024-06-22T00:00:00.000+09:00","limit_number":null,"address":"松山市湊町７丁目","place":"松山市総合コミュニティセンター 文化ホール・会議室","lat":33.8364,"lon":132.755,"state":"active","id":null},{"event_id":"4021706","title":"『スマートライフ実現に向けて』のAI活用セミナー開催！","url":"https://peatix.com/event/4021706","shortener_url":null,"started_at":"2024-06-22T13:30:00.000+09:00","ended_at":"2024-06-23T00:00:00.000+09:00","limit_number":null,"address":"松山市湊町７丁目","place":"松山市総合コミュニティセンター 文化ホール・会議室","lat":33.8364,"lon":132.755,"state":"active","id":null},{"event_id":"4021708","title":"『スマートライフ実現に向けて』のAI活用セミナー開催！【6/28・29開催 松山セミナー②】","url":"https://peatix.com/event/4021708","shortener_url":null,"started_at":"2024-06-28T18:30:00.000+09:00","ended_at":"2024-06-29T00:00:00.000+09:00","limit_number":null,"address":"松山市湊町７丁目","place":"松山市総合コミュニティセンター 文化ホール・会議室","lat":33.8364,"lon":132.755,"state":"active","id":null},{"event_id":"4021709","title":"『スマートライフ実現に向けて』のAI活用セミナー開催！","url":"https://peatix.com/event/4021709","shortener_url":null,"started_at":"2024-06-29T13:30:00.000+09:00","ended_at":"2024-06-30T00:00:00.000+09:00","limit_number":null,"address":"松山市湊町７丁目","place":"松山市総合コミュニティセンター 文化ホール・会議室","lat":33.8364,"lon":132.755,"state":"active","id":null},{"event_id":"alchemyjam-1","title":"Alchemy Jam","url":"https://itch.io/jam/alchemyjam-1","shortener_url":null,"started_at":"2024-06-23T22:00:00.000+09:00","ended_at":"2024-07-02T01:00:00.000+09:00","limit_number":null,"address":null,"place":"Online","lat":null,"lon":null,"state":"active","id":null},{"event_id":"4022496","title":"『未来を創る』 AIツール 活用セミナー≪4日間通しのカリキュラムとなります≫","url":"https://peatix.com/event/4022496","shortener_url":null,"started_at":"2024-06-25T13:30:00.000+09:00","ended_at":"2024-06-26T00:00:00.000+09:00","limit_number":null,"address":"高知市帯屋町１丁目１４−９","place":"オビヤギルド","lat":33.5606,"lon":133.538,"state":"active","id":null},{"event_id":"mini-jam-161-style","title":"Mini Jam 161: Style","url":"https://itch.io/jam/mini-jam-161-style","shortener_url":null,"started_at":"2024-06-21T13:00:00.000+09:00","ended_at":"2024-06-24T13:00:00.000+09:00","limit_number":null,"address":null,"place":"Online","lat":null,"lon":null,"state":"active","id":null},{"event_id":"imaginary-game-jam-2024","title":"Imaginary Game Jam 2024 ($1000 Cash Prizes)","url":"https://itch.io/jam/imaginary-game-jam-2024","shortener_url":"https://bit.ly/3VncZNT","started_at":"2024-06-23T23:00:00.000+09:00","ended_at":"2024-07-07T09:00:00.000+09:00","limit_number":null,"address":null,"place":"Online","lat":null,"lon":null,"state":"active","id":null},{"event_id":"trijam-275","title":"Trijam #275: The 3 hour game jam","url":"https://itch.io/jam/trijam-275","shortener_url":"https://bit.ly/3VncVO9","started_at":"2024-06-21T18:00:00.000+09:00","ended_at":"2024-06-24T18:00:00.000+09:00","limit_number":null,"address":null,"place":"Online","lat":null,"lon":null,"state":"active","id":null},{"event_id":"hyper-1-hour-game-jam-063","title":"Hyper 1 HOUR Game Jam! TOPIC: ??????","url":"https://itch.io/jam/hyper-1-hour-game-jam-063","shortener_url":"https://bit.ly/3VIaebf","started_at":"2024-06-22T07:00:00.000+09:00","ended_at":"2024-06-22T08:10:00.000+09:00","limit_number":null,"address":null,"place":"Online","lat":null,"lon":null,"state":"active","id":null},{"event_id":"4023630","title":"GuardTech検討コミュニティ 第85回ミーティング","url":"https://guardtech85.peatix.com","shortener_url":null,"started_at":"2024-06-27T20:00:00.000+09:00","ended_at":"2024-06-28T00:00:00.000+09:00","limit_number":null,"address":"","place":"xxxonlineeventxxx","lat":null,"lon":null,"state":"active","id":null},{"event_id":"tile-art-challenge","title":"8 Bits to Infinity Tile Art Challenge","url":"https://itch.io/jam/tile-art-challenge","shortener_url":null,"started_at":"2024-06-22T02:00:00.000+09:00","ended_at":"2024-06-24T02:00:00.000+09:00","limit_number":null,"address":null,"place":"Online","lat":null,"lon":null,"state":"active","id":null},{"event_id":"4024778","title":"土中ラジオ公開収録","url":"https://peatix.com/event/4024778","shortener_url":null,"started_at":"2024-06-27T19:30:00.000+09:00","ended_at":"2024-06-28T00:00:00.000+09:00","limit_number":null,"address":"","place":"xxxonlineeventxxx","lat":null,"lon":null,"state":"active","id":null},{"event_id":"micro-jam-017","title":"Micro Jam 017: Islands ($$ Prizes)","url":"https://itch.io/jam/micro-jam-017","shortener_url":"https://bit.ly/4crlqP4","started_at":"2024-06-29T07:00:00.000+09:00","ended_at":"2024-07-01T07:00:00.000+09:00","limit_number":null,"address":null,"place":"Online","lat":null,"lon":null,"state":"active","id":null},{"event_id":"game-gen-kt-summer-game-jam","title":"Game Gen K\u0026T Summer 2024 Game Jam!","url":"https://itch.io/jam/game-gen-kt-summer-game-jam","shortener_url":"https://bit.ly/3xqjXd5","started_at":"2024-06-30T03:00:00.000+09:00","ended_at":"2024-07-21T05:00:00.000+09:00","limit_number":null,"address":null,"place":"Online","lat":null,"lon":null,"state":"active","id":null},{"event_id":"4027603","title":"【残り1席】Coze Meetup","url":"https://coze3.peatix.com","shortener_url":null,"started_at":"2024-06-29T15:00:00.000+09:00","ended_at":"2024-06-30T00:00:00.000+09:00","limit_number":null,"address":"渋谷","place":"渋谷(詳細は参加確定後にメール通知)","lat":35.6604,"lon":139.705,"state":"active","id":null},{"event_id":"4025737","title":"「安全・安心を支える」防災メーカーの未来共創プロジェクト","url":"https://wwwprojects.peatix.com","shortener_url":null,"started_at":"2024-06-18T09:00:00.000+09:00","ended_at":"2024-08-19T00:00:00.000+09:00","limit_number":null,"address":"","place":"xxxonlineeventxxx","lat":null,"lon":null,"state":"active","id":null},{"event_id":"scratch-game-jam-16","title":"Scratch Game Jam #16","url":"https://itch.io/jam/scratch-game-jam-16","shortener_url":null,"started_at":"2024-06-28T09:00:00.000+09:00","ended_at":"2024-07-12T09:00:00.000+09:00","limit_number":null,"address":null,"place":"Online","lat":null,"lon":null,"state":"active","id":null},{"event_id":"nsjs-2024-jam-1","title":"Novice Summer Jam Series 2024: Mini Jam 1","url":"https://itch.io/jam/nsjs-2024-jam-1","shortener_url":null,"started_at":"2024-06-28T21:00:00.000+09:00","ended_at":"2024-06-30T21:00:00.000+09:00","limit_number":null,"address":null,"place":"Online","lat":null,"lon":null,"state":"active","id":null},{"event_id":"interactive-fiction-club","title":"Interactive Fiction Club","url":"https://itch.io/jam/interactive-fiction-club","shortener_url":null,"started_at":"2024-06-28T13:00:00.000+09:00","ended_at":"2024-07-28T13:00:00.000+09:00","limit_number":null,"address":null,"place":"Online","lat":null,"lon":null,"state":"active","id":null},{"event_id":"discodevsgamejam2024","title":"DisCo Devs Game Jam 2024","url":"https://itch.io/jam/discodevsgamejam2024","shortener_url":null,"started_at":"2024-06-28T13:00:00.000+09:00","ended_at":"2024-07-14T12:00:00.000+09:00","limit_number":null,"address":null,"place":"Online","lat":null,"lon":null,"state":"active","id":null},{"event_id":"trijam-276","title":"Trijam #276: The 3 hour game jam","url":"https://itch.io/jam/trijam-276","shortener_url":null,"started_at":"2024-06-28T18:00:00.000+09:00","ended_at":"2024-07-01T18:00:00.000+09:00","limit_number":null,"address":null,"place":"Online","lat":null,"lon":null,"state":"active","id":null},{"event_id":"174928","title":"アイデア気軽に相談室","url":"https://founderscircle.doorkeeper.jp/events/174928","shortener_url":null,"started_at":"2024-06-23T19:00:00.000+09:00","ended_at":"2024-06-23T20:00:00.000+09:00","limit_number":5,"address":null,"place":"","lat":null,"lon":null,"state":"active","id":null},{"event_id":"indie-city-allstars-2024","title":"Indie City Allstars - 2024","url":"https://itch.io/jam/indie-city-allstars-2024","shortener_url":null,"started_at":"2024-06-29T02:00:00.000+09:00","ended_at":"2024-07-18T13:59:59.000+09:00","limit_number":null,"address":null,"place":"Online","lat":null,"lon":null,"state":"active","id":null},{"event_id":"uop-game-jam-2024","title":"UoP Game Jam 2024","url":"https://itch.io/jam/uop-game-jam-2024","shortener_url":null,"started_at":"2024-06-24T18:00:00.000+09:00","ended_at":"2024-06-28T17:00:00.000+09:00","limit_number":null,"address":null,"place":"Online","lat":null,"lon":null,"state":"active","id":null},{"event_id":"hyper-1-hour-game-jam-064","title":"Hyper 1 HOUR Game Jam! TOPIC: ??????","url":"https://itch.io/jam/hyper-1-hour-game-jam-064","shortener_url":null,"started_at":"2024-06-29T07:00:00.000+09:00","ended_at":"2024-06-29T08:10:00.000+09:00","limit_number":null,"address":null,"place":"Online","lat":null,"lon":null,"state":"active","id":null},{"event_id":"bbq-jam-2024","title":"BBQ Jam 2024","url":"https://itch.io/jam/bbq-jam-2024","shortener_url":null,"started_at":"2024-06-29T01:00:00.000+09:00","ended_at":"2024-07-01T01:00:00.000+09:00","limit_number":null,"address":null,"place":"Online","lat":null,"lon":null,"state":"active","id":null},{"event_id":"4035787","title":"ミンキー（Claris FileMaker みんなで考えよう・聞いてみよう） #150","url":"https://minkey150.peatix.com","shortener_url":null,"started_at":"2024-06-29T15:00:00.000+09:00","ended_at":"2024-06-30T00:00:00.000+09:00","limit_number":null,"address":"","place":"xxxonlineeventxxx","lat":null,"lon":null,"state":"active","id":null},{"event_id":"yahaha-3-day-challenge-2","title":"YAHAHA 3-DAY HORROR CHALLENGE #2","url":"https://itch.io/jam/yahaha-3-day-challenge-2","shortener_url":null,"started_at":"2024-06-28T21:00:00.000+09:00","ended_at":"2024-07-01T20:59:59.000+09:00","limit_number":null,"address":null,"place":"Online","lat":null,"lon":null,"state":"active","id":null},{"event_id":"pride-game-jam-hki-2024","title":"Pride Game Jam HKI 2024","url":"https://itch.io/jam/pride-game-jam-hki-2024","shortener_url":null,"started_at":"2024-06-29T00:00:00.000+09:00","ended_at":"2024-06-30T23:00:00.000+09:00","limit_number":null,"address":null,"place":"Online","lat":null,"lon":null,"state":"active","id":null},{"event_id":"pygame-community-summer-jam-2024","title":"Pygame Community Summer Jam 2024","url":"https://itch.io/jam/pygame-community-summer-jam-2024","shortener_url":null,"started_at":"2024-06-30T09:00:00.000+09:00","ended_at":"2024-07-14T09:00:00.000+09:00","limit_number":null,"address":null,"place":"Online","lat":null,"lon":null,"state":"active","id":null},{"event_id":null,"title":"Spring Hacks by Code4TheFuture","url":"https://springhacks2024.devpost.com/","shortener_url":null,"started_at":"2024-06-12T09:00:00.000+09:00","ended_at":"2024-08-29T09:00:00.000+09:00","limit_number":null,"address":null,"place":"Online","lat":null,"lon":null,"state":"active","id":null},{"event_id":null,"title":"FuturistFest 2024 X NASA","url":"https://futuristfest-2024.devpost.com/","shortener_url":null,"started_at":"2024-06-20T09:00:00.000+09:00","ended_at":"2024-09-20T09:00:00.000+09:00","limit_number":null,"address":null,"place":"Online","lat":null,"lon":null,"state":"active","id":null},{"event_id":null,"title":"SummerHacks By YCW","url":"https://summerhacks24.devpost.com/","shortener_url":null,"started_at":"2024-06-10T09:00:00.000+09:00","ended_at":"2024-10-06T09:00:00.000+09:00","limit_number":null,"address":null,"place":"Online","lat":null,"lon":null,"state":"active","id":null},{"event_id":null,"title":"InnovateHacks 2.0","url":"https://innovatedhs.devpost.com/","shortener_url":null,"started_at":"2024-06-14T09:00:00.000+09:00","ended_at":"2024-11-16T09:00:00.000+09:00","limit_number":null,"address":null,"place":"Online","lat":null,"lon":null,"state":"active","id":null},{"event_id":null,"title":"Hackatra 2024","url":"https://hackatra2024.devpost.com/","shortener_url":null,"started_at":"2024-06-14T09:00:00.000+09:00","ended_at":"2024-08-24T09:00:00.000+09:00","limit_number":null,"address":null,"place":"Online","lat":null,"lon":null,"state":"active","id":null},{"event_id":null,"title":"AnimalHack 2024","url":"https://animalhack2024.devpost.com/","shortener_url":null,"started_at":"2024-06-01T09:00:00.000+09:00","ended_at":"2024-09-07T09:00:00.000+09:00","limit_number":null,"address":null,"place":"Online","lat":null,"lon":null,"state":"active","id":null}]