[{"event_id":"from-earth","title":"From Earth: The Global Gamejam (2024?)","url":"https://itch.io/jam/from-earth","shortener_url":"https://bit.ly/3qHCDh0","started_at":"2024-11-30T22:30:00.000+09:00","ended_at":"2024-12-07T22:30:00.000+09:00","limit_number":null,"address":null,"place":"Online","lat":null,"lon":null,"state":"active","id":null},{"event_id":"rpg-maker-horror-game-jam-7","title":"RPG Maker Horror Game Jam #7: Polar Expedition","url":"https://itch.io/jam/rpg-maker-horror-game-jam-7","shortener_url":"https://bit.ly/46InOxD","started_at":"2024-11-15T07:59:00.000+09:00","ended_at":"2024-12-25T12:59:00.000+09:00","limit_number":null,"address":null,"place":"Online","lat":null,"lon":null,"state":"active","id":null},{"event_id":"rpg-maker-themed-game-jam-7","title":"RPG Maker Themed Game Jam #7: Northern Saga","url":"https://itch.io/jam/rpg-maker-themed-game-jam-7","shortener_url":"https://bit.ly/3uUjSfX","started_at":"2024-11-15T07:59:00.000+09:00","ended_at":"2024-12-25T12:59:00.000+09:00","limit_number":null,"address":null,"place":"Online","lat":null,"lon":null,"state":"active","id":null},{"event_id":"game-off-2024","title":"Game Off 2024","url":"https://itch.io/jam/game-off-2024","shortener_url":null,"started_at":"2024-11-02T04:37:00.000+09:00","ended_at":"2024-12-02T06:37:00.000+09:00","limit_number":null,"address":null,"place":"Online","lat":null,"lon":null,"state":"active","id":null},{"event_id":"littlejs-game-jam","title":"LittleJS Game Jam","url":"https://itch.io/jam/littlejs-game-jam","shortener_url":"https://bit.ly/45ebUwz","started_at":"2024-11-12T02:11:11.000+09:00","ended_at":"2024-12-13T03:12:12.000+09:00","limit_number":null,"address":null,"place":"Online","lat":null,"lon":null,"state":"active","id":null},{"event_id":"halloween-game-jam-2024","title":"Halloween Game Jam 2024","url":"https://itch.io/jam/halloween-game-jam-2024","shortener_url":"https://bit.ly/3XJYZ3y","started_at":"2024-11-03T04:00:00.000+09:00","ended_at":"2024-11-11T04:00:00.000+09:00","limit_number":null,"address":null,"place":"Online","lat":null,"lon":null,"state":"active","id":null},{"event_id":"mehu-jam-5","title":"mehu jam 5","url":"https://itch.io/jam/mehu-jam-5","shortener_url":null,"started_at":"2024-11-02T01:00:00.000+09:00","ended_at":"2024-11-04T01:00:00.000+09:00","limit_number":null,"address":null,"place":"Online","lat":null,"lon":null,"state":"active","id":null},{"event_id":"4079378","title":"「未来のシマ共創会議」（事前オンライン勉強会＆参加者コミュニティ付き）東京ミッドタウン八重洲／オンライン参加券あり","url":"https://shimakyousou2024.peatix.com","shortener_url":null,"started_at":"2024-11-14T10:00:00.000+09:00","ended_at":"2024-11-15T00:00:00.000+09:00","limit_number":null,"address":"中央区八重洲２丁目２−１","place":"東京ミッドタウン八重洲","lat":35.6794,"lon":139.769,"state":"active","id":null},{"event_id":"174995","title":"a-blog cms Training Camp 2024","url":"https://ablogcms.doorkeeper.jp/events/174995","shortener_url":"https://tiny.cc/sdyezz","started_at":"2024-11-15T13:30:00.000+09:00","ended_at":"2024-11-15T18:00:00.000+09:00","limit_number":60,"address":"愛知県名古屋市中村区那古野１４７１","place":"名古屋国際センタービル ","lat":35.1728,"lon":136.89,"state":"active","id":null},{"event_id":null,"title":"Foothill Hacks","url":"https://foothill-hacks.devpost.com/","shortener_url":null,"started_at":"2024-11-09T09:00:00.000+09:00","ended_at":"2024-11-10T09:00:00.000+09:00","limit_number":null,"address":null,"place":"Online","lat":null,"lon":null,"state":"active","id":null},{"event_id":null,"title":"FullyBeyond","url":"https://fullybeyond2024.devpost.com/","shortener_url":null,"started_at":"2024-11-09T09:00:00.000+09:00","ended_at":"2024-11-10T09:00:00.000+09:00","limit_number":null,"address":null,"place":"Online","lat":null,"lon":null,"state":"active","id":null},{"event_id":null,"title":"natHACKS 2024","url":"https://nathacks-2024.devpost.com/","shortener_url":null,"started_at":"2024-11-14T09:00:00.000+09:00","ended_at":"2024-11-17T09:00:00.000+09:00","limit_number":null,"address":"Edmonton, Calgary, Lethbridge, Online","place":"Edmonton, Calgary, Lethbridge, Online","lat":null,"lon":null,"state":"active","id":null},{"event_id":"322837","title":"【ハッカソン】 LINKS:DATA x Hackathon","url":"https://asciistartup.connpass.com/event/322837/","shortener_url":"https://tiny.cc/z9cizz","started_at":"2024-11-23T10:00:00.000+09:00","ended_at":"2024-11-24T18:30:00.000+09:00","limit_number":160,"address":"〒100-0003 東京都千代田区一ツ橋１丁目１１","place":"パレスサイドビル8F NSホール（日建設計竹橋オフィス内）","lat":35.6995,"lon":139.751,"state":"active","id":null},{"event_id":"322586","title":"初めての電子工作ワークショップ(基礎編)","url":"https://iotlab.connpass.com/event/322586/","shortener_url":"https://tiny.cc/u8cizz","started_at":"2024-11-17T09:00:00.000+09:00","ended_at":"2024-11-17T13:00:00.000+09:00","limit_number":4,"address":"東京都秋葉原駅徒歩5分","place":"秋葉原ハッカースペース","lat":35.6984,"lon":139.773,"state":"active","id":null},{"event_id":"322588","title":"はじめての3Dプリンターワークショップ","url":"https://iotlab.connpass.com/event/322588/","shortener_url":"https://tiny.cc/x8cizz","started_at":"2024-11-03T13:00:00.000+09:00","ended_at":"2024-11-03T16:30:00.000+09:00","limit_number":4,"address":"東京都秋葉原駅徒歩5分","place":"秋葉原ハッカースペース","lat":35.6984,"lon":139.773,"state":"closed","id":null},{"event_id":"320820","title":"Open Hack U 2024 TOKYO vol.3","url":"https://hacku.connpass.com/event/320820/","shortener_url":null,"started_at":"2024-11-16T10:00:00.000+09:00","ended_at":"2024-11-16T18:30:00.000+09:00","limit_number":30,"address":"〒102-8282 東京都千代田区紀尾井町1-3 東京ガーデンテラス紀尾井町 紀尾井タワー","place":"LINEヤフー株式会社 本社","lat":35.6796,"lon":139.737,"state":"active","id":null},{"event_id":"328617","title":"Campsもくもく会（11月）","url":"https://hiroshima-camps.connpass.com/event/328617/","shortener_url":"https://tiny.cc/gagizz","started_at":"2024-11-02T13:00:00.000+09:00","ended_at":"2024-11-02T18:00:00.000+09:00","limit_number":10,"address":"広島県広島市中区紙屋町１丁目４３ エフ・ケイビル１F","place":"イノベーションハブひろしまCamps","lat":34.3941,"lon":132.459,"state":"active","id":null},{"event_id":"329248","title":"PLATEAU LT 07","url":"https://asciistartup.connpass.com/event/329248/","shortener_url":"https://tiny.cc/2c6kzz","started_at":"2024-11-06T19:00:00.000+09:00","ended_at":"2024-11-06T20:15:00.000+09:00","limit_number":311,"address":"オンライン","place":"オンライン","lat":0.0,"lon":0.0,"state":"active","id":null},{"event_id":"dbgj2024","title":"Desert Bus for Hope 2024 Game Jam","url":"https://itch.io/jam/dbgj2024","shortener_url":"https://tiny.cc/jcmkzz","started_at":"2024-11-09T09:00:00.000+09:00","ended_at":"2024-11-15T16:55:00.000+09:00","limit_number":null,"address":null,"place":"Online","lat":null,"lon":null,"state":"active","id":null},{"event_id":"329560","title":"Tech Award in Hack Osaka 2024","url":"https://techaward.connpass.com/event/329560/","shortener_url":"https://tiny.cc/3rwkzz","started_at":"2024-11-26T11:30:00.000+09:00","ended_at":"2024-11-26T16:00:00.000+09:00","limit_number":1155,"address":"大阪市北区大深町３１ グランフロント大阪北館 B2F","place":"ナレッジキャピタルコングレコンベンションセンター Room2,3","lat":34.7059,"lon":135.494,"state":"active","id":null},{"event_id":"kaijam","title":"Kaijam","url":"https://itch.io/jam/kaijam","shortener_url":null,"started_at":"2024-11-24T02:00:00.000+09:00","ended_at":"2024-12-01T02:00:00.000+09:00","limit_number":null,"address":null,"place":"Online","lat":null,"lon":null,"state":"active","id":null},{"event_id":"reimaginingvgm1","title":"ReimaginingVGM - 1","url":"https://itch.io/jam/reimaginingvgm1","shortener_url":null,"started_at":"2024-11-03T01:00:00.000+09:00","ended_at":"2024-11-17T01:00:00.000+09:00","limit_number":null,"address":null,"place":"Online","lat":null,"lon":null,"state":"active","id":null},{"event_id":"gamehub-br-festjam","title":"GameHub BR: FestJam","url":"https://itch.io/jam/gamehub-br-festjam","shortener_url":"https://tiny.cc/zu1lzz","started_at":"2024-11-04T19:30:00.000+09:00","ended_at":"2024-11-19T06:30:00.000+09:00","limit_number":null,"address":null,"place":"Online","lat":null,"lon":null,"state":"closed","id":null},{"event_id":"national-game-design-month-2024","title":"National Game Design Month 2024","url":"https://itch.io/jam/national-game-design-month-2024","shortener_url":null,"started_at":"2024-11-01T13:00:01.000+09:00","ended_at":"2024-12-02T20:20:49.000+09:00","limit_number":null,"address":null,"place":"Online","lat":null,"lon":null,"state":"active","id":null},{"event_id":"lag-jam-2024","title":"LAG Jam 2024","url":"https://itch.io/jam/lag-jam-2024","shortener_url":null,"started_at":"2024-11-15T00:00:00.000+09:00","ended_at":"2024-11-18T10:00:00.000+09:00","limit_number":null,"address":null,"place":"Online","lat":null,"lon":null,"state":"active","id":null},{"event_id":"gaming-doorway-combo-breaker","title":"Gaming Doorway | [Theme TBA]","url":"https://itch.io/jam/gaming-doorway-combo-breaker","shortener_url":null,"started_at":"2024-11-01T15:50:02.000+09:00","ended_at":"2025-01-01T13:59:59.000+09:00","limit_number":null,"address":null,"place":"Online","lat":null,"lon":null,"state":"active","id":null},{"event_id":"team2485-frc-gamejam-2024","title":"2485 Game Jam - 2024","url":"https://itch.io/jam/team2485-frc-gamejam-2024","shortener_url":"https://tiny.cc/0v1lzz","started_at":"2024-11-24T22:00:00.000+09:00","ended_at":"2024-11-29T22:00:00.000+09:00","limit_number":null,"address":null,"place":"Online","lat":null,"lon":null,"state":"active","id":null},{"event_id":"fray-world-game-jam","title":"Fray World Game Jam","url":"https://itch.io/jam/fray-world-game-jam","shortener_url":"https://tiny.cc/ru1lzz","started_at":"2024-11-02T07:00:00.000+09:00","ended_at":"2024-11-04T08:00:00.000+09:00","limit_number":null,"address":null,"place":"Online","lat":null,"lon":null,"state":"active","id":null},{"event_id":"4108361","title":"Tech Award in Hack Osaka 2024","url":"https://tech-award-2024.peatix.com","shortener_url":null,"started_at":"2024-11-26T11:30:00.000+09:00","ended_at":"2024-11-27T00:00:00.000+09:00","limit_number":null,"address":"大阪市北区大深町３−１ B2F グランフロント大阪北館","place":"コングレコンベンションセンター","lat":34.7059,"lon":135.494,"state":"active","id":null},{"event_id":"gdevelop-big-game-jam-6","title":"GDevelop BIG Game Jam #6 - Multiplayer","url":"https://itch.io/jam/gdevelop-big-game-jam-6","shortener_url":"https://tiny.cc/b96lzz","started_at":"2024-11-02T03:00:00.000+09:00","ended_at":"2024-11-11T05:00:00.000+09:00","limit_number":null,"address":null,"place":"Online","lat":null,"lon":null,"state":"active","id":null},{"event_id":"jame-gam-44","title":"Jame Gam #44","url":"https://itch.io/jam/jame-gam-44","shortener_url":null,"started_at":"2024-11-11T02:00:00.000+09:00","ended_at":"2024-11-18T03:00:00.000+09:00","limit_number":null,"address":null,"place":"Online","lat":null,"lon":null,"state":"active","id":null},{"event_id":"foundry-jam","title":"Foundry Jam - Found your Own Indie Studio!","url":"https://itch.io/jam/foundry-jam","shortener_url":null,"started_at":"2024-11-13T08:00:00.000+09:00","ended_at":"2024-11-19T13:59:00.000+09:00","limit_number":null,"address":null,"place":"Online","lat":null,"lon":null,"state":"active","id":null},{"event_id":"176447","title":"Startup Weekend 多摩 3rd","url":"https://swtama.doorkeeper.jp/events/176447","shortener_url":"https://tiny.cc/n59lzz","started_at":"2024-11-01T18:00:00.000+09:00","ended_at":"2024-11-03T20:00:00.000+09:00","limit_number":null,"address":"〒181-0012 東京都三鷹市上連雀１丁目１２１７","place":"Musahino Valley","lat":35.7038,"lon":139.554,"state":"active","id":null},{"event_id":"shroomjam","title":"ShroomJam","url":"https://itch.io/jam/shroomjam","shortener_url":null,"started_at":"2024-11-07T10:00:00.000+09:00","ended_at":"2024-11-14T10:00:00.000+09:00","limit_number":null,"address":null,"place":"Online","lat":null,"lon":null,"state":"active","id":null},{"event_id":"pencil-chisel-code-4","title":"Pencil, Chisel, Code! #4","url":"https://itch.io/jam/pencil-chisel-code-4","shortener_url":null,"started_at":"2024-11-09T03:00:00.000+09:00","ended_at":"2024-11-11T05:00:00.000+09:00","limit_number":null,"address":null,"place":"Online","lat":null,"lon":null,"state":"active","id":null},{"event_id":"4126075","title":"【参加費無料】実データを用いたAI開発ハッカソン","url":"https://peatix.com/event/4126075","shortener_url":"https://tiny.cc/dellzz","started_at":"2024-11-04T10:00:00.000+09:00","ended_at":"2024-11-05T00:00:00.000+09:00","limit_number":null,"address":"中央区日本橋本町２丁目２−１０ 信和ビル","place":"ダイハツ工業㈱ 東京支社","lat":35.6881,"lon":139.776,"state":"active","id":null},{"event_id":"november-nut-fest","title":"November Nut Fest","url":"https://itch.io/jam/november-nut-fest","shortener_url":null,"started_at":"2024-11-01T09:00:00.000+09:00","ended_at":"2024-11-30T09:00:00.000+09:00","limit_number":null,"address":null,"place":"Online","lat":null,"lon":null,"state":"active","id":null},{"event_id":"177213","title":"［第三回］Startup Weekend 盛岡","url":"https://swmorioka.doorkeeper.jp/events/177213","shortener_url":"https://tiny.cc/xwxlzz","started_at":"2024-11-02T18:00:00.000+09:00","ended_at":"2024-11-04T19:00:00.000+09:00","limit_number":40,"address":"岩手県盛岡市盛岡駅西通1-7-1","place":"アイーナ 会議室501","lat":39.7022,"lon":141.133,"state":"active","id":null},{"event_id":"swap-jam-7","title":"Swap Jam #7: Candy ","url":"https://itch.io/jam/swap-jam-7","shortener_url":null,"started_at":"2024-11-01T23:00:00.000+09:00","ended_at":"2024-11-04T23:00:00.000+09:00","limit_number":null,"address":null,"place":"Online","lat":null,"lon":null,"state":"active","id":null},{"event_id":"331197","title":"【大阪開催】WEBアプリ ハッカソン（1/2日目） #29","url":"https://pg-beginner-mtg.connpass.com/event/331197/","shortener_url":"https://tiny.cc/qs2mzz","started_at":"2024-11-16T13:00:00.000+09:00","ended_at":"2024-11-16T18:00:00.000+09:00","limit_number":24,"address":"大阪府大阪市北区本庄東１丁目１８８","place":"5.6（ゴーテンロク）","lat":34.7121,"lon":135.508,"state":"active","id":null},{"event_id":"gaming-doorway-pilot-jam","title":"Gaming Doorway | [Theme TBA]","url":"https://itch.io/jam/gaming-doorway-pilot-jam","shortener_url":null,"started_at":"2024-11-01T15:50:02.000+09:00","ended_at":"2025-01-01T13:59:59.000+09:00","limit_number":null,"address":null,"place":"Online","lat":null,"lon":null,"state":"active","id":null},{"event_id":null,"title":"Finovate Hacks","url":"https://finovate-hacks.devpost.com/","shortener_url":null,"started_at":"2024-11-17T09:00:00.000+09:00","ended_at":"2024-11-24T09:00:00.000+09:00","limit_number":null,"address":null,"place":"Online","lat":null,"lon":null,"state":"active","id":null},{"event_id":"1993-doom-game-jam","title":"1993 DOOM game jam","url":"https://itch.io/jam/1993-doom-game-jam","shortener_url":"https://tiny.cc/6jhmzz","started_at":"2024-11-02T01:00:00.000+09:00","ended_at":"2024-12-02T01:00:00.000+09:00","limit_number":null,"address":null,"place":"Online","lat":null,"lon":null,"state":"active","id":null},{"event_id":"awgj24","title":"Arcade Watch Game Jam 2024","url":"https://itch.io/jam/awgj24","shortener_url":"https://tiny.cc/wynmzz","started_at":"2024-11-28T16:00:00.000+09:00","ended_at":"2024-12-02T07:59:59.000+09:00","limit_number":null,"address":null,"place":"Online","lat":null,"lon":null,"state":"active","id":null},{"event_id":"dig-autumn-game-jam","title":"DIG Autumn Game Jam","url":"https://itch.io/jam/dig-autumn-game-jam","shortener_url":"https://tiny.cc/j24nzz","started_at":"2024-11-15T05:00:00.000+09:00","ended_at":"2024-11-18T05:00:00.000+09:00","limit_number":null,"address":null,"place":"Online","lat":null,"lon":null,"state":"active","id":null},{"event_id":"tobujam-2dot5","title":"ToBuJam 2.5","url":"https://itch.io/jam/tobujam-2dot5","shortener_url":null,"started_at":"2024-11-23T04:30:00.000+09:00","ended_at":"2024-11-26T04:30:00.000+09:00","limit_number":null,"address":null,"place":"Online","lat":null,"lon":null,"state":"active","id":null},{"event_id":null,"title":"City Design Challenge","url":"https://hackmate.devpost.com/","shortener_url":null,"started_at":"2024-11-02T09:00:00.000+09:00","ended_at":"2024-11-03T09:00:00.000+09:00","limit_number":null,"address":null,"place":"Online","lat":null,"lon":null,"state":"active","id":null},{"event_id":"332116","title":"シンプルな生成 AI ハッカソン #5","url":"https://simpleform.connpass.com/event/332116/","shortener_url":"https://tiny.cc/6nknzz","started_at":"2024-11-17T10:00:00.000+09:00","ended_at":"2024-11-17T21:00:00.000+09:00","limit_number":25,"address":"東京都渋谷区上原三丁目29-1","place":"シンプルフォーム株式会社オフィス","lat":35.6645,"lon":139.675,"state":"active","id":null},{"event_id":"retro-flavored-jam","title":"Retro Flavored Jam 1","url":"https://itch.io/jam/retro-flavored-jam","shortener_url":null,"started_at":"2024-11-01T22:00:00.000+09:00","ended_at":"2024-11-30T23:00:00.000+09:00","limit_number":null,"address":null,"place":"Online","lat":null,"lon":null,"state":"active","id":null},{"event_id":"jam-weekend-8","title":"Jam Weekend #8","url":"https://itch.io/jam/jam-weekend-8","shortener_url":null,"started_at":"2024-11-02T02:00:00.000+09:00","ended_at":"2024-11-04T02:00:00.000+09:00","limit_number":null,"address":null,"place":"Online","lat":null,"lon":null,"state":"active","id":null},{"event_id":"lojam-2024","title":"LoJam 2024","url":"https://itch.io/jam/lojam-2024","shortener_url":"https://tiny.cc/5nknzz","started_at":"2024-11-02T22:00:00.000+09:00","ended_at":"2024-11-10T01:00:00.000+09:00","limit_number":null,"address":null,"place":"Online","lat":null,"lon":null,"state":"active","id":null},{"event_id":"178209","title":"デザインでキャリアを築く！実践から学ぶ独立クリエイターの道","url":"https://founderscircle.doorkeeper.jp/events/178209","shortener_url":"https://tiny.cc/kbcrzz","started_at":"2024-11-21T19:00:00.000+09:00","ended_at":"2024-11-21T20:30:00.000+09:00","limit_number":50,"address":"静岡県静岡市葵区鷹匠２丁目８１０","place":"＝ODEN | 静鉄のコワーキングスペース","lat":34.973,"lon":138.387,"state":"active","id":null},{"event_id":"178214","title":"【デザインに興味のある方必見！】デザインが社会にできること","url":"https://founderscircle.doorkeeper.jp/events/178214","shortener_url":"https://tiny.cc/0ccrzz","started_at":"2024-11-30T13:00:00.000+09:00","ended_at":"2024-11-30T14:30:00.000+09:00","limit_number":31,"address":"静岡県静岡市葵区鷹匠２丁目８１０","place":"＝ODEN | 静鉄のコワーキングスペース","lat":34.973,"lon":138.387,"state":"active","id":null},{"event_id":"178421","title":"デザインでキャリアを築く！実践から学ぶ独立クリエイターの道","url":"https://swshizuoka.doorkeeper.jp/events/178421","shortener_url":"https://tiny.cc/lbcrzz","started_at":"2024-11-21T19:00:00.000+09:00","ended_at":"2024-11-21T20:30:00.000+09:00","limit_number":50,"address":"静岡県静岡市葵区鷹匠２丁目８１０","place":"＝ODEN | 静鉄のコワーキングスペース","lat":34.973,"lon":138.387,"state":"active","id":null},{"event_id":"178423","title":"【デザインに興味のある方必見！】デザインが社会にできること","url":"https://swshizuoka.doorkeeper.jp/events/178423","shortener_url":"https://tiny.cc/3ccrzz","started_at":"2024-11-30T13:30:00.000+09:00","ended_at":"2024-11-30T14:30:00.000+09:00","limit_number":50,"address":"静岡県静岡市葵区鷹匠２丁目８１０","place":"＝ODEN | 静鉄のコワーキングスペース","lat":34.973,"lon":138.387,"state":"active","id":null},{"event_id":"178529","title":"【推し発見部！】Vol.1 パン編","url":"https://mamehicokobe.doorkeeper.jp/events/178529","shortener_url":null,"started_at":"2024-11-10T13:00:00.000+09:00","ended_at":"2024-11-10T14:30:00.000+09:00","limit_number":null,"address":"神戸市東灘区御影山手1-2-10 御影ガーデンシティ1F","place":"MAMEHICO 神戸","lat":34.7257,"lon":135.254,"state":"active","id":null},{"event_id":"176996","title":"［初開催］Startup Weekend 旭川","url":"https://swasahikawa.doorkeeper.jp/events/176996","shortener_url":"https://tiny.cc/xbcrzz","started_at":"2024-11-29T18:00:00.000+09:00","ended_at":"2024-12-01T18:00:00.000+09:00","limit_number":30,"address":"北海道旭川市宮下通１１丁目 蔵囲夢","place":"デザインギャラリー","lat":43.7628,"lon":142.363,"state":"active","id":null},{"event_id":"334318","title":"【外資就活ドットコム主催】Engineer Guild Hackathon","url":"https://camphor.connpass.com/event/334318/","shortener_url":"https://tiny.cc/tacrzz","started_at":"2024-11-02T10:00:00.000+09:00","ended_at":"2024-11-16T20:00:00.000+09:00","limit_number":50,"address":null,"place":"オンライン","lat":null,"lon":null,"state":"active","id":null},{"event_id":"178731","title":"【11/12(火)夜】ザキヤマが高地さんに聞く！「スタートアップって何ですか？」","url":"https://swshizuoka.doorkeeper.jp/events/178731","shortener_url":null,"started_at":"2024-11-12T19:00:00.000+09:00","ended_at":"2024-11-12T21:00:00.000+09:00","limit_number":50,"address":"静岡県静岡市葵区鷹匠２丁目８１０","place":"＝ODEN | 静鉄のコワーキングスペース","lat":34.9774,"lon":138.389,"state":"active","id":null},{"event_id":"164460","title":"［第六回］StartupWeekend関門","url":"https://swkanmon.doorkeeper.jp/events/164460","shortener_url":"https://tiny.cc/zbcrzz","started_at":"2024-11-29T18:00:00.000+09:00","ended_at":"2024-12-01T19:00:00.000+09:00","limit_number":40,"address":"福岡県 北九州市門司区東港町4-68","place":"［金土］ZATTAZISSE / ［日］uzuhouse","lat":33.9517,"lon":130.964,"state":"active","id":null},{"event_id":"333105","title":"[Osaka] Rakuten Technology Conference 2024","url":"https://rakuten.connpass.com/event/333105/","shortener_url":null,"started_at":"2024-11-16T11:45:00.000+09:00","ended_at":"2024-11-16T18:15:00.000+09:00","limit_number":65,"address":"大阪府大阪市北区中之島3-2-18","place":"楽天大阪支社","lat":34.6933,"lon":135.495,"state":"active","id":null},{"event_id":"332930","title":"サブスク戦略 Workshop \u0026 ハッカソン最終選考チームFinal Pitch","url":"https://melting-hack.connpass.com/event/332930/","shortener_url":"https://tiny.cc/jbcrzz","started_at":"2024-11-20T18:30:00.000+09:00","ended_at":"2024-11-20T22:30:00.000+09:00","limit_number":50,"address":"〒105-6436 東京都港区虎ノ門１丁目 虎ノ門ヒルズ ビジネスタワー 17-1","place":"Meta Platforms Technologies Japan合同会社","lat":35.6678,"lon":139.75,"state":"active","id":null},{"event_id":"jam-da-comunidade","title":"COMUJAM","url":"https://itch.io/jam/jam-da-comunidade","shortener_url":"https://tiny.cc/uacrzz","started_at":"2024-11-16T11:59:59.000+09:00","ended_at":"2024-11-18T12:00:59.000+09:00","limit_number":null,"address":null,"place":"Online","lat":null,"lon":null,"state":"active","id":null},{"event_id":"20-second-game-jam-2024","title":"20 Second Game Jam 2024","url":"https://itch.io/jam/20-second-game-jam-2024","shortener_url":"https://tiny.cc/1bcrzz","started_at":"2024-11-08T09:00:01.000+09:00","ended_at":"2024-12-03T08:59:59.000+09:00","limit_number":null,"address":null,"place":"Online","lat":null,"lon":null,"state":"active","id":null},{"event_id":"333365","title":"初心者エンジニア大歓迎！【LT\u0026交流会】","url":"https://pizza-cola.connpass.com/event/333365/","shortener_url":"https://tiny.cc/xacrzz","started_at":"2024-11-02T14:00:00.000+09:00","ended_at":"2024-11-02T18:30:00.000+09:00","limit_number":10,"address":"東京都台東区東上野3-10-7","place":"ＧＯＫＥＩ上野Ｂｕｉｌｄｉｎｇ２Ｆ","lat":35.7107,"lon":139.78,"state":"active","id":null},{"event_id":"devbandeira-jam","title":"DevBandeira Jam 2024 (COM PREMIAES!)","url":"https://itch.io/jam/devbandeira-jam","shortener_url":null,"started_at":"2024-11-01T22:00:00.000+09:00","ended_at":"2024-11-07T22:00:00.000+09:00","limit_number":null,"address":null,"place":"Online","lat":null,"lon":null,"state":"active","id":null},{"event_id":"inkjam-2024","title":"inkJam 2024","url":"https://itch.io/jam/inkjam-2024","shortener_url":null,"started_at":"2024-11-01T19:00:00.000+09:00","ended_at":"2024-11-04T19:00:00.000+09:00","limit_number":null,"address":null,"place":"Online","lat":null,"lon":null,"state":"active","id":null},{"event_id":"332972","title":"11/9,10 : Discordbotを作ろう！in 専修大学","url":"https://connpass.com/event/332972/","shortener_url":"https://tiny.cc/4bcrzz","started_at":"2024-11-09T10:00:00.000+09:00","ended_at":"2024-11-10T18:00:00.000+09:00","limit_number":50,"address":"神奈川県川崎市多摩区東三田2-1-1","place":"専修大学生田キャンパス 2号館 211教室","lat":35.6102,"lon":139.554,"state":"active","id":null},{"event_id":"scorejam32","title":"ScoreSpace Jam #32 ","url":"https://itch.io/jam/scorejam32","shortener_url":"https://tiny.cc/nacrzz","started_at":"2024-11-02T04:00:00.000+09:00","ended_at":"2024-11-05T05:00:00.000+09:00","limit_number":null,"address":null,"place":"Online","lat":null,"lon":null,"state":"active","id":null},{"event_id":"331607","title":"鳥取開催！2024年度 Web×IoT メイカーズチャレンジ PLUS【講習会 \u0026 ハッカソン】","url":"https://webiotmakers.connpass.com/event/331607/","shortener_url":"https://tiny.cc/6bcrzz","started_at":"2024-11-09T13:00:00.000+09:00","ended_at":"2024-11-10T17:00:00.000+09:00","limit_number":40,"address":"鳥取県","place":"鳥取県（鳥取市、米子市）","lat":35.3573,"lon":133.407,"state":"active","id":null},{"event_id":"330238","title":"データ利活用やってみよう！ハッカソン2024 中間発表会","url":"https://enjoy-pda.connpass.com/event/330238/","shortener_url":"https://tiny.cc/7bcrzz","started_at":"2024-11-09T14:00:00.000+09:00","ended_at":"2024-11-09T17:00:00.000+09:00","limit_number":15,"address":"大阪市都島区東野田町4丁目15","place":"QUINTBRIDGE 2階 キッチン前","lat":34.6993,"lon":135.531,"state":"active","id":null},{"event_id":"332911","title":"ラズパイでラズベリーパイ（お菓子）を焼く会","url":"https://iotlab.connpass.com/event/332911/","shortener_url":"https://tiny.cc/9bcrzz","started_at":"2024-11-23T09:00:00.000+09:00","ended_at":"2024-11-23T11:45:00.000+09:00","limit_number":6,"address":"東京都秋葉原駅徒歩5分","place":"秋葉原ハッカースペース","lat":35.6984,"lon":139.773,"state":"active","id":null},{"event_id":"pizza-jam-pizza-prize-13","title":"Pizza Jam (Pizza Prize!)","url":"https://itch.io/jam/pizza-jam-pizza-prize-13","shortener_url":null,"started_at":"2024-11-16T04:00:00.000+09:00","ended_at":"2024-11-25T04:00:00.000+09:00","limit_number":null,"address":null,"place":"Online","lat":null,"lon":null,"state":"active","id":null},{"event_id":"334176","title":"AIミーティング 2024/11/13 #ChatGPT #Gemini #RAG","url":"https://osaka-driven-dev.connpass.com/event/334176/","shortener_url":"https://tiny.cc/cbcrzz","started_at":"2024-11-13T20:00:00.000+09:00","ended_at":"2024-11-13T21:30:00.000+09:00","limit_number":null,"address":"オンライン","place":"オンライン","lat":0.0,"lon":0.0,"state":"active","id":null},{"event_id":"leafyjam","title":"leafyjam","url":"https://itch.io/jam/leafyjam","shortener_url":null,"started_at":"2024-11-09T02:00:00.000+09:00","ended_at":"2024-11-10T14:00:00.000+09:00","limit_number":null,"address":null,"place":"Online","lat":null,"lon":null,"state":"active","id":null},{"event_id":"330729","title":"水都 とくしま未来構想アイデアソン×PLATEAU 2024","url":"https://asciistartup.connpass.com/event/330729/","shortener_url":"https://tiny.cc/fbcrzz","started_at":"2024-11-16T10:00:00.000+09:00","ended_at":"2024-11-16T18:00:00.000+09:00","limit_number":85,"address":"徳島市応神町古川字戎子野 123-1","place":"四国大学","lat":34.1035,"lon":134.553,"state":"active","id":null},{"event_id":"alberta-slow-jam-2","title":"Alberta Slow Jam #2","url":"https://itch.io/jam/alberta-slow-jam-2","shortener_url":null,"started_at":"2024-11-09T10:00:00.000+09:00","ended_at":"2024-11-24T10:00:00.000+09:00","limit_number":null,"address":null,"place":"Online","lat":null,"lon":null,"state":"active","id":null},{"event_id":"330239","title":"データ利活用やってみよう！ハッカソン2024 成果発表会","url":"https://enjoy-pda.connpass.com/event/330239/","shortener_url":"https://tiny.cc/gbcrzz","started_at":"2024-11-16T15:00:00.000+09:00","ended_at":"2024-11-16T17:00:00.000+09:00","limit_number":null,"address":"大阪市都島区東野田町4丁目15番82号","place":"QUINTBRIDGE 1階 メインステージ","lat":34.699,"lon":135.53,"state":"active","id":null},{"event_id":"videotome-jam","title":"Videotome Jam - \"Waiting\"","url":"https://itch.io/jam/videotome-jam","shortener_url":null,"started_at":"2024-11-16T21:00:00.000+09:00","ended_at":"2024-12-01T08:59:00.000+09:00","limit_number":null,"address":null,"place":"Online","lat":null,"lon":null,"state":"active","id":null},{"event_id":"332747","title":"Ubuntu 20周年記念オフラインミーティング","url":"https://gree.connpass.com/event/332747/","shortener_url":null,"started_at":"2024-11-17T13:00:00.000+09:00","ended_at":"2024-11-17T17:00:00.000+09:00","limit_number":60,"address":"東京都港区六本木6-11-1 六本木ヒルズゲートタワー","place":"六本木ヒルズゲートタワー","lat":35.6588,"lon":139.732,"state":"active","id":null},{"event_id":"polyjamorous2024","title":"PolyJamorous 2024","url":"https://itch.io/jam/polyjamorous2024","shortener_url":null,"started_at":"2024-11-01T14:00:00.000+09:00","ended_at":"2025-02-14T15:00:00.000+09:00","limit_number":null,"address":null,"place":"Online","lat":null,"lon":null,"state":"active","id":null},{"event_id":"kajam","title":"KAJAM","url":"https://itch.io/jam/kajam","shortener_url":null,"started_at":"2024-11-01T00:00:00.000+09:00","ended_at":"2024-11-19T00:00:00.000+09:00","limit_number":null,"address":null,"place":"Online","lat":null,"lon":null,"state":"active","id":null},{"event_id":"334266","title":"はじめてのブロックチェーン！WebエンジニアのためのSymbol速習講座③","url":"https://nemtus.connpass.com/event/334266/","shortener_url":"https://tiny.cc/sbcrzz","started_at":"2024-11-24T13:00:00.000+09:00","ended_at":"2024-11-24T16:00:00.000+09:00","limit_number":10,"address":"オンライン","place":"オンライン","lat":0.0,"lon":0.0,"state":"active","id":null},{"event_id":"level-zero","title":"Level-Zero","url":"https://itch.io/jam/level-zero","shortener_url":null,"started_at":"2024-11-04T03:30:00.000+09:00","ended_at":"2024-11-18T03:29:59.000+09:00","limit_number":null,"address":null,"place":"Online","lat":null,"lon":null,"state":"active","id":null},{"event_id":"333656","title":"Vonage Meetup in Osaka！Vol.2","url":"https://voug.connpass.com/event/333656/","shortener_url":"https://tiny.cc/wbcrzz","started_at":"2024-11-28T19:00:00.000+09:00","ended_at":"2024-11-28T22:00:00.000+09:00","limit_number":25,"address":"〒530-0011　大阪府大阪市北区大深町3-1 グランフロント大阪 タワーC 16階","place":"gusuku Ashibinaa OSAKA - アールスリーインスティテュート","lat":34.7051,"lon":135.495,"state":"active","id":null},{"event_id":"334712","title":"[新宿御苑前]がやがやと勉強する会(テーマ自由、初心者歓迎！)","url":"https://c-sagyoba-benkyoukai.connpass.com/event/334712/","shortener_url":null,"started_at":"2024-11-02T13:00:00.000+09:00","ended_at":"2024-11-02T17:00:00.000+09:00","limit_number":8,"address":"東京都新宿区四谷4-28-7（吉岡ビル）","place":"コワーキングスペースC作業場","lat":35.6885,"lon":139.715,"state":"active","id":null},{"event_id":"fox-hollow-jam-3","title":"Fox Hollow Jam 3","url":"https://itch.io/jam/fox-hollow-jam-3","shortener_url":null,"started_at":"2024-11-01T23:00:00.000+09:00","ended_at":"2024-11-10T15:59:59.000+09:00","limit_number":null,"address":null,"place":"Online","lat":null,"lon":null,"state":"active","id":null},{"event_id":"331300","title":"商店街ゲームジャム2024in香川","url":"https://sanuki-gamen.connpass.com/event/331300/","shortener_url":"https://tiny.cc/5bcrzz","started_at":"2024-11-09T10:00:00.000+09:00","ended_at":"2024-11-10T18:30:00.000+09:00","limit_number":50,"address":"香川県高松市天神前１２８ メディアステーションビル 2F","place":"デジハリ高松","lat":34.34,"lon":134.047,"state":"active","id":null},{"event_id":"furries","title":"Furry Game Jam #0","url":"https://itch.io/jam/furries","shortener_url":"https://tiny.cc/nbcrzz","started_at":"2024-11-23T06:00:00.000+09:00","ended_at":"2024-11-30T06:00:00.000+09:00","limit_number":null,"address":null,"place":"Online","lat":null,"lon":null,"state":"active","id":null},{"event_id":"334797","title":"【11月26日開催】中小企業のためのAI活用の可能性を探るセミナー 《OrganicAI 主催》","url":"https://connpass.com/event/334797/","shortener_url":"https://tiny.cc/d5etzz","started_at":"2024-11-26T19:00:00.000+09:00","ended_at":"2024-11-26T21:00:00.000+09:00","limit_number":30,"address":"https://maps.app.goo.gl/vaHL6fkKLDtdyhij6","place":"東京都中央区京橋2丁目2-1（京橋エドグラン29F）","lat":0.0,"lon":0.0,"state":"active","id":null},{"event_id":"zombie-girl-game-jam","title":"Zombie Girl Game Jam","url":"https://itch.io/jam/zombie-girl-game-jam","shortener_url":"https://tiny.cc/jacrzz","started_at":"2024-11-01T06:58:00.000+09:00","ended_at":"2024-12-02T06:58:00.000+09:00","limit_number":null,"address":null,"place":"Online","lat":null,"lon":null,"state":"active","id":null},{"event_id":"insanity-jam-1","title":"Insanity Jam #1","url":"https://itch.io/jam/insanity-jam-1","shortener_url":null,"started_at":"2024-11-07T20:00:00.000+09:00","ended_at":"2024-11-10T20:00:00.000+09:00","limit_number":null,"address":null,"place":"Online","lat":null,"lon":null,"state":"active","id":null},{"event_id":"novejam-2024","title":"Novejam 2024","url":"https://itch.io/jam/novejam-2024","shortener_url":null,"started_at":"2024-11-01T00:00:00.000+09:00","ended_at":"2024-11-30T23:59:59.000+09:00","limit_number":null,"address":null,"place":"Online","lat":null,"lon":null,"state":"active","id":null},{"event_id":"newbies5","title":"Newbies Game Jam 2024 - Halloween Edition!","url":"https://itch.io/jam/newbies5","shortener_url":"https://tiny.cc/lacrzz","started_at":"2024-11-02T00:00:00.000+09:00","ended_at":"2024-11-08T01:00:00.000+09:00","limit_number":null,"address":null,"place":"Online","lat":null,"lon":null,"state":"active","id":null},{"event_id":"1-button-jam-2024","title":"1-Button Jam 2024","url":"https://itch.io/jam/1-button-jam-2024","shortener_url":null,"started_at":"2024-11-23T02:00:00.000+09:00","ended_at":"2024-12-02T07:00:00.000+09:00","limit_number":null,"address":null,"place":"Online","lat":null,"lon":null,"state":"active","id":null},{"event_id":"otter-jam-worlds-unseen","title":"Otter Jam: Worlds Unseen!","url":"https://itch.io/jam/otter-jam-worlds-unseen","shortener_url":null,"started_at":"2024-11-09T17:00:00.000+09:00","ended_at":"2024-11-17T05:00:00.000+09:00","limit_number":null,"address":null,"place":"Online","lat":null,"lon":null,"state":"active","id":null},{"event_id":"caves-of-qud-modding-jam-3","title":"Caves of Qud Modding Jam: Pets \u0026 Presets","url":"https://itch.io/jam/caves-of-qud-modding-jam-3","shortener_url":null,"started_at":"2024-11-02T07:00:00.000+09:00","ended_at":"2024-11-05T08:00:00.000+09:00","limit_number":null,"address":null,"place":"Online","lat":null,"lon":null,"state":"active","id":null},{"event_id":"picostevemo-2","title":"PiCoSteveMo 2","url":"https://itch.io/jam/picostevemo-2","shortener_url":null,"started_at":"2024-11-01T15:01:01.000+09:00","ended_at":"2024-12-01T14:59:59.000+09:00","limit_number":null,"address":null,"place":"Online","lat":null,"lon":null,"state":"active","id":null},{"event_id":"metroidvania-month-26","title":"Metroidvania Month 26","url":"https://itch.io/jam/metroidvania-month-26","shortener_url":null,"started_at":"2024-11-16T12:00:00.000+09:00","ended_at":"2024-12-16T12:00:00.000+09:00","limit_number":null,"address":null,"place":"Online","lat":null,"lon":null,"state":"active","id":null},{"event_id":"memento-jam","title":"Memento Jam","url":"https://itch.io/jam/memento-jam","shortener_url":null,"started_at":"2024-11-11T03:00:00.000+09:00","ended_at":"2024-11-26T01:59:59.000+09:00","limit_number":null,"address":null,"place":"Online","lat":null,"lon":null,"state":"active","id":null},{"event_id":"a-very-hallmark-game-jam-2024","title":"A Very Hallmark Game Jam 2024","url":"https://itch.io/jam/a-very-hallmark-game-jam-2024","shortener_url":"https://tiny.cc/ibcrzz","started_at":"2024-11-17T14:00:00.000+09:00","ended_at":"2024-11-30T14:00:00.000+09:00","limit_number":null,"address":null,"place":"Online","lat":null,"lon":null,"state":"active","id":null},{"event_id":"jamweekend-1","title":"Jam Weekend #1","url":"https://itch.io/jam/jamweekend-1","shortener_url":null,"started_at":"2024-11-09T02:00:00.000+09:00","ended_at":"2024-11-11T02:00:00.000+09:00","limit_number":null,"address":null,"place":"Online","lat":null,"lon":null,"state":"active","id":null},{"event_id":"devs-that-jam-36hr-challenge-nov24","title":"Devs That Jam 36hr Challenge #8","url":"https://itch.io/jam/devs-that-jam-36hr-challenge-nov24","shortener_url":null,"started_at":"2024-11-23T20:00:00.000+09:00","ended_at":"2024-11-25T08:00:00.000+09:00","limit_number":null,"address":null,"place":"Online","lat":null,"lon":null,"state":"active","id":null},{"event_id":"gdd-bjs-fall-2024","title":"GDD Bear Jams  Fall 2024","url":"https://itch.io/jam/gdd-bjs-fall-2024","shortener_url":null,"started_at":"2024-11-02T10:00:00.000+09:00","ended_at":"2024-11-04T08:00:00.000+09:00","limit_number":null,"address":null,"place":"Online","lat":null,"lon":null,"state":"active","id":null},{"event_id":"indie-dev-game-jam-5","title":"Indie Dev Game Jam 5 (Prizes)","url":"https://itch.io/jam/indie-dev-game-jam-5","shortener_url":"https://tiny.cc/obcrzz","started_at":"2024-11-23T05:00:00.000+09:00","ended_at":"2024-11-26T06:00:00.000+09:00","limit_number":null,"address":null,"place":"Online","lat":null,"lon":null,"state":"active","id":null},{"event_id":"rpg-paper-maker","title":" RPG Paper Maker Jam - Cash Prizes","url":"https://itch.io/jam/rpg-paper-maker","shortener_url":null,"started_at":"2024-11-09T18:00:00.000+09:00","ended_at":"2024-11-17T08:59:59.000+09:00","limit_number":null,"address":null,"place":"Online","lat":null,"lon":null,"state":"active","id":null},{"event_id":"devlup-wargames-fall-24","title":"DevLUp Wargames '24","url":"https://itch.io/jam/devlup-wargames-fall-24","shortener_url":null,"started_at":"2024-11-02T07:00:00.000+09:00","ended_at":"2024-11-04T08:00:00.000+09:00","limit_number":null,"address":null,"place":"Online","lat":null,"lon":null,"state":"active","id":null},{"event_id":"eu-gamer-game-jam","title":"EU Gamer Game Jam","url":"https://itch.io/jam/eu-gamer-game-jam","shortener_url":"https://tiny.cc/ebcrzz","started_at":"2024-11-15T03:00:00.000+09:00","ended_at":"2024-11-17T21:00:00.000+09:00","limit_number":null,"address":null,"place":"Online","lat":null,"lon":null,"state":"active","id":null},{"event_id":"simplicity-jam-1","title":"Simplicity Jam #1 (Steam Gift Card Prizes!)","url":"https://itch.io/jam/simplicity-jam-1","shortener_url":"https://tiny.cc/qacrzz","started_at":"2024-11-02T09:00:00.000+09:00","ended_at":"2024-11-16T10:00:00.000+09:00","limit_number":null,"address":null,"place":"Online","lat":null,"lon":null,"state":"active","id":null},{"event_id":"utah-indie-game-jam-2024","title":"Utah Indie Game Jam 2024","url":"https://itch.io/jam/utah-indie-game-jam-2024","shortener_url":"https://tiny.cc/pbcrzz","started_at":"2024-11-23T11:00:00.000+09:00","ended_at":"2024-11-25T09:00:00.000+09:00","limit_number":null,"address":null,"place":"Online","lat":null,"lon":null,"state":"active","id":null},{"event_id":"mgk-fall-game-jam-2024","title":"Culture Bytes: Fall Game Jam 2024","url":"https://itch.io/jam/mgk-fall-game-jam-2024","shortener_url":"https://tiny.cc/abcrzz","started_at":"2024-11-11T08:00:00.000+09:00","ended_at":"2024-11-25T08:00:00.000+09:00","limit_number":null,"address":null,"place":"Online","lat":null,"lon":null,"state":"active","id":null},{"event_id":"2-buttons-jam-2024","title":"2 Buttons Jam 2024","url":"https://itch.io/jam/2-buttons-jam-2024","shortener_url":null,"started_at":"2024-11-09T02:00:00.000+09:00","ended_at":"2024-11-18T07:00:00.000+09:00","limit_number":null,"address":null,"place":"Online","lat":null,"lon":null,"state":"active","id":null},{"event_id":"weeksauce-35","title":"Week Sauce (November 2024)","url":"https://itch.io/jam/weeksauce-35","shortener_url":null,"started_at":"2024-11-01T16:00:00.000+09:00","ended_at":"2024-12-01T17:00:00.000+09:00","limit_number":null,"address":null,"place":"Online","lat":null,"lon":null,"state":"active","id":null},{"event_id":"ab-game-jam-viii","title":"A\u0026B  Game Jam VIII","url":"https://itch.io/jam/ab-game-jam-viii","shortener_url":"https://tiny.cc/ubcrzz","started_at":"2024-11-26T12:00:00.000+09:00","ended_at":"2024-12-07T11:59:59.000+09:00","limit_number":null,"address":null,"place":"Online","lat":null,"lon":null,"state":"active","id":null},{"event_id":"jamweekend-3","title":"Jam Weekend #3","url":"https://itch.io/jam/jamweekend-3","shortener_url":null,"started_at":"2024-11-23T02:00:00.000+09:00","ended_at":"2024-11-25T02:00:00.000+09:00","limit_number":null,"address":null,"place":"Online","lat":null,"lon":null,"state":"active","id":null},{"event_id":"postcards-from-the-front-2025","title":"Postcards from the Front - 2025","url":"https://itch.io/jam/postcards-from-the-front-2025","shortener_url":null,"started_at":"2024-11-08T17:00:00.000+09:00","ended_at":"2025-05-06T04:00:00.000+09:00","limit_number":null,"address":null,"place":"Online","lat":null,"lon":null,"state":"active","id":null},{"event_id":"metroidvania-month-super-26","title":"MVM 26 - Super edition","url":"https://itch.io/jam/metroidvania-month-super-26","shortener_url":null,"started_at":"2024-11-16T12:00:00.000+09:00","ended_at":"2025-02-16T12:00:00.000+09:00","limit_number":null,"address":null,"place":"Online","lat":null,"lon":null,"state":"active","id":null},{"event_id":"jamweekend-2","title":"Jam Weekend #2","url":"https://itch.io/jam/jamweekend-2","shortener_url":null,"started_at":"2024-11-16T02:00:00.000+09:00","ended_at":"2024-11-18T02:00:00.000+09:00","limit_number":null,"address":null,"place":"Online","lat":null,"lon":null,"state":"active","id":null},{"event_id":"level-1-game-jam-2024","title":"Level 1 Game Jam 2024","url":"https://itch.io/jam/level-1-game-jam-2024","shortener_url":"https://tiny.cc/hacrzz","started_at":"2024-11-01T01:00:00.000+09:00","ended_at":"2024-11-30T01:00:00.000+09:00","limit_number":null,"address":null,"place":"Online","lat":null,"lon":null,"state":"active","id":null},{"event_id":"narojam24","title":"Naro!Jam","url":"https://itch.io/jam/narojam24","shortener_url":"https://tiny.cc/qbcrzz","started_at":"2024-11-23T17:00:00.000+09:00","ended_at":"2024-11-25T02:00:00.000+09:00","limit_number":null,"address":null,"place":"Online","lat":null,"lon":null,"state":"active","id":null},{"event_id":"indie-park-game-jam-2","title":"Indie Park Game Jam #2","url":"https://itch.io/jam/indie-park-game-jam-2","shortener_url":"https://tiny.cc/kacrzz","started_at":"2024-11-01T08:00:00.000+09:00","ended_at":"2024-11-30T08:00:00.000+09:00","limit_number":null,"address":null,"place":"Online","lat":null,"lon":null,"state":"active","id":null},{"event_id":"pumpkin-game-jam-fr","title":"Citrouille Game Jam FRANCE","url":"https://itch.io/jam/pumpkin-game-jam-fr","shortener_url":"https://tiny.cc/oacrzz","started_at":"2024-11-02T04:00:01.000+09:00","ended_at":"2024-11-04T03:59:59.000+09:00","limit_number":null,"address":null,"place":"Online","lat":null,"lon":null,"state":"active","id":null},{"event_id":"-retrofusion-jam-","title":" RetroFusion Jam ","url":"https://itch.io/jam/-retrofusion-jam-","shortener_url":null,"started_at":"2024-11-01T09:00:00.000+09:00","ended_at":"2024-11-08T09:00:00.000+09:00","limit_number":null,"address":null,"place":"Online","lat":null,"lon":null,"state":"active","id":null},{"event_id":"odu-serious-games","title":"ODU Serious Games Jam Fall 2024","url":"https://itch.io/jam/odu-serious-games","shortener_url":null,"started_at":"2024-11-03T01:00:00.000+09:00","ended_at":"2024-11-13T13:59:00.000+09:00","limit_number":null,"address":null,"place":"Online","lat":null,"lon":null,"state":"active","id":null},{"event_id":"freefire-studios-jam","title":"Freefire Studios Jam","url":"https://itch.io/jam/freefire-studios-jam","shortener_url":null,"started_at":"2024-11-02T01:59:59.000+09:00","ended_at":"2024-11-09T02:59:59.000+09:00","limit_number":null,"address":null,"place":"Online","lat":null,"lon":null,"state":"active","id":null},{"event_id":"ost-jam-2024","title":"OST Jam 2024 Symphony of Souls","url":"https://itch.io/jam/ost-jam-2024","shortener_url":null,"started_at":"2024-11-01T23:00:00.000+09:00","ended_at":"2024-11-04T23:00:00.000+09:00","limit_number":null,"address":null,"place":"Online","lat":null,"lon":null,"state":"active","id":null},{"event_id":"fem-devs-game-jam-2024","title":"Fem Devs Game Jam 2024","url":"https://itch.io/jam/fem-devs-game-jam-2024","shortener_url":"https://tiny.cc/2bcrzz","started_at":"2024-11-09T03:00:00.000+09:00","ended_at":"2024-11-11T03:00:00.000+09:00","limit_number":null,"address":null,"place":"Online","lat":null,"lon":null,"state":"active","id":null},{"event_id":"gamerella2024","title":"GAMERella 2024","url":"https://itch.io/jam/gamerella2024","shortener_url":null,"started_at":"2024-11-24T00:00:00.000+09:00","ended_at":"2024-11-25T08:00:00.000+09:00","limit_number":null,"address":null,"place":"Online","lat":null,"lon":null,"state":"active","id":null},{"event_id":"culture-jam-austria","title":"Culture Jam: Austria","url":"https://itch.io/jam/culture-jam-austria","shortener_url":null,"started_at":"2024-11-16T18:00:00.000+09:00","ended_at":"2024-11-18T03:00:00.000+09:00","limit_number":null,"address":null,"place":"Online","lat":null,"lon":null,"state":"active","id":null},{"event_id":"3a-game-jam-do-larva","title":"3a Game Jam do LARVA","url":"https://itch.io/jam/3a-game-jam-do-larva","shortener_url":"https://tiny.cc/3bcrzz","started_at":"2024-11-09T07:00:00.000+09:00","ended_at":"2024-11-10T19:00:27.000+09:00","limit_number":null,"address":null,"place":"Online","lat":null,"lon":null,"state":"active","id":null},{"event_id":"weeknight-jammin2","title":"Weeknight Jammin' 2 - A Jam For Busy People","url":"https://itch.io/jam/weeknight-jammin2","shortener_url":null,"started_at":"2024-11-12T07:00:00.000+09:00","ended_at":"2024-11-17T04:00:00.000+09:00","limit_number":null,"address":null,"place":"Online","lat":null,"lon":null,"state":"active","id":null},{"event_id":"jama-jam-november-2024","title":"JAMA Jam - November 2024","url":"https://itch.io/jam/jama-jam-november-2024","shortener_url":null,"started_at":"2024-11-02T08:00:00.000+09:00","ended_at":"2024-11-04T09:00:00.000+09:00","limit_number":null,"address":null,"place":"Online","lat":null,"lon":null,"state":"active","id":null},{"event_id":"kyoto-sozo-game-jam","title":"京都創造ゲームジャム Games for Good","url":"https://itch.io/jam/kyoto-sozo-game-jam","shortener_url":"https://tiny.cc/bbcrzz","started_at":"2024-11-11T14:11:02.000+09:00","ended_at":"2024-11-11T20:11:12.000+09:00","limit_number":null,"address":null,"place":"Online","lat":null,"lon":null,"state":"active","id":null},{"event_id":"navidades-pasadas-1pag-rpg","title":"Navidades pasadas - 1PAG-RPG","url":"https://itch.io/jam/navidades-pasadas-1pag-rpg","shortener_url":null,"started_at":"2024-11-01T12:00:00.000+09:00","ended_at":"2024-12-25T12:00:00.000+09:00","limit_number":null,"address":null,"place":"Online","lat":null,"lon":null,"state":"active","id":null},{"event_id":"178677","title":"【11/12(火)夜】ザキヤマが高地さんに聞く！「スタートアップって何ですか？」","url":"https://founderscircle.doorkeeper.jp/events/178677","shortener_url":null,"started_at":"2024-11-12T19:00:00.000+09:00","ended_at":"2024-11-12T21:00:00.000+09:00","limit_number":60,"address":"静岡県静岡市葵区鷹匠２丁目８１０","place":"＝ODEN | 静鉄のコワーキングスペース","lat":34.9774,"lon":138.389,"state":"active","id":null},{"event_id":"178707","title":"ハックツハッカソン ~ラブカカップ~","url":"https://hackz-community.doorkeeper.jp/events/178707","shortener_url":"https://tiny.cc/95etzz","started_at":"2024-11-23T10:00:00.000+09:00","ended_at":"2024-11-24T19:00:00.000+09:00","limit_number":20,"address":"〒810-0041 福岡県福岡市中央区大名一丁目8-6 HCC BLD. ","place":"株式会社ヌーラボ 福岡本社 7階","lat":33.5866,"lon":130.392,"state":"active","id":null},{"event_id":"178914","title":"リアルな最新事例で学ぶ！強い経営・次の一手知って得する知財マネジメント","url":"https://swshizuoka.doorkeeper.jp/events/178914","shortener_url":null,"started_at":"2024-11-21T13:30:00.000+09:00","ended_at":"2024-11-21T16:30:00.000+09:00","limit_number":null,"address":"静岡県静岡市葵区紺屋町１７１ 葵タワー17階","place":"有限責任監査法人トーマツ 葵タワー17階 セミナールーム","lat":34.9725,"lon":138.387,"state":"active","id":null},{"event_id":"178922","title":"リアルな最新事例で学ぶ！強い経営・次の一手知って得する知財マネジメント","url":"https://founderscircle.doorkeeper.jp/events/178922","shortener_url":null,"started_at":"2024-11-21T13:30:00.000+09:00","ended_at":"2024-11-21T16:30:00.000+09:00","limit_number":null,"address":"静岡県静岡市葵区紺屋町１７１ 葵タワー17階","place":"有限責任監査法人トーマツ 葵タワー17階 セミナールーム","lat":34.9725,"lon":138.387,"state":"active","id":null},{"event_id":null,"title":"Accelerate App Development with GitHub Copilot","url":"https://github-copilot.devpost.com/","shortener_url":null,"started_at":"2024-11-01T09:00:00.000+09:00","ended_at":"2024-12-18T09:00:00.000+09:00","limit_number":null,"address":null,"place":"Online","lat":null,"lon":null,"state":"active","id":null},{"event_id":"335222","title":"サブスクアプリ業界交流ナイト！","url":"https://revenuecat.connpass.com/event/335222/","shortener_url":"https://tiny.cc/55etzz","started_at":"2024-11-20T19:00:00.000+09:00","ended_at":"2024-11-20T22:00:00.000+09:00","limit_number":90,"address":"東京都港区虎ノ門1-17-1 虎ノ門ヒルズビジネスタワー","place":"Meta Platforms Technologies Japan合同会社","lat":35.6678,"lon":139.75,"state":"active","id":null},{"event_id":null,"title":"AWS Game Builder Challenge ","url":"https://awsdevchallenge.devpost.com/","shortener_url":null,"started_at":"2024-11-01T09:00:00.000+09:00","ended_at":"2025-01-14T09:00:00.000+09:00","limit_number":null,"address":null,"place":"Online","lat":null,"lon":null,"state":"active","id":null},{"event_id":"vimjam5","title":"VimJam 5 (8 Bits to Infinity)","url":"https://itch.io/jam/vimjam5","shortener_url":null,"started_at":"2024-11-09T03:00:00.000+09:00","ended_at":"2024-11-19T03:00:00.000+09:00","limit_number":null,"address":null,"place":"Online","lat":null,"lon":null,"state":"active","id":null},{"event_id":null,"title":"Omi Apps Hackathon","url":"https://omi.devpost.com/","shortener_url":null,"started_at":"2024-11-01T09:00:00.000+09:00","ended_at":"2024-12-01T09:00:00.000+09:00","limit_number":null,"address":null,"place":"Online","lat":null,"lon":null,"state":"active","id":null},{"event_id":"scratch-game-jam-20","title":"Scratch Game Jam #20","url":"https://itch.io/jam/scratch-game-jam-20","shortener_url":"https://tiny.cc/l4etzz","started_at":"2024-11-08T09:00:00.000+09:00","ended_at":"2024-11-22T09:00:00.000+09:00","limit_number":null,"address":null,"place":"Online","lat":null,"lon":null,"state":"active","id":null},{"event_id":null,"title":"Motus Hacks","url":"https://motushacks.devpost.com/","shortener_url":null,"started_at":"2024-11-01T09:00:00.000+09:00","ended_at":"2024-12-01T09:00:00.000+09:00","limit_number":null,"address":null,"place":"Online","lat":null,"lon":null,"state":"active","id":null},{"event_id":null,"title":"CPP Build With AI Hybrid Hackathon","url":"https://build-with-ai-cpp.devpost.com/","shortener_url":null,"started_at":"2024-11-01T09:00:00.000+09:00","ended_at":"2024-11-07T09:00:00.000+09:00","limit_number":null,"address":null,"place":"Online","lat":null,"lon":null,"state":"active","id":null},{"event_id":null,"title":"WQCC x IBM Qiskit Fall Fest Hackathon 2024","url":"https://wqcc.devpost.com/","shortener_url":null,"started_at":"2024-11-02T09:00:00.000+09:00","ended_at":"2024-11-11T09:00:00.000+09:00","limit_number":null,"address":null,"place":"Online","lat":null,"lon":null,"state":"active","id":null},{"event_id":null,"title":"Bath Game Jam 2024","url":"https://jam24.devpost.com/","shortener_url":null,"started_at":"2024-11-02T09:00:00.000+09:00","ended_at":"2024-11-12T09:00:00.000+09:00","limit_number":null,"address":null,"place":"Online","lat":null,"lon":null,"state":"active","id":null},{"event_id":null,"title":"Cornucodia 2024","url":"https://cornucodia2.devpost.com/","shortener_url":null,"started_at":"2024-11-01T09:00:00.000+09:00","ended_at":"2024-11-28T09:00:00.000+09:00","limit_number":null,"address":null,"place":"Online","lat":null,"lon":null,"state":"active","id":null},{"event_id":null,"title":"SASE LSU GeauxHack 2024","url":"https://sase-lsu-geauxhack-2024.devpost.com/","shortener_url":null,"started_at":"2024-11-01T09:00:00.000+09:00","ended_at":"2024-11-03T09:00:00.000+09:00","limit_number":null,"address":null,"place":"Online","lat":null,"lon":null,"state":"active","id":null},{"event_id":null,"title":"Cam Hack 2024","url":"https://cam-hack-2024.devpost.com/","shortener_url":null,"started_at":"2024-11-02T09:00:00.000+09:00","ended_at":"2024-11-03T09:00:00.000+09:00","limit_number":null,"address":null,"place":"Online","lat":null,"lon":null,"state":"active","id":null},{"event_id":null,"title":"The Docusign Hackathon: Unlocked","url":"https://unlocked.devpost.com/","shortener_url":"https://tiny.cc/45etzz","started_at":"2024-11-20T09:00:00.000+09:00","ended_at":"2025-01-27T09:00:00.000+09:00","limit_number":null,"address":null,"place":"Online","lat":null,"lon":null,"state":"active","id":null},{"event_id":null,"title":"Meta Horizon Creator Competition: Short Loop Mobile Worlds","url":"https://mhcp-competition-2024.devpost.com/","shortener_url":null,"started_at":"2024-11-08T09:00:00.000+09:00","ended_at":"2024-12-07T09:00:00.000+09:00","limit_number":null,"address":null,"place":"Online","lat":null,"lon":null,"state":"active","id":null},{"event_id":"finishyourgamejam2024","title":"\"Finish Your Game\" Jam 2024","url":"https://itch.io/jam/finishyourgamejam2024","shortener_url":"https://tiny.cc/p4etzz","started_at":"2024-11-09T13:00:00.000+09:00","ended_at":"2024-11-26T16:59:59.000+09:00","limit_number":null,"address":null,"place":"Online","lat":null,"lon":null,"state":"active","id":null},{"event_id":"335649","title":"マネジメント勉強会 #15テーマ：マネジメントの課題をTechで解決して欲しい事募集","url":"https://ruller.connpass.com/event/335649/","shortener_url":null,"started_at":"2024-11-11T20:00:00.000+09:00","ended_at":"2024-11-11T20:35:00.000+09:00","limit_number":20,"address":null,"place":"オンライン","lat":null,"lon":null,"state":"active","id":null},{"event_id":"pixel-gamejam-1","title":"Pixel Jam","url":"https://itch.io/jam/pixel-gamejam-1","shortener_url":null,"started_at":"2024-11-09T21:00:00.000+09:00","ended_at":"2024-11-23T21:00:00.000+09:00","limit_number":null,"address":null,"place":"Online","lat":null,"lon":null,"state":"active","id":null},{"event_id":null,"title":"Hack 4 Humanity","url":"https://hackhumanity.devpost.com/","shortener_url":null,"started_at":"2024-11-09T09:00:00.000+09:00","ended_at":"2024-12-02T09:00:00.000+09:00","limit_number":null,"address":null,"place":"Online","lat":null,"lon":null,"state":"active","id":null},{"event_id":null,"title":"Victor Hacks","url":"https://victor-hacks-nku.devpost.com/","shortener_url":null,"started_at":"2024-11-22T09:00:00.000+09:00","ended_at":"2024-11-24T09:00:00.000+09:00","limit_number":null,"address":null,"place":"Online","lat":null,"lon":null,"state":"active","id":null},{"event_id":null,"title":"Build Fully Decentralized Apps with AI and Blockchain via Arweave","url":"https://fullstack-hack.devpost.com/","shortener_url":null,"started_at":"2024-11-04T09:00:00.000+09:00","ended_at":"2024-11-25T09:00:00.000+09:00","limit_number":null,"address":null,"place":"Online","lat":null,"lon":null,"state":"active","id":null},{"event_id":null,"title":"HackSussex GameJam 2024","url":"https://hacksussex-gamejam-2024.devpost.com/","shortener_url":"https://tiny.cc/j5etzz","started_at":"2024-11-30T09:00:00.000+09:00","ended_at":"2024-12-01T09:00:00.000+09:00","limit_number":null,"address":null,"place":"Online","lat":null,"lon":null,"state":"active","id":null},{"event_id":null,"title":"MakeUC 2024","url":"https://makeuc-2024.devpost.com/","shortener_url":null,"started_at":"2024-11-09T09:00:00.000+09:00","ended_at":"2024-11-10T09:00:00.000+09:00","limit_number":null,"address":null,"place":"Online","lat":null,"lon":null,"state":"active","id":null},{"event_id":null,"title":"Global Hack Week: Career","url":"https://global-hack-week-career.devpost.com/","shortener_url":null,"started_at":"2024-11-08T09:00:00.000+09:00","ended_at":"2024-11-14T09:00:00.000+09:00","limit_number":null,"address":null,"place":"Online","lat":null,"lon":null,"state":"active","id":null},{"event_id":"mini-jam-171-mystic","title":"Mini Jam 171: Mystic","url":"https://itch.io/jam/mini-jam-171-mystic","shortener_url":null,"started_at":"2024-11-08T13:00:00.000+09:00","ended_at":"2024-11-11T13:00:00.000+09:00","limit_number":null,"address":null,"place":"Online","lat":null,"lon":null,"state":"active","id":null},{"event_id":null,"title":"Eclipse Hacks","url":"https://eclipsehacks.devpost.com/","shortener_url":null,"started_at":"2024-11-15T09:00:00.000+09:00","ended_at":"2024-11-17T09:00:00.000+09:00","limit_number":null,"address":null,"place":"Online","lat":null,"lon":null,"state":"active","id":null},{"event_id":null,"title":"MIT Energy and Climate Hackathon","url":"https://mitenergyhack.devpost.com/","shortener_url":"https://tiny.cc/x4etzz","started_at":"2024-11-15T09:00:00.000+09:00","ended_at":"2024-11-17T09:00:00.000+09:00","limit_number":null,"address":null,"place":"Online","lat":null,"lon":null,"state":"active","id":null},{"event_id":null,"title":"ViHACKS I 2024","url":"https://vihacks-2024.devpost.com/","shortener_url":null,"started_at":"2024-11-22T09:00:00.000+09:00","ended_at":"2024-11-24T09:00:00.000+09:00","limit_number":null,"address":null,"place":"Online","lat":null,"lon":null,"state":"active","id":null},{"event_id":null,"title":"Datathon 1.0","url":"https://csueastbay-datathon-2024.devpost.com/","shortener_url":null,"started_at":"2024-11-15T09:00:00.000+09:00","ended_at":"2024-11-17T09:00:00.000+09:00","limit_number":null,"address":null,"place":"Online","lat":null,"lon":null,"state":"active","id":null},{"event_id":"godot-wild-jam-75","title":"Godot Wild Jam #75","url":"https://itch.io/jam/godot-wild-jam-75","shortener_url":null,"started_at":"2024-11-09T06:00:00.000+09:00","ended_at":"2024-11-18T06:00:00.000+09:00","limit_number":null,"address":null,"place":"Online","lat":null,"lon":null,"state":"active","id":null},{"event_id":null,"title":"FireHacks Fall 2024","url":"https://firehacks-2024.devpost.com/","shortener_url":null,"started_at":"2024-11-14T09:00:00.000+09:00","ended_at":"2024-11-28T09:00:00.000+09:00","limit_number":null,"address":null,"place":"Online","lat":null,"lon":null,"state":"active","id":null},{"event_id":null,"title":"UB Hacking Fall 2024","url":"https://ub-hacking-fall-2024.devpost.com/","shortener_url":null,"started_at":"2024-11-07T09:00:00.000+09:00","ended_at":"2024-11-10T09:00:00.000+09:00","limit_number":null,"address":null,"place":"Online","lat":null,"lon":null,"state":"active","id":null},{"event_id":null,"title":"Sparksphere Hackathon 2024","url":"https://sparksphere-hackathon-2024.devpost.com/","shortener_url":"https://tiny.cc/h4etzz","started_at":"2024-11-04T09:00:00.000+09:00","ended_at":"2024-11-05T08:59:59.999+09:00","limit_number":null,"address":null,"place":"Online","lat":null,"lon":null,"state":"active","id":null},{"event_id":"335648","title":"はじめての3Dプリンターワークショップ","url":"https://iotlab.connpass.com/event/335648/","shortener_url":"https://tiny.cc/15etzz","started_at":"2024-11-17T13:00:00.000+09:00","ended_at":"2024-11-17T16:30:00.000+09:00","limit_number":3,"address":"東京都秋葉原駅徒歩5分","place":"秋葉原ハッカースペース","lat":35.6984,"lon":139.773,"state":"active","id":null},{"event_id":null,"title":"Bugfix Hacks 2024","url":"https://bugfix-chill-hackathon.devpost.com/","shortener_url":null,"started_at":"2024-11-16T09:00:00.000+09:00","ended_at":"2024-12-01T09:00:00.000+09:00","limit_number":null,"address":null,"place":"Online","lat":null,"lon":null,"state":"active","id":null},{"event_id":"334714","title":"【DERTA GIG vol.15】学生エンジニアコミュニティMeetup in Nagaoka","url":"https://ddd-ng.connpass.com/event/334714/","shortener_url":"https://tiny.cc/25etzz","started_at":"2024-11-17T15:00:00.000+09:00","ended_at":"2024-11-17T17:30:00.000+09:00","limit_number":25,"address":"〒940-0062 新潟県長岡市大手通２丁目３１０","place":"米百俵プレイス ミライエ長岡","lat":37.4484,"lon":138.849,"state":"active","id":null},{"event_id":"winter-horrorland-ttrpg-jam-2024","title":"Winter Horrorland TTRPG Jam 2024","url":"https://itch.io/jam/winter-horrorland-ttrpg-jam-2024","shortener_url":null,"started_at":"2024-11-19T02:11:00.000+09:00","ended_at":"2024-12-21T02:11:00.000+09:00","limit_number":null,"address":null,"place":"Online","lat":null,"lon":null,"state":"active","id":null},{"event_id":"335791","title":"ZAICO Tech Night 「自社SaaSのハッカソンを覗き見！」","url":"https://zaico.connpass.com/event/335791/","shortener_url":"https://tiny.cc/65etzz","started_at":"2024-11-20T19:00:00.000+09:00","ended_at":"2024-11-20T20:00:00.000+09:00","limit_number":50,"address":"オンライン","place":"オンライン","lat":0.0,"lon":0.0,"state":"active","id":null},{"event_id":"335117","title":"【大阪-オンライン開催】XRミーティング 2024/11/20【AR/CR/MR/SR/VR】","url":"https://osaka-driven-dev.connpass.com/event/335117/","shortener_url":"https://tiny.cc/75etzz","started_at":"2024-11-20T20:00:00.000+09:00","ended_at":"2024-11-20T21:30:00.000+09:00","limit_number":23,"address":"大阪市北区本庄東1-18-8","place":"XR 5.6 Room","lat":34.7121,"lon":135.508,"state":"active","id":null},{"event_id":"334555","title":"アーバンデータチャレンジ2024 ハッカソン in 山口","url":"https://code-for-yamaguchi.connpass.com/event/334555/","shortener_url":"https://tiny.cc/a5etzz","started_at":"2024-11-23T10:00:00.000+09:00","ended_at":"2024-11-24T18:00:00.000+09:00","limit_number":20,"address":"山口県山口市小郡長谷１丁目３１５ 小郡第6ビル 2階","place":"キチナングループ株式会社 新山口オフィス","lat":34.096,"lon":131.393,"state":"active","id":null},{"event_id":"335346","title":"アーバンデータチャレンジ2024徳島拠点イベントDay 3","url":"https://connpass.com/event/335346/","shortener_url":"https://tiny.cc/b5etzz","started_at":"2024-11-24T10:00:00.000+09:00","ended_at":"2024-11-24T17:00:00.000+09:00","limit_number":35,"address":"770-0814 徳島県徳島市南常三島町１丁目１","place":"徳島大学常三島キャンパス","lat":34.078,"lon":134.56,"state":"active","id":null},{"event_id":"pandora-jam","title":"Pandora Jam","url":"https://itch.io/jam/pandora-jam","shortener_url":null,"started_at":"2024-11-16T04:00:00.000+09:00","ended_at":"2024-11-18T10:00:00.000+09:00","limit_number":null,"address":null,"place":"Online","lat":null,"lon":null,"state":"active","id":null},{"event_id":"335587","title":"Power Appsでハッカソンしたいけぇ#10","url":"https://jpaug-hiroshima.connpass.com/event/335587/","shortener_url":"https://tiny.cc/c5etzz","started_at":"2024-11-24T11:00:00.000+09:00","ended_at":"2024-11-24T15:00:00.000+09:00","limit_number":24,"address":"広島県広島市中区鉄砲町7番4号","place":"株式会社ビットゼミ","lat":34.3949,"lon":132.465,"state":"active","id":null},{"event_id":"gn-game-jam-15","title":"GN! Game Jam #15 (Autumn 2024)","url":"https://itch.io/jam/gn-game-jam-15","shortener_url":"https://tiny.cc/v4etzz","started_at":"2024-11-12T21:00:00.000+09:00","ended_at":"2024-11-18T05:00:00.000+09:00","limit_number":null,"address":null,"place":"Online","lat":null,"lon":null,"state":"active","id":null},{"event_id":"334362","title":"【GDG Osaka】生成AI LT忘年会 #Gemini #Gemma  #BuildWithAI","url":"https://gdgosaka.connpass.com/event/334362/","shortener_url":"https://tiny.cc/e5etzz","started_at":"2024-11-27T19:00:00.000+09:00","ended_at":"2024-11-27T21:00:00.000+09:00","limit_number":50,"address":"大阪市北区本庄東1丁目18番8号","place":"コミュニティスペース5.6","lat":34.7121,"lon":135.508,"state":"active","id":null},{"event_id":"335192","title":"GDG DevFest Tokyo 2024","url":"https://gdg-tokyo.connpass.com/event/335192/","shortener_url":"https://tiny.cc/k5etzz","started_at":"2024-11-30T12:00:00.000+09:00","ended_at":"2024-11-30T18:30:00.000+09:00","limit_number":600,"address":"〒160-0023 東京都新宿区西新宿１丁目７２","place":"東京モード学園 総合校舎モード学園コクーンタワー","lat":35.6915,"lon":139.698,"state":"active","id":null},{"event_id":"untitled-game-jam-101","title":"Untitled Game Jam #101","url":"https://itch.io/jam/untitled-game-jam-101","shortener_url":"https://tiny.cc/m4etzz","started_at":"2024-11-08T10:00:00.000+09:00","ended_at":"2024-11-18T10:00:00.000+09:00","limit_number":null,"address":null,"place":"Online","lat":null,"lon":null,"state":"active","id":null},{"event_id":"2500-whalepass-gamejam-2","title":"$2,500 Whalepass GameJam! #2","url":"https://itch.io/jam/2500-whalepass-gamejam-2","shortener_url":"https://tiny.cc/i5etzz","started_at":"2024-11-30T05:00:00.000+09:00","ended_at":"2024-12-03T05:59:59.000+09:00","limit_number":null,"address":null,"place":"Online","lat":null,"lon":null,"state":"active","id":null},{"event_id":"macro-jam-3","title":"Macro Jam #3","url":"https://itch.io/jam/macro-jam-3","shortener_url":null,"started_at":"2024-11-08T08:00:00.000+09:00","ended_at":"2024-11-12T08:00:00.000+09:00","limit_number":null,"address":null,"place":"Online","lat":null,"lon":null,"state":"active","id":null},{"event_id":"pigsquad0hgamejam2024","title":"PIGSquad does 0h Game Jam 2024","url":"https://itch.io/jam/pigsquad0hgamejam2024","shortener_url":null,"started_at":"2024-11-03T17:00:00.000+09:00","ended_at":"2024-11-03T17:15:00.000+09:00","limit_number":null,"address":null,"place":"Online","lat":null,"lon":null,"state":"active","id":null},{"event_id":"hedgejam-6","title":"HedgeJam #6","url":"https://itch.io/jam/hedgejam-6","shortener_url":null,"started_at":"2024-11-04T03:00:00.000+09:00","ended_at":"2024-11-18T15:00:00.000+09:00","limit_number":null,"address":null,"place":"Online","lat":null,"lon":null,"state":"active","id":null},{"event_id":"educational-jam-24","title":"Educational Jam","url":"https://itch.io/jam/educational-jam-24","shortener_url":null,"started_at":"2024-11-16T14:00:00.000+09:00","ended_at":"2024-11-26T14:00:00.000+09:00","limit_number":null,"address":null,"place":"Online","lat":null,"lon":null,"state":"active","id":null},{"event_id":"335505","title":"SocioInfo#29「RAGの利活用とデータ分析」（自然言語処理、生成AI、RAG他）","url":"https://socioinfo.connpass.com/event/335505/","shortener_url":"https://tiny.cc/85etzz","started_at":"2024-11-23T09:30:00.000+09:00","ended_at":"2024-11-24T15:00:00.000+09:00","limit_number":50,"address":"東京都新宿区市谷田町1-18","place":"中央大学　国際情報学部(iTL)　市ヶ谷田町キャンパス","lat":35.6937,"lon":139.737,"state":"active","id":null},{"event_id":"roblox-creative","title":"ROBLOX CREATIVE","url":"https://itch.io/jam/roblox-creative","shortener_url":"https://tiny.cc/k4etzz","started_at":"2024-11-05T07:30:00.000+09:00","ended_at":"2024-11-24T02:00:00.000+09:00","limit_number":null,"address":null,"place":"Online","lat":null,"lon":null,"state":"active","id":null},{"event_id":"fdotfdotudotndot-jam-2","title":"F.U.N. Jam 2","url":"https://itch.io/jam/fdotfdotudotndot-jam-2","shortener_url":null,"started_at":"2024-11-16T17:00:00.000+09:00","ended_at":"2024-11-26T05:00:00.000+09:00","limit_number":null,"address":null,"place":"Online","lat":null,"lon":null,"state":"active","id":null},{"event_id":"hnu-winter-jam-2024","title":"HNU Winter GameJam 2024","url":"https://itch.io/jam/hnu-winter-jam-2024","shortener_url":"https://tiny.cc/05etzz","started_at":"2024-11-17T08:00:00.000+09:00","ended_at":"2024-11-18T01:00:00.000+09:00","limit_number":null,"address":null,"place":"Online","lat":null,"lon":null,"state":"active","id":null},{"event_id":"mospolyjam-3","title":"MospolyJam 3.0","url":"https://itch.io/jam/mospolyjam-3","shortener_url":null,"started_at":"2024-11-08T20:00:00.000+09:00","ended_at":"2024-11-13T00:00:00.000+09:00","limit_number":null,"address":null,"place":"Online","lat":null,"lon":null,"state":"active","id":null},{"event_id":"factory-reset-jam-2","title":"Factory Reset Jam #2","url":"https://itch.io/jam/factory-reset-jam-2","shortener_url":null,"started_at":"2024-11-03T15:00:00.000+09:00","ended_at":"2024-11-17T16:00:00.000+09:00","limit_number":null,"address":null,"place":"Online","lat":null,"lon":null,"state":"active","id":null},{"event_id":"first-sanctum","title":"First Sanctum Jam","url":"https://itch.io/jam/first-sanctum","shortener_url":null,"started_at":"2024-11-09T03:00:00.000+09:00","ended_at":"2024-11-11T08:59:59.000+09:00","limit_number":null,"address":null,"place":"Online","lat":null,"lon":null,"state":"active","id":null},{"event_id":"trijam-295","title":"Trijam #295: The 3 hour game jam","url":"https://itch.io/jam/trijam-295","shortener_url":"https://tiny.cc/n4etzz","started_at":"2024-11-08T19:00:00.000+09:00","ended_at":"2024-11-11T19:00:00.000+09:00","limit_number":null,"address":null,"place":"Online","lat":null,"lon":null,"state":"active","id":null},{"event_id":"wsal-evan-100-member-game-jam","title":"WSAL Evan 100 Member Game Jam","url":"https://itch.io/jam/wsal-evan-100-member-game-jam","shortener_url":"https://tiny.cc/q4etzz","started_at":"2024-11-09T14:00:00.000+09:00","ended_at":"2024-11-11T14:00:00.000+09:00","limit_number":null,"address":null,"place":"Online","lat":null,"lon":null,"state":"active","id":null},{"event_id":"prototipagem-3d-jogos-digitais-unisinos-20242","title":"Prototipagem 3D - Jogos Digitais - UNISINOS 2024/2","url":"https://itch.io/jam/prototipagem-3d-jogos-digitais-unisinos-20242","shortener_url":null,"started_at":"2024-11-11T12:00:00.000+09:00","ended_at":"2024-11-27T07:30:00.000+09:00","limit_number":null,"address":null,"place":"Online","lat":null,"lon":null,"state":"active","id":null},{"event_id":"-natures-whisper-jam-","title":" Nature's Whisper Jam ","url":"https://itch.io/jam/-natures-whisper-jam-","shortener_url":null,"started_at":"2024-11-08T09:00:00.000+09:00","ended_at":"2024-11-16T09:00:00.000+09:00","limit_number":null,"address":null,"place":"Online","lat":null,"lon":null,"state":"active","id":null},{"event_id":"-spooky-night-jam-","title":" Spooky Night Jam ","url":"https://itch.io/jam/-spooky-night-jam-","shortener_url":null,"started_at":"2024-11-10T09:00:00.000+09:00","ended_at":"2024-11-17T09:00:00.000+09:00","limit_number":null,"address":null,"place":"Online","lat":null,"lon":null,"state":"active","id":null},{"event_id":"chair-jam-1","title":"chair jam - 1","url":"https://itch.io/jam/chair-jam-1","shortener_url":null,"started_at":"2024-11-05T08:59:59.000+09:00","ended_at":"2024-12-26T08:59:59.000+09:00","limit_number":null,"address":null,"place":"Online","lat":null,"lon":null,"state":"active","id":null},{"event_id":"goo-game-jam","title":"Goo'd Game Jam","url":"https://itch.io/jam/goo-game-jam","shortener_url":"https://tiny.cc/r4etzz","started_at":"2024-11-10T00:30:00.000+09:00","ended_at":"2024-11-17T00:30:00.000+09:00","limit_number":null,"address":null,"place":"Online","lat":null,"lon":null,"state":"active","id":null},{"event_id":"untitled-game-jam-102","title":"Untitled Game Jam #102","url":"https://itch.io/jam/untitled-game-jam-102","shortener_url":"https://tiny.cc/g5etzz","started_at":"2024-11-29T10:00:00.000+09:00","ended_at":"2024-12-09T10:00:00.000+09:00","limit_number":null,"address":null,"place":"Online","lat":null,"lon":null,"state":"active","id":null},{"event_id":"games-from-the-heart-jam-","title":"GAMES FROM THE HEART JAM ","url":"https://itch.io/jam/games-from-the-heart-jam-","shortener_url":null,"started_at":"2024-11-15T07:00:00.000+09:00","ended_at":"2024-12-01T07:00:00.000+09:00","limit_number":null,"address":null,"place":"Online","lat":null,"lon":null,"state":"active","id":null},{"event_id":"game-jam-madrid-crea-6-edicion","title":"Game Jam Madrid Crea, 6 edicin","url":"https://itch.io/jam/game-jam-madrid-crea-6-edicion","shortener_url":"https://tiny.cc/y4etzz","started_at":"2024-11-16T02:00:00.000+09:00","ended_at":"2024-11-25T07:59:59.000+09:00","limit_number":null,"address":null,"place":"Online","lat":null,"lon":null,"state":"active","id":null},{"event_id":"hyper-1-hour-game-jam-083","title":"Hyper 1 HOUR Game Jam! TOPIC: ??????","url":"https://itch.io/jam/hyper-1-hour-game-jam-083","shortener_url":"https://tiny.cc/o4etzz","started_at":"2024-11-09T08:00:00.000+09:00","ended_at":"2024-11-09T09:10:00.000+09:00","limit_number":null,"address":null,"place":"Online","lat":null,"lon":null,"state":"active","id":null},{"event_id":"gbc-jam-game-a-month","title":"Game Boy Color Jam - Game A Month","url":"https://itch.io/jam/gbc-jam-game-a-month","shortener_url":null,"started_at":"2024-11-16T02:00:00.000+09:00","ended_at":"2024-12-01T13:59:59.000+09:00","limit_number":null,"address":null,"place":"Online","lat":null,"lon":null,"state":"active","id":null},{"event_id":"liu-game-jam-fall-game-jam-2024","title":"LiU Game Jam - Fall Game Jam 2024","url":"https://itch.io/jam/liu-game-jam-fall-game-jam-2024","shortener_url":"https://tiny.cc/h5etzz","started_at":"2024-11-30T02:00:00.000+09:00","ended_at":"2024-12-02T02:00:00.000+09:00","limit_number":null,"address":null,"place":"Online","lat":null,"lon":null,"state":"active","id":null},{"event_id":"farm-fiesta-2024","title":" Farm Fiesta 2024 - Quirky","url":"https://itch.io/jam/farm-fiesta-2024","shortener_url":null,"started_at":"2024-11-10T13:00:00.000+09:00","ended_at":"2024-11-26T13:00:00.000+09:00","limit_number":null,"address":null,"place":"Online","lat":null,"lon":null,"state":"active","id":null},{"event_id":"npc-game-jam","title":"NPC GameJam","url":"https://itch.io/jam/npc-game-jam","shortener_url":"https://tiny.cc/w4etzz","started_at":"2024-11-15T02:00:00.000+09:00","ended_at":"2024-12-02T07:33:33.000+09:00","limit_number":null,"address":null,"place":"Online","lat":null,"lon":null,"state":"active","id":null},{"event_id":"gamejam-ts2024","title":"GameJam TS2024","url":"https://itch.io/jam/gamejam-ts2024","shortener_url":"https://tiny.cc/i4etzz","started_at":"2024-11-23T16:00:00.000+09:00","ended_at":"2024-11-25T16:00:00.000+09:00","limit_number":null,"address":null,"place":"Online","lat":null,"lon":null,"state":"active","id":null},{"event_id":"2d-game-jam-n2","title":"2D game jam #2","url":"https://itch.io/jam/2d-game-jam-n2","shortener_url":"https://tiny.cc/35etzz","started_at":"2024-11-17T20:00:00.000+09:00","ended_at":"2024-11-24T20:00:00.000+09:00","limit_number":null,"address":null,"place":"Online","lat":null,"lon":null,"state":"active","id":null},{"event_id":"cssa-game-jam-2024","title":"UManitoba CSSA Game Jam 2024","url":"https://itch.io/jam/cssa-game-jam-2024","shortener_url":"https://tiny.cc/z4etzz","started_at":"2024-11-16T03:00:00.000+09:00","ended_at":"2024-11-18T03:00:00.000+09:00","limit_number":null,"address":null,"place":"Online","lat":null,"lon":null,"state":"active","id":null},{"event_id":"si-tgj-2024-25","title":"VGD/ANI: Team Game Jam - 2024/25","url":"https://itch.io/jam/si-tgj-2024-25","shortener_url":"https://tiny.cc/u4etzz","started_at":"2024-11-12T17:00:00.000+09:00","ended_at":"2025-01-18T16:59:59.000+09:00","limit_number":null,"address":null,"place":"Online","lat":null,"lon":null,"state":"active","id":null},{"event_id":null,"title":"Mill City Hacks","url":"https://millcityhacks.devpost.com/","shortener_url":null,"started_at":"2024-11-16T09:00:00.000+09:00","ended_at":"2024-11-30T09:00:00.000+09:00","limit_number":null,"address":null,"place":"Online","lat":null,"lon":null,"state":"active","id":null},{"event_id":null,"title":"SheSTEMs for a Cause ","url":"https://shestems-for-a-cause-22956.devpost.com/","shortener_url":null,"started_at":"2024-11-30T09:00:00.000+09:00","ended_at":"2024-12-01T08:59:59.999+09:00","limit_number":null,"address":null,"place":"Online","lat":null,"lon":null,"state":"active","id":null},{"event_id":null,"title":"Naija SDGs FINTECH HACKATHON","url":"https://naija-sdg-fintech-hackathon.devpost.com/","shortener_url":"https://tiny.cc/eqjtzz","started_at":"2024-11-18T09:00:00.000+09:00","ended_at":"2024-11-22T09:00:00.000+09:00","limit_number":null,"address":null,"place":"Online","lat":null,"lon":null,"state":"active","id":null},{"event_id":"nsfw-minijam-11","title":"NSFW MiniJam #11","url":"https://itch.io/jam/nsfw-minijam-11","shortener_url":"https://tiny.cc/9qjtzz","started_at":"2024-11-09T08:00:00.000+09:00","ended_at":"2024-11-18T08:59:59.000+09:00","limit_number":null,"address":null,"place":"Online","lat":null,"lon":null,"state":"active","id":null},{"event_id":"impressions-composing-imagination-2","title":"Impressions Composing Jam: Imagination #2","url":"https://itch.io/jam/impressions-composing-imagination-2","shortener_url":null,"started_at":"2024-11-16T10:00:00.000+09:00","ended_at":"2024-12-02T11:00:00.000+09:00","limit_number":null,"address":null,"place":"Online","lat":null,"lon":null,"state":"active","id":null},{"event_id":"lapc","title":"LAPC Game Jam","url":"https://itch.io/jam/lapc","shortener_url":"https://tiny.cc/bqjtzz","started_at":"2024-11-10T09:00:00.000+09:00","ended_at":"2024-11-18T16:59:00.000+09:00","limit_number":null,"address":null,"place":"Online","lat":null,"lon":null,"state":"active","id":null},{"event_id":"kuba-jam-november-2024","title":"Kuba Jam - November 2024","url":"https://itch.io/jam/kuba-jam-november-2024","shortener_url":null,"started_at":"2024-11-23T23:00:00.000+09:00","ended_at":"2024-11-25T11:00:00.000+09:00","limit_number":null,"address":null,"place":"Online","lat":null,"lon":null,"state":"active","id":null},{"event_id":"communityjam","title":"Community Jam","url":"https://itch.io/jam/communityjam","shortener_url":null,"started_at":"2024-11-10T20:00:00.000+09:00","ended_at":"2024-11-17T20:00:00.000+09:00","limit_number":null,"address":null,"place":"Online","lat":null,"lon":null,"state":"active","id":null},{"event_id":"the-electric-zine-jam-winter-2024","title":"THE ELECTRIC ZINE JAM: WINTER 2024","url":"https://itch.io/jam/the-electric-zine-jam-winter-2024","shortener_url":null,"started_at":"2024-11-05T12:03:00.000+09:00","ended_at":"2025-02-15T17:07:04.000+09:00","limit_number":null,"address":null,"place":"Online","lat":null,"lon":null,"state":"active","id":null},{"event_id":"uogdc-november-jam-2024-all-on-red","title":"uOGDC X uOttaHack - All on Red Game Jam","url":"https://itch.io/jam/uogdc-november-jam-2024-all-on-red","shortener_url":"https://tiny.cc/8qjtzz","started_at":"2024-11-05T02:00:00.000+09:00","ended_at":"2024-11-30T09:30:00.000+09:00","limit_number":null,"address":null,"place":"Online","lat":null,"lon":null,"state":"active","id":null},{"event_id":"336270","title":"Kamakura Mok Mok Hack 199 - 鎌倉もくもく会","url":"https://kamkura-mokmok.connpass.com/event/336270/","shortener_url":null,"started_at":"2024-11-10T11:00:00.000+09:00","ended_at":"2024-11-10T14:00:00.000+09:00","limit_number":5,"address":"神奈川県鎌倉市御成町4-10","place":"ANOTHER DAY KAMAKURA","lat":35.3161,"lon":139.55,"state":"active","id":null},{"event_id":null,"title":"Cornucodia 2024","url":"https://cornucodia2024.devpost.com/","shortener_url":null,"started_at":"2024-11-10T09:00:00.000+09:00","ended_at":"2024-12-05T09:00:00.000+09:00","limit_number":null,"address":null,"place":"Online","lat":null,"lon":null,"state":"active","id":null},{"event_id":"336205","title":"アイマスもくもく会060回","url":"https://imastudy-mokumoku.connpass.com/event/336205/","shortener_url":null,"started_at":"2024-11-21T20:00:00.000+09:00","ended_at":"2024-11-21T22:00:00.000+09:00","limit_number":null,"address":"オンライン","place":"オンライン","lat":0.0,"lon":0.0,"state":"active","id":null},{"event_id":"micro-jam-027","title":"Micro Jam 027: Retro ($$ Prizes)","url":"https://itch.io/jam/micro-jam-027","shortener_url":null,"started_at":"2024-11-16T08:00:00.000+09:00","ended_at":"2024-11-18T08:00:00.000+09:00","limit_number":null,"address":null,"place":"Online","lat":null,"lon":null,"state":"active","id":null},{"event_id":"embrace-the-chaos","title":"Embrace the Chaos","url":"https://itch.io/jam/embrace-the-chaos","shortener_url":null,"started_at":"2024-11-30T07:30:00.000+09:00","ended_at":"2024-12-02T06:00:00.000+09:00","limit_number":null,"address":null,"place":"Online","lat":null,"lon":null,"state":"active","id":null},{"event_id":"black-dot-games-world-game-jam","title":"Black Dot Games - World Solo Game Jam","url":"https://itch.io/jam/black-dot-games-world-game-jam","shortener_url":null,"started_at":"2024-11-29T09:00:00.000+09:00","ended_at":"2024-12-02T08:59:59.000+09:00","limit_number":null,"address":null,"place":"Online","lat":null,"lon":null,"state":"active","id":null},{"event_id":"mixjam-19","title":"MixJam 19","url":"https://itch.io/jam/mixjam-19","shortener_url":null,"started_at":"2024-11-11T05:00:00.000+09:00","ended_at":"2024-11-18T05:00:00.000+09:00","limit_number":null,"address":null,"place":"Online","lat":null,"lon":null,"state":"active","id":null},{"event_id":"336332","title":"未経験者向けNext.js開発ワークショップ①","url":"https://connpass.com/event/336332/","shortener_url":null,"started_at":"2024-11-19T19:00:00.000+09:00","ended_at":"2024-11-19T20:30:00.000+09:00","limit_number":25,"address":"福岡市中央区天神1丁目15番30号","place":"エンジニアカフェ","lat":33.5931,"lon":130.402,"state":"active","id":null},{"event_id":"femininomenon","title":"Femininomenon Jam","url":"https://itch.io/jam/femininomenon","shortener_url":null,"started_at":"2024-11-11T14:00:00.000+09:00","ended_at":"2025-02-12T13:59:00.000+09:00","limit_number":null,"address":null,"place":"Online","lat":null,"lon":null,"state":"active","id":null},{"event_id":"pgdh-jam","title":"PanaJam #1","url":"https://itch.io/jam/pgdh-jam","shortener_url":null,"started_at":"2024-11-15T14:00:00.000+09:00","ended_at":"2024-11-22T13:00:00.000+09:00","limit_number":null,"address":null,"place":"Online","lat":null,"lon":null,"state":"active","id":null},{"event_id":"rives-jam-3","title":"RIVES Jam #3 (Theme: Slide)","url":"https://itch.io/jam/rives-jam-3","shortener_url":null,"started_at":"2024-11-16T07:59:59.000+09:00","ended_at":"2024-11-30T07:59:59.000+09:00","limit_number":null,"address":null,"place":"Online","lat":null,"lon":null,"state":"active","id":null},{"event_id":"gobble-gobble-jam","title":"Gobble Jam: No-Code Cook-Off","url":"https://itch.io/jam/gobble-gobble-jam","shortener_url":null,"started_at":"2024-11-15T00:00:00.000+09:00","ended_at":"2024-11-17T15:59:00.000+09:00","limit_number":null,"address":null,"place":"Online","lat":null,"lon":null,"state":"active","id":null},{"event_id":"whose-jam2","title":"Whose jam? - 2","url":"https://itch.io/jam/whose-jam2","shortener_url":null,"started_at":"2024-11-17T07:00:00.000+09:00","ended_at":"2024-11-24T07:00:00.000+09:00","limit_number":null,"address":null,"place":"Online","lat":null,"lon":null,"state":"active","id":null},{"event_id":"finkenaujam13","title":"HAW GameJam 13","url":"https://itch.io/jam/finkenaujam13","shortener_url":null,"started_at":"2024-11-23T03:00:00.000+09:00","ended_at":"2024-11-25T04:00:00.000+09:00","limit_number":null,"address":null,"place":"Online","lat":null,"lon":null,"state":"active","id":null},{"event_id":"mini-jame-gam-37","title":"Mini Jame Gam #37","url":"https://itch.io/jam/mini-jame-gam-37","shortener_url":null,"started_at":"2024-11-22T21:00:00.000+09:00","ended_at":"2024-11-25T07:00:00.000+09:00","limit_number":null,"address":null,"place":"Online","lat":null,"lon":null,"state":"active","id":null},{"event_id":"mmcs-game-jam-2024","title":"MMCS Game Jam 2024","url":"https://itch.io/jam/mmcs-game-jam-2024","shortener_url":null,"started_at":"2024-11-11T18:00:00.000+09:00","ended_at":"2024-11-18T18:00:00.000+09:00","limit_number":null,"address":null,"place":"Online","lat":null,"lon":null,"state":"active","id":null},{"event_id":"gamejam-esoft","title":"GameJam ESoft","url":"https://itch.io/jam/gamejam-esoft","shortener_url":null,"started_at":"2024-11-12T06:45:00.000+09:00","ended_at":"2024-11-16T11:59:00.000+09:00","limit_number":null,"address":null,"place":"Online","lat":null,"lon":null,"state":"active","id":null},{"event_id":"sketch-jam9","title":"sketch jam -- 1","url":"https://itch.io/jam/sketch-jam9","shortener_url":null,"started_at":"2024-11-10T01:00:00.000+09:00","ended_at":"2024-11-17T16:00:00.000+09:00","limit_number":null,"address":null,"place":"Online","lat":null,"lon":null,"state":"active","id":null},{"event_id":"diligence-2024-11-09","title":"Bitsy Snow Jam","url":"https://itch.io/jam/diligence-2024-11-09","shortener_url":null,"started_at":"2024-11-09T16:00:00.000+09:00","ended_at":"2024-11-10T16:00:00.000+09:00","limit_number":null,"address":null,"place":"Online","lat":null,"lon":null,"state":"active","id":null},{"event_id":"gamejamplus-2425","title":"GameJamPlus 24/25","url":"https://itch.io/jam/gamejamplus-2425","shortener_url":null,"started_at":"2024-11-08T13:00:00.000+09:00","ended_at":"2024-11-11T18:00:00.000+09:00","limit_number":null,"address":null,"place":"Online","lat":null,"lon":null,"state":"active","id":null},{"event_id":null,"title":"TAMU Datathon","url":"https://tamu-datathon.devpost.com/","shortener_url":null,"started_at":"2024-11-09T09:00:00.000+09:00","ended_at":"2024-11-10T09:00:00.000+09:00","limit_number":null,"address":null,"place":"Online","lat":null,"lon":null,"state":"active","id":null},{"event_id":"cause-jam-29","title":"Cause Jam 29","url":"https://itch.io/jam/cause-jam-29","shortener_url":null,"started_at":"2024-11-17T10:00:00.000+09:00","ended_at":"2024-12-16T13:59:59.000+09:00","limit_number":null,"address":null,"place":"Online","lat":null,"lon":null,"state":"active","id":null},{"event_id":"christmas-jam-boree","title":"Christmas Jam-boree","url":"https://itch.io/jam/christmas-jam-boree","shortener_url":null,"started_at":"2024-11-10T17:00:00.000+09:00","ended_at":"2024-12-22T17:00:00.000+09:00","limit_number":null,"address":null,"place":"Online","lat":null,"lon":null,"state":"active","id":null},{"event_id":null,"title":"RAG 'n' ROLL Amp up Search with Snowflake \u0026 Mistral","url":"https://snowflake-mistral-rag.devpost.com/","shortener_url":null,"started_at":"2024-11-12T09:00:00.000+09:00","ended_at":"2025-01-14T09:00:00.000+09:00","limit_number":null,"address":null,"place":"Online","lat":null,"lon":null,"state":"active","id":null},{"event_id":null,"title":"CTRL+HACK+DEL","url":"https://ctrlhackdel.devpost.com/","shortener_url":null,"started_at":"2024-11-09T09:00:00.000+09:00","ended_at":"2024-11-10T09:00:00.000+09:00","limit_number":null,"address":null,"place":"Online","lat":null,"lon":null,"state":"active","id":null},{"event_id":null,"title":"Building For Everyone with AI","url":"https://build-with-ai-for-everyone.devpost.com/","shortener_url":null,"started_at":"2024-11-08T09:00:00.000+09:00","ended_at":"2024-11-18T09:00:00.000+09:00","limit_number":null,"address":null,"place":"Online","lat":null,"lon":null,"state":"active","id":null},{"event_id":"cozy-fall-jam","title":"This Is Game Dev - Cozy Fall Jam","url":"https://itch.io/jam/cozy-fall-jam","shortener_url":null,"started_at":"2024-11-18T08:00:00.000+09:00","ended_at":"2024-11-25T08:00:00.000+09:00","limit_number":null,"address":null,"place":"Online","lat":null,"lon":null,"state":"active","id":null},{"event_id":"tavern-game-jam-mothership-month","title":"Tavern Game Jam Mothership Month","url":"https://itch.io/jam/tavern-game-jam-mothership-month","shortener_url":null,"started_at":"2024-11-15T06:00:00.000+09:00","ended_at":"2024-12-06T06:00:00.000+09:00","limit_number":null,"address":null,"place":"Online","lat":null,"lon":null,"state":"active","id":null},{"event_id":"longgame-tech-innovation-jam-39-vision","title":"Longgame Tech Innovation Jam 39 - Vision","url":"https://itch.io/jam/longgame-tech-innovation-jam-39-vision","shortener_url":null,"started_at":"2024-11-20T14:00:00.000+09:00","ended_at":"2024-12-01T13:59:00.000+09:00","limit_number":null,"address":null,"place":"Online","lat":null,"lon":null,"state":"active","id":null},{"event_id":"team-test-gamejam","title":"Team Test Gamejam","url":"https://itch.io/jam/team-test-gamejam","shortener_url":null,"started_at":"2024-11-16T00:00:00.000+09:00","ended_at":"2024-11-30T00:00:00.000+09:00","limit_number":null,"address":null,"place":"Online","lat":null,"lon":null,"state":"active","id":null},{"event_id":null,"title":"Immerse the Bay","url":"https://immerse-the-bay-2024.devpost.com/","shortener_url":null,"started_at":"2024-11-08T09:00:00.000+09:00","ended_at":"2024-11-10T09:00:00.000+09:00","limit_number":null,"address":null,"place":"Online","lat":null,"lon":null,"state":"active","id":null},{"event_id":null,"title":"Fresh Hacks","url":"https://fresh-hacks-23013.devpost.com/","shortener_url":null,"started_at":"2024-11-13T09:00:00.000+09:00","ended_at":"2024-11-14T09:00:00.000+09:00","limit_number":null,"address":null,"place":"Online","lat":null,"lon":null,"state":"active","id":null},{"event_id":"shitpost-ttrpg-jam","title":"Shitpost TTRPG Jam","url":"https://itch.io/jam/shitpost-ttrpg-jam","shortener_url":null,"started_at":"2024-11-22T14:00:00.000+09:00","ended_at":"2024-12-31T22:00:00.000+09:00","limit_number":null,"address":null,"place":"Online","lat":null,"lon":null,"state":"active","id":null},{"event_id":"circle-jam-paradise-blitz","title":"Draw a Circle (paradise blitz ix)","url":"https://itch.io/jam/circle-jam-paradise-blitz","shortener_url":null,"started_at":"2024-11-10T08:23:07.000+09:00","ended_at":"2024-11-17T08:23:12.000+09:00","limit_number":null,"address":null,"place":"Online","lat":null,"lon":null,"state":"active","id":null},{"event_id":"trijam-296","title":"Trijam #296: The 3 hour game jam","url":"https://itch.io/jam/trijam-296","shortener_url":null,"started_at":"2024-11-15T19:00:00.000+09:00","ended_at":"2024-11-18T19:00:00.000+09:00","limit_number":null,"address":null,"place":"Online","lat":null,"lon":null,"state":"active","id":null},{"event_id":"global-godot-game-jam","title":"Global Godot Arab Game Jam","url":"https://itch.io/jam/global-godot-game-jam","shortener_url":null,"started_at":"2024-11-13T06:00:00.000+09:00","ended_at":"2024-11-20T06:00:00.000+09:00","limit_number":null,"address":null,"place":"Online","lat":null,"lon":null,"state":"active","id":null},{"event_id":"the-classic-denpa-game-jam","title":"Classic Denpa  Jam","url":"https://itch.io/jam/the-classic-denpa-game-jam","shortener_url":null,"started_at":"2024-11-13T08:24:00.000+09:00","ended_at":"2025-01-11T08:24:00.000+09:00","limit_number":null,"address":null,"place":"Online","lat":null,"lon":null,"state":"active","id":null},{"event_id":"cenji-quick-jam-2","title":"CENJI Quick Jam #2","url":"https://itch.io/jam/cenji-quick-jam-2","shortener_url":null,"started_at":"2024-11-11T20:00:00.000+09:00","ended_at":"2024-11-23T13:59:59.000+09:00","limit_number":null,"address":null,"place":"Online","lat":null,"lon":null,"state":"active","id":null},{"event_id":"cow-jam-mini","title":"Джем Творцов Мини","url":"https://itch.io/jam/cow-jam-mini","shortener_url":null,"started_at":"2024-11-18T06:00:00.000+09:00","ended_at":"2024-11-25T06:59:00.000+09:00","limit_number":null,"address":null,"place":"Online","lat":null,"lon":null,"state":"active","id":null},{"event_id":null,"title":"UXperience 2024: The First Draft","url":"https://uxperience24.devpost.com/","shortener_url":null,"started_at":"2024-11-09T09:00:00.000+09:00","ended_at":"2024-11-10T09:00:00.000+09:00","limit_number":null,"address":null,"place":"Online","lat":null,"lon":null,"state":"active","id":null},{"event_id":null,"title":"HackED Beta 2024","url":"https://hackedbeta2024.devpost.com/","shortener_url":null,"started_at":"2024-11-09T09:00:00.000+09:00","ended_at":"2024-11-10T09:00:00.000+09:00","limit_number":null,"address":null,"place":"Online","lat":null,"lon":null,"state":"active","id":null},{"event_id":"gds-jam-2024","title":"GDS Prague Game Jam 2024","url":"https://itch.io/jam/gds-jam-2024","shortener_url":null,"started_at":"2024-11-30T02:00:00.000+09:00","ended_at":"2024-12-02T02:00:00.000+09:00","limit_number":null,"address":null,"place":"Online","lat":null,"lon":null,"state":"active","id":null},{"event_id":null,"title":"Missouri Hacks 2024","url":"https://missourihacks.devpost.com/","shortener_url":null,"started_at":"2024-11-16T09:00:00.000+09:00","ended_at":"2024-11-17T08:59:59.999+09:00","limit_number":null,"address":null,"place":"Online","lat":null,"lon":null,"state":"active","id":null},{"event_id":null,"title":"Nova Hacks II - (Featured Article, $19K Non-Cash Pool, Internship)","url":"https://nova-hacks-ii.devpost.com/","shortener_url":null,"started_at":"2024-11-16T09:00:00.000+09:00","ended_at":"2024-12-15T09:00:00.000+09:00","limit_number":null,"address":null,"place":"Online","lat":null,"lon":null,"state":"active","id":null},{"event_id":null,"title":"CultureHack 2024","url":"https://culturehack2024.devpost.com/","shortener_url":null,"started_at":"2024-11-20T09:00:00.000+09:00","ended_at":"2024-11-21T08:59:59.999+09:00","limit_number":null,"address":null,"place":"Online","lat":null,"lon":null,"state":"active","id":null},{"event_id":"redotgamjam","title":"Redot Gam Jam","url":"https://itch.io/jam/redotgamjam","shortener_url":null,"started_at":"2024-11-15T23:01:00.000+09:00","ended_at":"2024-11-23T22:59:00.000+09:00","limit_number":null,"address":null,"place":"Online","lat":null,"lon":null,"state":"active","id":null},{"event_id":"advxjam2024","title":"AdvXJam 2024","url":"https://itch.io/jam/advxjam2024","shortener_url":null,"started_at":"2024-11-16T19:00:00.000+09:00","ended_at":"2024-12-01T07:00:00.000+09:00","limit_number":null,"address":null,"place":"Online","lat":null,"lon":null,"state":"active","id":null},{"event_id":"hyper-1-hour-game-jam-084","title":"Hyper 1 HOUR Game Jam! TOPIC: ??????","url":"https://itch.io/jam/hyper-1-hour-game-jam-084","shortener_url":null,"started_at":"2024-11-16T08:00:00.000+09:00","ended_at":"2024-11-16T09:10:00.000+09:00","limit_number":null,"address":null,"place":"Online","lat":null,"lon":null,"state":"active","id":null},{"event_id":"the-soulsborne-jam","title":"SOULSBORNE JAM","url":"https://itch.io/jam/the-soulsborne-jam","shortener_url":null,"started_at":"2024-11-16T01:21:20.000+09:00","ended_at":"2025-01-11T01:21:31.000+09:00","limit_number":null,"address":null,"place":"Online","lat":null,"lon":null,"state":"active","id":null},{"event_id":"lost-in-adaptation","title":"Lost in Adaptation","url":"https://itch.io/jam/lost-in-adaptation","shortener_url":null,"started_at":"2024-11-16T05:00:00.000+09:00","ended_at":"2024-11-23T05:00:00.000+09:00","limit_number":null,"address":null,"place":"Online","lat":null,"lon":null,"state":"active","id":null},{"event_id":null,"title":"Sng To AI Vit Nam - AI Unleashed","url":"https://vietnam-ai-ambition.devpost.com/","shortener_url":null,"started_at":"2024-11-10T09:00:00.000+09:00","ended_at":"2024-12-31T09:00:00.000+09:00","limit_number":null,"address":null,"place":"Online","lat":null,"lon":null,"state":"active","id":null},{"event_id":null,"title":"Hack For Youth","url":"https://hack-for-youth1.devpost.com/","shortener_url":null,"started_at":"2024-11-24T09:00:00.000+09:00","ended_at":"2024-11-25T08:59:59.999+09:00","limit_number":null,"address":null,"place":"Online","lat":null,"lon":null,"state":"active","id":null},{"event_id":"jamtime","title":"JamTime","url":"https://itch.io/jam/jamtime","shortener_url":null,"started_at":"2024-11-16T17:00:00.000+09:00","ended_at":"2024-11-24T05:00:00.000+09:00","limit_number":null,"address":null,"place":"Online","lat":null,"lon":null,"state":"active","id":null},{"event_id":"oot-mm-living-world-jam","title":"Ocarina of Time / Majora's Mask \"Living World\" Jam","url":"https://itch.io/jam/oot-mm-living-world-jam","shortener_url":null,"started_at":"2024-11-22T20:00:00.000+09:00","ended_at":"2025-03-10T13:00:00.000+09:00","limit_number":null,"address":null,"place":"Online","lat":null,"lon":null,"state":"active","id":null},{"event_id":"migjam-25","title":"MigJam #25 (5^2)","url":"https://itch.io/jam/migjam-25","shortener_url":null,"started_at":"2024-11-16T12:00:59.000+09:00","ended_at":"2024-12-01T12:00:09.000+09:00","limit_number":null,"address":null,"place":"Online","lat":null,"lon":null,"state":"active","id":null},{"event_id":"leenabot-robotics-game-jam-","title":"LeenaBOT Robotics Game Jam","url":"https://itch.io/jam/leenabot-robotics-game-jam-","shortener_url":null,"started_at":"2024-11-18T02:00:00.000+09:00","ended_at":"2024-12-07T14:00:00.000+09:00","limit_number":null,"address":null,"place":"Online","lat":null,"lon":null,"state":"active","id":null},{"event_id":"337022","title":"【北海道オンライン会場】AIミーティング 2024/11/13 #AIMTG 【zoom接続】","url":"https://connpass.com/event/337022/","shortener_url":null,"started_at":"2024-11-13T20:00:00.000+09:00","ended_at":"2024-11-13T21:30:00.000+09:00","limit_number":null,"address":"オンライン","place":"オンライン","lat":0.0,"lon":0.0,"state":"active","id":null},{"event_id":null,"title":"CS Club X BMIC Machine Learning Contest","url":"https://csclub-ml-contest.devpost.com/","shortener_url":null,"started_at":"2024-11-11T09:00:00.000+09:00","ended_at":"2024-11-18T09:00:00.000+09:00","limit_number":null,"address":null,"place":"Online","lat":null,"lon":null,"state":"active","id":null},{"event_id":null,"title":"TechFiesta International-level Hackathon 2025","url":"https://techfiesta.devpost.com/","shortener_url":null,"started_at":"2024-11-11T09:00:00.000+09:00","ended_at":"2024-12-05T09:00:00.000+09:00","limit_number":null,"address":null,"place":"Online","lat":null,"lon":null,"state":"active","id":null},{"event_id":"333080","title":"Progateハッカソン in Progateオフィス【ハイブリッド開催！】","url":"https://progate.connpass.com/event/333080/","shortener_url":null,"started_at":"2024-11-16T11:00:00.000+09:00","ended_at":"2024-11-17T18:00:00.000+09:00","limit_number":40,"address":"〒150-0032 東京都渋谷区鶯谷町2-7 エクセルビル 5F","place":"Progateオフィス","lat":35.6536,"lon":139.705,"state":"active","id":null},{"event_id":"337055","title":"Kamakura Mok Mok Hack 200 - 鎌倉もくもく会","url":"https://kamkura-mokmok.connpass.com/event/337055/","shortener_url":null,"started_at":"2024-11-17T11:00:00.000+09:00","ended_at":"2024-11-17T14:00:00.000+09:00","limit_number":5,"address":"神奈川県鎌倉市御成町4-10","place":"ANOTHER DAY KAMAKURA","lat":35.3161,"lon":139.55,"state":"active","id":null},{"event_id":null,"title":"GESI-HACKATHON","url":"https://gesi-hackathon.devpost.com/","shortener_url":null,"started_at":"2024-11-12T09:00:00.000+09:00","ended_at":"2024-11-14T09:00:00.000+09:00","limit_number":null,"address":null,"place":"Online","lat":null,"lon":null,"state":"active","id":null},{"event_id":"rpgmaker-was-two-dollars","title":"rpgmaker was two dollars","url":"https://itch.io/jam/rpgmaker-was-two-dollars","shortener_url":null,"started_at":"2024-11-12T14:00:00.000+09:00","ended_at":"2024-11-27T13:59:59.000+09:00","limit_number":null,"address":null,"place":"Online","lat":null,"lon":null,"state":"active","id":null},{"event_id":"not-a-strict-jam-3","title":"(Not) A Strict Jam #3","url":"https://itch.io/jam/not-a-strict-jam-3","shortener_url":null,"started_at":"2024-11-18T01:00:00.000+09:00","ended_at":"2024-12-02T01:00:00.000+09:00","limit_number":null,"address":null,"place":"Online","lat":null,"lon":null,"state":"active","id":null},{"event_id":"pashtet-jam-8","title":"Паштетный Джем #8","url":"https://itch.io/jam/pashtet-jam-8","shortener_url":null,"started_at":"2024-11-23T00:00:00.000+09:00","ended_at":"2024-11-26T00:00:00.000+09:00","limit_number":null,"address":null,"place":"Online","lat":null,"lon":null,"state":"active","id":null},{"event_id":"improve-my-game-jam-36","title":"Improve My Game Jam 36","url":"https://itch.io/jam/improve-my-game-jam-36","shortener_url":null,"started_at":"2024-11-29T22:37:26.000+09:00","ended_at":"2024-12-06T22:37:38.000+09:00","limit_number":null,"address":null,"place":"Online","lat":null,"lon":null,"state":"active","id":null},{"event_id":null,"title":"AWS X INRIX AI Hackathon","url":"https://aws-inrix-hack-2024.devpost.com/","shortener_url":null,"started_at":"2024-11-16T09:00:00.000+09:00","ended_at":"2024-11-17T09:00:00.000+09:00","limit_number":null,"address":null,"place":"Online","lat":null,"lon":null,"state":"active","id":null},{"event_id":"337155","title":"未経験者向けNext.js開発ワークショップ②","url":"https://connpass.com/event/337155/","shortener_url":null,"started_at":"2024-11-26T19:00:00.000+09:00","ended_at":"2024-11-26T20:30:00.000+09:00","limit_number":20,"address":"福岡市中央区天神1丁目15番30号","place":"エンジニアカフェ","lat":33.5931,"lon":130.402,"state":"active","id":null},{"event_id":"love-bug-jam","title":"Love Bug Jam","url":"https://itch.io/jam/love-bug-jam","shortener_url":null,"started_at":"2024-11-14T14:00:00.000+09:00","ended_at":"2025-02-15T13:59:59.000+09:00","limit_number":null,"address":null,"place":"Online","lat":null,"lon":null,"state":"active","id":null},{"event_id":"speedjam8","title":"SpeedJam #8 ","url":"https://itch.io/jam/speedjam8","shortener_url":null,"started_at":"2024-11-30T05:00:00.000+09:00","ended_at":"2024-12-03T05:00:00.000+09:00","limit_number":null,"address":null,"place":"Online","lat":null,"lon":null,"state":"active","id":null},{"event_id":"ost-minigame-jam-2","title":"OST Minigame Jam #2","url":"https://itch.io/jam/ost-minigame-jam-2","shortener_url":null,"started_at":"2024-11-23T02:00:00.000+09:00","ended_at":"2024-11-30T13:59:00.000+09:00","limit_number":null,"address":null,"place":"Online","lat":null,"lon":null,"state":"active","id":null},{"event_id":"maple-tree-jam","title":"maple tree jam","url":"https://itch.io/jam/maple-tree-jam","shortener_url":null,"started_at":"2024-11-14T08:00:00.000+09:00","ended_at":"2024-11-17T08:00:00.000+09:00","limit_number":null,"address":null,"place":"Online","lat":null,"lon":null,"state":"active","id":null},{"event_id":"dark-jam-3","title":"DARK Jam 3  - Crimson Christmas Edition!","url":"https://itch.io/jam/dark-jam-3","shortener_url":null,"started_at":"2024-11-26T05:47:39.000+09:00","ended_at":"2024-12-26T05:47:43.000+09:00","limit_number":null,"address":null,"place":"Online","lat":null,"lon":null,"state":"active","id":null},{"event_id":"sajofgj2024","title":"Sajof GameJam 2024","url":"https://itch.io/jam/sajofgj2024","shortener_url":null,"started_at":"2024-11-16T08:00:00.000+09:00","ended_at":"2024-11-18T13:59:59.000+09:00","limit_number":null,"address":null,"place":"Online","lat":null,"lon":null,"state":"active","id":null},{"event_id":"bldgj","title":"BLDGJ","url":"https://itch.io/jam/bldgj","shortener_url":null,"started_at":"2024-11-30T00:00:00.000+09:00","ended_at":"2024-12-02T00:00:00.000+09:00","limit_number":null,"address":null,"place":"Online","lat":null,"lon":null,"state":"active","id":null},{"event_id":"anime-jam-2024","title":"Anime Jam 2024","url":"https://itch.io/jam/anime-jam-2024","shortener_url":null,"started_at":"2024-11-23T07:00:00.000+09:00","ended_at":"2024-11-30T07:00:00.000+09:00","limit_number":null,"address":null,"place":"Online","lat":null,"lon":null,"state":"active","id":null},{"event_id":"oops-all-tables","title":"OOPS! ALL TABLES TTRPG JAM","url":"https://itch.io/jam/oops-all-tables","shortener_url":null,"started_at":"2024-11-16T07:00:00.000+09:00","ended_at":"2024-12-01T14:00:00.000+09:00","limit_number":null,"address":null,"place":"Online","lat":null,"lon":null,"state":"active","id":null},{"event_id":"autumnal-adventure-jam-","title":"Autumnal Adventure Jam","url":"https://itch.io/jam/autumnal-adventure-jam-","shortener_url":null,"started_at":"2024-11-14T23:00:00.000+09:00","ended_at":"2024-11-29T07:00:00.000+09:00","limit_number":null,"address":null,"place":"Online","lat":null,"lon":null,"state":"active","id":null},{"event_id":"franken-game-jam-2024","title":"Franken Game Jam 2024","url":"https://itch.io/jam/franken-game-jam-2024","shortener_url":null,"started_at":"2024-11-16T02:00:00.000+09:00","ended_at":"2024-11-18T03:00:00.000+09:00","limit_number":null,"address":null,"place":"Online","lat":null,"lon":null,"state":"active","id":null},{"event_id":"mini-jam-172-security","title":"Mini Jam 172: Security","url":"https://itch.io/jam/mini-jam-172-security","shortener_url":null,"started_at":"2024-11-22T13:00:00.000+09:00","ended_at":"2024-11-25T13:00:00.000+09:00","limit_number":null,"address":null,"place":"Online","lat":null,"lon":null,"state":"active","id":null},{"event_id":"wsoft-turkey-jam-2024","title":"Turkey Jam 2024","url":"https://itch.io/jam/wsoft-turkey-jam-2024","shortener_url":null,"started_at":"2024-11-16T09:00:00.000+09:00","ended_at":"2024-11-18T09:00:00.000+09:00","limit_number":null,"address":null,"place":"Online","lat":null,"lon":null,"state":"active","id":null},{"event_id":"a-weekly-jam-3","title":"Weekly Jam #3","url":"https://itch.io/jam/a-weekly-jam-3","shortener_url":null,"started_at":"2024-11-23T08:00:00.000+09:00","ended_at":"2024-11-30T08:00:00.000+09:00","limit_number":null,"address":null,"place":"Online","lat":null,"lon":null,"state":"active","id":null},{"event_id":"sandwichjam","title":"Sandwich Jam","url":"https://itch.io/jam/sandwichjam","shortener_url":null,"started_at":"2024-11-29T23:00:00.000+09:00","ended_at":"2024-12-01T23:00:00.000+09:00","limit_number":null,"address":null,"place":"Online","lat":null,"lon":null,"state":"active","id":null}]