[{"event_id":"procjam","title":"PROCJAM 2024","url":"https://itch.io/jam/procjam","shortener_url":null,"started_at":"2024-10-26T08:00:00.000+09:00","ended_at":"2024-11-05T08:59:59.000+09:00","limit_number":null,"address":null,"place":"Online","lat":null,"lon":null,"state":"active","id":null},{"event_id":"562204267097","title":"Japan Africa BizMatch Forum 2024","url":"https://www.eventbrite.com/e/japan-africa-bizmatch-forum-2024-tickets-562204267097","shortener_url":null,"started_at":"2024-10-08T08:00:00.000+09:00","ended_at":"2024-10-08T16:00:00.000+09:00","limit_number":null,"address":"6 Chome-6-2 Nishishinjuku, Shinjuku City, Tokyo 160-0023, Japan, Shinjuku City, NB 160-0023","place":"Hilton Tokyo","lat":35.6927,"lon":139.691,"state":"active","id":null},{"event_id":"bare-bones-jam-24","title":"The Bare-Bones Jam","url":"https://itch.io/jam/bare-bones-jam-24","shortener_url":null,"started_at":"2024-10-01T13:00:00.000+09:00","ended_at":"2024-10-31T13:00:00.000+09:00","limit_number":null,"address":null,"place":"Online","lat":null,"lon":null,"state":"active","id":null},{"event_id":"scream-jam-2024","title":"SCREAM JAM 2024","url":"https://itch.io/jam/scream-jam-2024","shortener_url":"https://bit.ly/3u5rWup","started_at":"2024-10-17T06:00:00.000+09:00","ended_at":"2024-10-24T06:00:00.000+09:00","limit_number":null,"address":null,"place":"Online","lat":null,"lon":null,"state":"active","id":null},{"event_id":"yuri-game-jam-2024","title":"Yuri Game Jam 2024","url":"https://itch.io/jam/yuri-game-jam-2024","shortener_url":"https://bit.ly/3SHka2g","started_at":"2024-10-01T08:00:00.000+09:00","ended_at":"2024-12-02T09:00:00.000+09:00","limit_number":null,"address":null,"place":"Online","lat":null,"lon":null,"state":"active","id":null},{"event_id":"dying-year-vn-jam","title":"Dying Year - Visual Novel Jam","url":"https://itch.io/jam/dying-year-vn-jam","shortener_url":null,"started_at":"2024-10-01T13:00:00.000+09:00","ended_at":"2025-01-01T14:00:00.000+09:00","limit_number":null,"address":null,"place":"Online","lat":null,"lon":null,"state":"active","id":null},{"event_id":"static-camera-jam","title":"Static Camera Jam","url":"https://itch.io/jam/static-camera-jam","shortener_url":"https://bit.ly/49hOWoC","started_at":"2024-10-22T12:00:00.000+09:00","ended_at":"2024-10-29T12:00:00.000+09:00","limit_number":null,"address":null,"place":"Online","lat":null,"lon":null,"state":"active","id":null},{"event_id":"theana-game-jam-weeklyjam-31","title":"Theana Game Jam - WeeklyJam #31","url":"https://itch.io/jam/theana-game-jam-weeklyjam-31","shortener_url":"https://bit.ly/3JTzpkp","started_at":"2024-10-06T22:00:00.000+09:00","ended_at":"2024-10-13T22:00:00.000+09:00","limit_number":null,"address":null,"place":"Online","lat":null,"lon":null,"state":"closed","id":null},{"event_id":"slow-burn-jam","title":"The Slow-Burn Horror Jam","url":"https://itch.io/jam/slow-burn-jam","shortener_url":null,"started_at":"2024-10-01T12:00:00.000+09:00","ended_at":"2024-10-08T12:00:00.000+09:00","limit_number":null,"address":null,"place":"Online","lat":null,"lon":null,"state":"active","id":null},{"event_id":"174599","title":"♪ MAMEHICO LIVE「珈琲と音楽を　池田拓真（ギター）×友田ジュン（ピアノ）×山下あすか（パーカッション）」","url":"https://mamehicoginza.doorkeeper.jp/events/174599","shortener_url":null,"started_at":"2024-10-06T12:00:00.000+09:00","ended_at":"2024-10-06T14:00:00.000+09:00","limit_number":null,"address":"東京都中央区銀座2-2-18 TH 銀座ビル10F","place":"MAMEHICO 銀座","lat":35.6748,"lon":139.766,"state":"active","id":null},{"event_id":"devs-that-jam-36hr-challenge-oct24","title":"Devs That Jam 36hr Challenge #7","url":"https://itch.io/jam/devs-that-jam-36hr-challenge-oct24","shortener_url":null,"started_at":"2024-10-26T19:00:00.000+09:00","ended_at":"2024-10-28T08:00:00.000+09:00","limit_number":null,"address":null,"place":"Online","lat":null,"lon":null,"state":"active","id":null},{"event_id":"175150","title":"［第４回］Startup Weekend 磐田　延期8/30→10/18開催","url":"https://swiwata.doorkeeper.jp/events/175150","shortener_url":"https://bit.ly/3Wa4Jm9","started_at":"2024-10-18T18:00:00.000+09:00","ended_at":"2024-10-20T20:00:00.000+09:00","limit_number":50,"address":"静岡県磐田市中泉1丁目1－1","place":"株式会社ソミックマネージメントホールディングス　本社ビル","lat":34.7108,"lon":137.852,"state":"active","id":null},{"event_id":"4047563","title":"Social Hack Day #65","url":"https://socialhackday65.peatix.com","shortener_url":"https://tiny.cc/pnm1zz","started_at":"2024-10-19T10:45:00.000+09:00","ended_at":"2024-10-20T00:00:00.000+09:00","limit_number":null,"address":"","place":"xxxonlineeventxxx","lat":null,"lon":null,"state":"active","id":null},{"event_id":"playjam-6","title":"PlayJam 6","url":"https://itch.io/jam/playjam-6","shortener_url":null,"started_at":"2024-10-12T08:00:00.000+09:00","ended_at":"2024-10-15T08:00:00.000+09:00","limit_number":null,"address":null,"place":"Online","lat":null,"lon":null,"state":"active","id":null},{"event_id":"174908","title":"［初開催］Startup Weekend 鳥栖 vol.1","url":"https://swtosu.doorkeeper.jp/events/174908","shortener_url":"https://tiny.cc/jqbczz","started_at":"2024-10-18T18:00:00.000+09:00","ended_at":"2024-10-20T20:00:00.000+09:00","limit_number":25,"address":"〒841-0055 佐賀県鳥栖市養父町６５１","place":"笑顔が見たいから","lat":33.3806,"lon":130.499,"state":"active","id":null},{"event_id":"175433","title":"［第2回］Startup Weekend 岩国","url":"https://swiwakuni.doorkeeper.jp/events/175433","shortener_url":"https://tiny.cc/nqoezz","started_at":"2024-10-11T18:00:00.000+09:00","ended_at":"2024-10-13T19:00:00.000+09:00","limit_number":43,"address":"山口県岩国市麻里布町2丁目5番17号 1階","place":"岩国しごと交流・創業スペース Class Biz.","lat":34.1696,"lon":132.223,"state":"active","id":null},{"event_id":"revival-jam-2024","title":"Revival Jam 2024","url":"https://itch.io/jam/revival-jam-2024","shortener_url":null,"started_at":"2024-10-04T09:00:00.000+09:00","ended_at":"2024-10-21T02:00:00.000+09:00","limit_number":null,"address":null,"place":"Online","lat":null,"lon":null,"state":"active","id":null},{"event_id":"pink-platformer-jam-5","title":"Pink Platformer Jam #5","url":"https://itch.io/jam/pink-platformer-jam-5","shortener_url":"https://tiny.cc/odyezz","started_at":"2024-10-16T21:00:00.000+09:00","ended_at":"2024-10-30T22:00:00.000+09:00","limit_number":null,"address":null,"place":"Online","lat":null,"lon":null,"state":"active","id":null},{"event_id":"kuba-jam-october-2024","title":"Kuba Jam - October 2024","url":"https://itch.io/jam/kuba-jam-october-2024","shortener_url":null,"started_at":"2024-10-26T22:00:00.000+09:00","ended_at":"2024-10-28T10:00:00.000+09:00","limit_number":null,"address":null,"place":"Online","lat":null,"lon":null,"state":"active","id":null},{"event_id":"ost-composing-jam-sandbox","title":"OST Composing Jam [Sandbox]","url":"https://itch.io/jam/ost-composing-jam-sandbox","shortener_url":"https://tiny.cc/mdngzz","started_at":"2024-10-19T01:00:00.000+09:00","ended_at":"2024-10-21T01:00:00.000+09:00","limit_number":null,"address":null,"place":"Online","lat":null,"lon":null,"state":"active","id":null},{"event_id":"4028916","title":"GTIEつくば拠点の技術シーズを活用するスタートアップの創出に向けたサイエンスアイデアソン","url":"https://science-ideathon-ibaraki-20241001.peatix.com","shortener_url":"https://tiny.cc/31gjzz","started_at":"2024-10-01T13:45:00.000+09:00","ended_at":"2024-10-02T00:00:00.000+09:00","limit_number":null,"address":"茨城県水戸市泉町1丁目7番1号","place":"水戸市民会館（南側３階大会議室）","lat":36.3787,"lon":140.465,"state":"active","id":null},{"event_id":"tunejam-5a","title":"Spooky Tune Jam 2024 ","url":"https://itch.io/jam/tunejam-5a","shortener_url":null,"started_at":"2024-10-02T04:00:00.000+09:00","ended_at":"2024-10-16T04:00:00.000+09:00","limit_number":null,"address":null,"place":"Online","lat":null,"lon":null,"state":"active","id":null},{"event_id":"tunejam-5b","title":"Spooky Game Jam 2024 ","url":"https://itch.io/jam/tunejam-5b","shortener_url":"https://tiny.cc/kzghzz","started_at":"2024-10-17T04:00:00.000+09:00","ended_at":"2024-10-31T04:00:00.000+09:00","limit_number":null,"address":null,"place":"Online","lat":null,"lon":null,"state":"active","id":null},{"event_id":null,"title":"API World \u0026 CloudX 2024 Hackathon","url":"https://api-world-2024-hackathon.devpost.com/","shortener_url":"https://tiny.cc/v40izz","started_at":"2024-10-21T09:00:00.000+09:00","ended_at":"2024-11-07T09:00:00.000+09:00","limit_number":null,"address":"Santa Clara Convention Center \u0026 Online","place":"Santa Clara Convention Center \u0026 Online","lat":null,"lon":null,"state":"active","id":null},{"event_id":null,"title":"InnovateK12","url":"https://innovatek12.devpost.com/","shortener_url":null,"started_at":"2024-10-04T09:00:00.000+09:00","ended_at":"2024-10-06T09:00:00.000+09:00","limit_number":null,"address":null,"place":"Online","lat":null,"lon":null,"state":"active","id":null},{"event_id":null,"title":"GreenHack Challenge 2024","url":"https://greenhack-challenge-2024.devpost.com/","shortener_url":null,"started_at":"2024-10-20T09:00:00.000+09:00","ended_at":"2024-11-03T09:00:00.000+09:00","limit_number":null,"address":null,"place":"Online","lat":null,"lon":null,"state":"active","id":null},{"event_id":null,"title":"AlchemyHacks","url":"https://alchemyhacks.devpost.com/","shortener_url":null,"started_at":"2024-10-04T09:00:00.000+09:00","ended_at":"2024-10-06T09:00:00.000+09:00","limit_number":null,"address":null,"place":"Online","lat":null,"lon":null,"state":"active","id":null},{"event_id":null,"title":"SASEhack Fall 2024","url":"https://sasehack-fall-2024.devpost.com/","shortener_url":null,"started_at":"2024-10-04T09:00:00.000+09:00","ended_at":"2024-10-06T09:00:00.000+09:00","limit_number":null,"address":null,"place":"Online","lat":null,"lon":null,"state":"active","id":null},{"event_id":null,"title":"BYU-Idaho: i-Hack 2024: Tech and Lifestyles: Bridging the Gap","url":"https://ihack-2024.devpost.com/","shortener_url":null,"started_at":"2024-10-18T09:00:00.000+09:00","ended_at":"2024-10-19T09:00:00.000+09:00","limit_number":null,"address":null,"place":"Online","lat":null,"lon":null,"state":"active","id":null},{"event_id":"322836","title":"【アイデアソン】 LINKS:DATA x Hackathon","url":"https://asciistartup.connpass.com/event/322836/","shortener_url":"https://tiny.cc/r9cizz","started_at":"2024-10-05T10:00:00.000+09:00","ended_at":"2024-10-05T18:00:00.000+09:00","limit_number":50,"address":"〒100-0003 東京都千代田区一ツ橋１丁目１１","place":"パレスサイドビル8F NSホール（日建設計竹橋オフィス内）","lat":35.6995,"lon":139.751,"state":"active","id":null},{"event_id":"305471","title":"AWS IoT入門ワークショップ（ESP32とAWS IoTでデータの送受信をしよう）","url":"https://iotlab.connpass.com/event/305471/","shortener_url":"https://tiny.cc/b8cizz","started_at":"2024-10-26T09:00:00.000+09:00","ended_at":"2024-10-26T12:30:00.000+09:00","limit_number":4,"address":"東京都秋葉原駅徒歩5分","place":"秋葉原ハッカースペース","lat":35.6984,"lon":139.773,"state":"active","id":null},{"event_id":"327894","title":"はじめてのラズパイ入門ワークショップ","url":"https://iotlab.connpass.com/event/327894/","shortener_url":"https://tiny.cc/k8cizz","started_at":"2024-10-05T09:00:00.000+09:00","ended_at":"2024-10-05T12:30:00.000+09:00","limit_number":3,"address":"東京都秋葉原駅徒歩5分","place":"秋葉原ハッカースペース","lat":35.6984,"lon":139.773,"state":"active","id":null},{"event_id":"327516","title":"【Kloudハンズオン#1】10/12,10/13","url":"https://connpass.com/event/327516/","shortener_url":"https://tiny.cc/s8cizz","started_at":"2024-10-12T13:00:00.000+09:00","ended_at":"2024-10-19T17:10:00.000+09:00","limit_number":null,"address":"オンライン","place":"Kloud Discord サーバー","lat":0.0,"lon":0.0,"state":"active","id":null},{"event_id":"313792","title":"【京都（京都府）会場】Space Apps Challenge Kyoto 2024","url":"https://spaceappsjapan.connpass.com/event/313792/","shortener_url":"https://tiny.cc/p9cizz","started_at":"2024-10-05T09:00:00.000+09:00","ended_at":"2024-10-06T18:00:00.000+09:00","limit_number":15,"address":"〒606-8225 京都府京都市左京区田中門前町４６ 京美華ビル","place":"ハッカソンハウス","lat":35.0299,"lon":135.779,"state":"active","id":null},{"event_id":"320504","title":"PLATEAU XR ＆ デジタルツイン ハッカソン2024（大阪会場）Day1","url":"https://osaka-driven-dev.connpass.com/event/320504/","shortener_url":"https://tiny.cc/t9cizz","started_at":"2024-10-06T10:00:00.000+09:00","ended_at":"2024-10-06T18:00:00.000+09:00","limit_number":60,"address":"阪市北区深町6番38号グラングリーン阪 北館","place":"Blooming Camp（JAM BASE 3階）","lat":34.7108,"lon":135.511,"state":"active","id":null},{"event_id":"325091","title":"PLATEAU XR ＆ デジタルツイン ハッカソン2024（出雲会場）Day1","url":"https://izumo-driven-development.connpass.com/event/325091/","shortener_url":"https://tiny.cc/u9cizz","started_at":"2024-10-06T10:00:00.000+09:00","ended_at":"2024-10-06T18:00:00.000+09:00","limit_number":60,"address":"〒693-0001 島根県出雲市今市町２０６５ 2065番地","place":"パルメイト出雲","lat":35.3617,"lon":132.756,"state":"active","id":null},{"event_id":"326786","title":"PLATEAU XR ＆ デジタルツイン ハッカソン2024（鹿児島会場）Day1","url":"https://xrm-kagoshima.connpass.com/event/326786/","shortener_url":"https://tiny.cc/w9cizz","started_at":"2024-10-06T10:00:00.000+09:00","ended_at":"2024-10-06T18:00:00.000+09:00","limit_number":null,"address":"〒892-0826 鹿児島県鹿児島市呉服町２８","place":"HITTOBE powered by The Company","lat":31.5898,"lon":130.557,"state":"active","id":null},{"event_id":"326860","title":"PLATEAU XR ＆ デジタルツイン ハッカソン2024（福岡会場）Day1","url":"https://fukuoka-xr-club.connpass.com/event/326860/","shortener_url":"https://tiny.cc/x9cizz","started_at":"2024-10-06T10:00:00.000+09:00","ended_at":"2024-10-06T18:00:00.000+09:00","limit_number":34,"address":"福岡市中央区天神1丁目15番30号","place":"エンジニアカフェ　メインホール","lat":33.5932,"lon":130.402,"state":"active","id":null},{"event_id":"324885","title":"Campsもくもく会（10月）","url":"https://hiroshima-camps.connpass.com/event/324885/","shortener_url":"https://tiny.cc/y9cizz","started_at":"2024-10-26T13:00:00.000+09:00","ended_at":"2024-10-26T18:00:00.000+09:00","limit_number":10,"address":"広島県広島市中区紙屋町１丁目４３ エフ・ケイビル１F","place":"イノベーションハブひろしまCamps","lat":34.3941,"lon":132.459,"state":"active","id":null},{"event_id":"324907","title":"Qiita Hackathon 2024 本選プレゼンテーションライブ配信","url":"https://increments.connpass.com/event/324907/","shortener_url":"https://tiny.cc/fagizz","started_at":"2024-10-20T15:00:00.000+09:00","ended_at":"2024-10-20T18:00:00.000+09:00","limit_number":null,"address":null,"place":"オンライン","lat":null,"lon":null,"state":"active","id":null},{"event_id":"indie-holiday-asset-pack","title":"Indie Holiday Asset Pack Bundle Submissions","url":"https://itch.io/jam/indie-holiday-asset-pack","shortener_url":null,"started_at":"2024-10-01T01:00:00.000+09:00","ended_at":"2024-11-02T12:59:59.000+09:00","limit_number":null,"address":null,"place":"Online","lat":null,"lon":null,"state":"active","id":null},{"event_id":"4076714","title":"【うみらぼ × cozmic】志摩市制20周年企画 海辺のハッカソン - インタラクティブコンテンツ","url":"https://interactive-contents-hackathon.peatix.com","shortener_url":"https://tiny.cc/c1gjzz","started_at":"2024-10-12T13:00:00.000+09:00","ended_at":"2024-10-14T00:00:00.000+09:00","limit_number":null,"address":"志摩市阿児町鵜方３６２６−２９","place":"UMILABO うみらぼ - 船で行く伊勢志摩・海のリトリート","lat":34.3137,"lon":136.808,"state":"active","id":null},{"event_id":"4101468","title":"国土交通省が提供する無料の3D地図データ『PLATEAU（プラトー）』アイデアソンinさいたま","url":"https://civictechsaitama1005.peatix.com","shortener_url":"https://tiny.cc/71gjzz","started_at":"2024-10-05T13:30:00.000+09:00","ended_at":"2024-10-06T00:00:00.000+09:00","limit_number":null,"address":"日本、埼玉県さいたま市大宮区桜木町１丁目１０−８","place":"エムズスクエア　埼玉県さいたま市大宮区桜木町1丁目10-8　武蔵野銀行本店2階","lat":35.9047,"lon":139.618,"state":"active","id":null},{"event_id":"hyplay-jam-2","title":"$10k Prize Pool - HYPLAY Indie Galactic #2","url":"https://itch.io/jam/hyplay-jam-2","shortener_url":null,"started_at":"2024-10-01T16:00:00.000+09:00","ended_at":"2024-10-15T16:00:00.000+09:00","limit_number":null,"address":null,"place":"Online","lat":null,"lon":null,"state":"active","id":null},{"event_id":"4099437","title":"【都内開催】福岡県古賀市で地域資源を活用したビジネス展開や 地域企業との共創による新規事業開発を目指す（最大5社を現地視察ツアーにご招待！）","url":"https://peatix.com/event/4099437","shortener_url":null,"started_at":"2024-10-16T18:00:00.000+09:00","ended_at":"2024-10-17T00:00:00.000+09:00","limit_number":null,"address":"STADIUM PLACE AOYAMA, 5階, ２丁目-９−５ 北青山, 港区","place":"パーソルファシリティマネジメント株式会社","lat":35.672,"lon":139.717,"state":"active","id":null},{"event_id":"325705","title":"ゲームジャム高梁2024","url":"https://okauni.connpass.com/event/325705/","shortener_url":"https://tiny.cc/citizz","started_at":"2024-10-19T09:00:00.000+09:00","ended_at":"2024-10-20T19:00:00.000+09:00","limit_number":65,"address":"〒716-0007 岡山県高梁市奥万田町３７５２１","place":"吉備国際大学 国際交流会館","lat":34.7959,"lon":133.623,"state":"active","id":null},{"event_id":null,"title":"Lehigh Valley Collegiate Hackathon","url":"https://lehigh-collegiate-hackathon.devpost.com/","shortener_url":"https://tiny.cc/f85jzz","started_at":"2024-10-19T09:00:00.000+09:00","ended_at":"2024-10-20T09:00:00.000+09:00","limit_number":null,"address":null,"place":"Online","lat":null,"lon":null,"state":"active","id":null},{"event_id":null,"title":"Student Hacks","url":"https://student-hacks-.devpost.com/","shortener_url":null,"started_at":"2024-10-01T09:00:00.000+09:00","ended_at":"2024-12-01T09:00:00.000+09:00","limit_number":null,"address":null,"place":"Online","lat":null,"lon":null,"state":"active","id":null},{"event_id":"4053968","title":"【先着順：10月11日（金）申込締切】『浜松で地域課題解決やらまいか！  データ・フュージョン・キャンプ２０２４ ～浜松市データ連携基盤を活用したサービス開発実践プログラム～』","url":"https://hdfc2024.peatix.com","shortener_url":"https://tiny.cc/g1gjzz","started_at":"2024-10-19T13:00:00.000+09:00","ended_at":"2024-11-03T00:00:00.000+09:00","limit_number":null,"address":"静岡県浜松市中央区鍛冶町100-1 ザザシティ浜松中央館 B1F","place":"Co-startup Space \u0026 Community FUSE","lat":34.7051,"lon":137.73,"state":"active","id":null},{"event_id":null,"title":"Hack49","url":"https://hack49-2024.devpost.com/","shortener_url":null,"started_at":"2024-10-19T09:00:00.000+09:00","ended_at":"2024-10-21T09:00:00.000+09:00","limit_number":null,"address":null,"place":"Online","lat":null,"lon":null,"state":"active","id":null},{"event_id":"black-visual-novel-jam-2","title":"Black Visual Novel Jam","url":"https://itch.io/jam/black-visual-novel-jam-2","shortener_url":null,"started_at":"2024-10-01T03:37:17.000+09:00","ended_at":"2025-03-01T02:00:55.000+09:00","limit_number":null,"address":null,"place":"Online","lat":null,"lon":null,"state":"active","id":null},{"event_id":"176316","title":"StartupWeekend 熊本 vol.16 @XOSSPOINT.","url":"https://swkumamoto.doorkeeper.jp/events/176316","shortener_url":"https://tiny.cc/1vqjzz","started_at":"2024-10-25T18:00:00.000+09:00","ended_at":"2024-10-27T19:00:00.000+09:00","limit_number":50,"address":"〒860-0047 熊本県熊本市西区春日１丁目１４１","place":"くまもと森都心プラザ XOSS POINT.","lat":32.7904,"lon":130.691,"state":"active","id":null},{"event_id":"173463","title":"［第三回］Startup Weekend 上越","url":"https://swjoetsu.doorkeeper.jp/events/173463","shortener_url":"https://tiny.cc/2vqjzz","started_at":"2024-10-25T18:00:00.000+09:00","ended_at":"2024-10-27T19:00:00.000+09:00","limit_number":30,"address":"新潟県上越市本町４丁目１７","place":"bibit","lat":37.1129,"lon":138.244,"state":"active","id":null},{"event_id":null,"title":"GNEC Hackathon 2024 Fall - Compete For UN - Affiliated/NGO Internships \u0026 Prizes","url":"https://gnec-hackathon-2024-fall.devpost.com/","shortener_url":"https://tiny.cc/wuqjzz","started_at":"2024-10-03T09:00:00.000+09:00","ended_at":"2024-11-17T09:00:00.000+09:00","limit_number":null,"address":null,"place":"Online","lat":null,"lon":null,"state":"active","id":null},{"event_id":"329172","title":"【豊橋会場※オンライン開催】Space Apps Challenge Toyohashi","url":"https://spaceappsjapan.connpass.com/event/329172/","shortener_url":"https://tiny.cc/zuqjzz","started_at":"2024-10-05T10:00:00.000+09:00","ended_at":"2024-10-06T18:00:00.000+09:00","limit_number":30,"address":"オンライン","place":"オンライン","lat":0.0,"lon":0.0,"state":"active","id":null},{"event_id":"328557","title":"アイマスハッカソン2024","url":"https://imas.connpass.com/event/328557/","shortener_url":"https://tiny.cc/0vqjzz","started_at":"2024-10-12T10:00:00.000+09:00","ended_at":"2024-10-12T20:00:00.000+09:00","limit_number":43,"address":"東京都中央区銀座6丁目182 野村不動産銀座ビル 12F","place":"株式会社TOKIUM","lat":35.6672,"lon":139.767,"state":"active","id":null},{"event_id":"4097898","title":"ツクバマチナカソン2024 FINAL","url":"https://tsukubamachinakathon2024-final.peatix.com","shortener_url":null,"started_at":"2024-10-26T13:00:00.000+09:00","ended_at":"2024-10-27T00:00:00.000+09:00","limit_number":null,"address":"","place":"xxxonlineeventxxx","lat":null,"lon":null,"state":"active","id":null},{"event_id":null,"title":"2024 Girls Recode Hacks","url":"https://girlsrecodehacks.devpost.com/","shortener_url":null,"started_at":"2024-10-12T09:00:00.000+09:00","ended_at":"2024-10-13T09:00:00.000+09:00","limit_number":null,"address":null,"place":"Online","lat":null,"lon":null,"state":"active","id":null},{"event_id":"326595","title":"【宇部（山口県）会場】Space Apps Challenge Ube 2024","url":"https://spaceappsjapan.connpass.com/event/326595/","shortener_url":"https://tiny.cc/1c6kzz","started_at":"2024-10-05T10:30:00.000+09:00","ended_at":"2024-10-06T18:00:00.000+09:00","limit_number":34,"address":"山口県宇部市中央町三丁目10-12","place":"うべスタートアップ","lat":33.9555,"lon":131.241,"state":"active","id":null},{"event_id":"327540","title":"データ利活用やってみよう！ハッカソン2024 キックオフ","url":"https://enjoy-pda.connpass.com/event/327540/","shortener_url":"https://tiny.cc/vjakzz","started_at":"2024-10-12T14:00:00.000+09:00","ended_at":"2024-10-12T17:00:00.000+09:00","limit_number":null,"address":"大阪市都島区東野田町4丁目15番82号","place":"QUINTBRIDGE 1階 メインステージ","lat":34.699,"lon":135.53,"state":"active","id":null},{"event_id":"329646","title":"Hack U クリエイター交流会 2024 AUTUMN","url":"https://hacku.connpass.com/event/329646/","shortener_url":null,"started_at":"2024-10-14T15:00:00.000+09:00","ended_at":"2024-10-14T17:30:00.000+09:00","limit_number":33,"address":"〒102-8282 東京都千代田区紀尾井町1-3 東京ガーデンテラス紀尾井町 紀尾井タワー","place":"LINEヤフー株式会社 本社","lat":35.6796,"lon":139.737,"state":"active","id":null},{"event_id":"new-year-new-skills-level-up","title":"New Year, New Skills: Level Up!","url":"https://itch.io/jam/new-year-new-skills-level-up","shortener_url":"https://tiny.cc/lxhkzz","started_at":"2024-10-02T00:00:00.000+09:00","ended_at":"2024-10-14T12:00:18.000+09:00","limit_number":null,"address":null,"place":"Online","lat":null,"lon":null,"state":"closed","id":null},{"event_id":"devtober-2024","title":"Devtober 2024","url":"https://itch.io/jam/devtober-2024","shortener_url":null,"started_at":"2024-10-01T07:00:00.000+09:00","ended_at":"2024-11-01T07:59:59.000+09:00","limit_number":null,"address":null,"place":"Online","lat":null,"lon":null,"state":"active","id":null},{"event_id":"weeksauce-34","title":"Week Sauce (October 2024)","url":"https://itch.io/jam/weeksauce-34","shortener_url":null,"started_at":"2024-10-01T16:00:00.000+09:00","ended_at":"2024-11-01T16:00:00.000+09:00","limit_number":null,"address":null,"place":"Online","lat":null,"lon":null,"state":"active","id":null},{"event_id":"spooky-2d-jam-24","title":"Spooky 2D Jam '24 ","url":"https://itch.io/jam/spooky-2d-jam-24","shortener_url":null,"started_at":"2024-10-26T02:00:00.000+09:00","ended_at":"2024-10-28T03:00:00.000+09:00","limit_number":null,"address":null,"place":"Online","lat":null,"lon":null,"state":"active","id":null},{"event_id":"177112","title":"［第２回］Startup Weeekend 高崎","url":"https://swtakasaki.doorkeeper.jp/events/177112","shortener_url":"https://tiny.cc/n8rkzz","started_at":"2024-10-25T18:00:00.000+09:00","ended_at":"2024-10-27T19:00:00.000+09:00","limit_number":40,"address":"群馬県高崎市八島町１１７ー８　THE DOCK 4F","place":"たかさき書斎","lat":36.3215,"lon":139.011,"state":"active","id":null},{"event_id":null,"title":"HackBeyond","url":"https://hackbeyond.devpost.com/","shortener_url":null,"started_at":"2024-10-04T09:00:00.000+09:00","ended_at":"2024-10-06T09:00:00.000+09:00","limit_number":null,"address":null,"place":"Online","lat":null,"lon":null,"state":"active","id":null},{"event_id":"folklorejam24","title":"Folklore Jam 2024","url":"https://itch.io/jam/folklorejam24","shortener_url":null,"started_at":"2024-10-01T08:00:00.000+09:00","ended_at":"2024-11-01T08:59:59.000+09:00","limit_number":null,"address":null,"place":"Online","lat":null,"lon":null,"state":"active","id":null},{"event_id":"jamoween-5","title":"Jamoween 5","url":"https://itch.io/jam/jamoween-5","shortener_url":null,"started_at":"2024-10-12T17:00:00.000+09:00","ended_at":"2024-10-26T23:00:00.000+09:00","limit_number":null,"address":null,"place":"Online","lat":null,"lon":null,"state":"active","id":null},{"event_id":"macro-jam-2","title":"Macro Jam #2","url":"https://itch.io/jam/macro-jam-2","shortener_url":null,"started_at":"2024-10-11T08:00:00.000+09:00","ended_at":"2024-10-15T08:00:00.000+09:00","limit_number":null,"address":null,"place":"Online","lat":null,"lon":null,"state":"active","id":null},{"event_id":"177294","title":"Startup Weekend 多摩秋の体験\u0026交流会","url":"https://swtama.doorkeeper.jp/events/177294","shortener_url":"https://tiny.cc/2rwkzz","started_at":"2024-10-05T10:00:00.000+09:00","ended_at":"2024-10-05T12:00:00.000+09:00","limit_number":null,"address":"〒181-0012 東京都三鷹市上連雀１丁目１２１７","place":"Musahino Valley","lat":35.7038,"lon":139.554,"state":"active","id":null},{"event_id":"gbpixelartjam24","title":"GB Pixel Art Jam 2024","url":"https://itch.io/jam/gbpixelartjam24","shortener_url":null,"started_at":"2024-10-05T08:00:00.000+09:00","ended_at":"2024-10-07T08:00:00.000+09:00","limit_number":null,"address":null,"place":"Online","lat":null,"lon":null,"state":"active","id":null},{"event_id":null,"title":"PACS Hackathon 2024","url":"https://pacshackathon.devpost.com/","shortener_url":"https://tiny.cc/nu1lzz","started_at":"2024-10-27T09:00:00.000+09:00","ended_at":"2024-11-11T09:00:00.000+09:00","limit_number":null,"address":null,"place":"Online","lat":null,"lon":null,"state":"active","id":null},{"event_id":"skulzyspooktacular","title":"Skulzy's Spooktacular Card Game Jam!","url":"https://itch.io/jam/skulzyspooktacular","shortener_url":"https://tiny.cc/gu1lzz","started_at":"2024-10-02T05:00:00.000+09:00","ended_at":"2024-10-09T13:00:00.000+09:00","limit_number":null,"address":null,"place":"Online","lat":null,"lon":null,"state":"active","id":null},{"event_id":"minimalist-ttrpg-jam-3","title":"Minimalist TTRPG Jam 3","url":"https://itch.io/jam/minimalist-ttrpg-jam-3","shortener_url":null,"started_at":"2024-10-01T08:35:00.000+09:00","ended_at":"2024-12-07T09:35:32.000+09:00","limit_number":null,"address":null,"place":"Online","lat":null,"lon":null,"state":"active","id":null},{"event_id":"novembear-fvn-jam","title":"NovemBear 2024 Furry Visual Novel Jam","url":"https://itch.io/jam/novembear-fvn-jam","shortener_url":"https://tiny.cc/yu1lzz","started_at":"2024-10-29T19:00:00.000+09:00","ended_at":"2024-12-01T21:00:00.000+09:00","limit_number":null,"address":null,"place":"Online","lat":null,"lon":null,"state":"active","id":null},{"event_id":"cosmichorrorsjam3","title":"Cosmic Horrors Jam III","url":"https://itch.io/jam/cosmichorrorsjam3","shortener_url":null,"started_at":"2024-10-10T16:00:00.000+09:00","ended_at":"2024-10-24T16:00:00.000+09:00","limit_number":null,"address":null,"place":"Online","lat":null,"lon":null,"state":"active","id":null},{"event_id":"gam3-jam","title":"Gam [3] Jam [One week, Prizes]","url":"https://itch.io/jam/gam3-jam","shortener_url":null,"started_at":"2024-10-05T05:35:01.000+09:00","ended_at":"2024-10-12T05:35:09.000+09:00","limit_number":null,"address":null,"place":"Online","lat":null,"lon":null,"state":"active","id":null},{"event_id":"4108504","title":"事例で学ぶ！生成AIを活用したインタビュー分析の3つの落とし穴とその回避法","url":"https://uxcaravan-ai-202410.peatix.com","shortener_url":null,"started_at":"2024-10-17T14:00:00.000+09:00","ended_at":"2024-10-18T00:00:00.000+09:00","limit_number":null,"address":"","place":"xxxonlineeventxxx","lat":null,"lon":null,"state":"active","id":null},{"event_id":"jimjam-game-jam-scarefactor","title":"JimJam Game Jam - Scare Factor","url":"https://itch.io/jam/jimjam-game-jam-scarefactor","shortener_url":"https://tiny.cc/hu1lzz","started_at":"2024-10-02T08:00:00.000+09:00","ended_at":"2024-10-22T12:59:59.000+09:00","limit_number":null,"address":null,"place":"Online","lat":null,"lon":null,"state":"active","id":null},{"event_id":"ost-minigame-jam-1","title":"OST Minigame Jam #1","url":"https://itch.io/jam/ost-minigame-jam-1","shortener_url":"https://tiny.cc/wu1lzz","started_at":"2024-10-26T01:00:00.000+09:00","ended_at":"2024-11-02T12:59:00.000+09:00","limit_number":null,"address":null,"place":"Online","lat":null,"lon":null,"state":"active","id":null},{"event_id":"europermajam","title":"European Permacomputing Gamejam","url":"https://itch.io/jam/europermajam","shortener_url":"https://tiny.cc/qu1lzz","started_at":"2024-10-12T00:00:00.000+09:00","ended_at":"2024-10-14T00:00:00.000+09:00","limit_number":null,"address":null,"place":"Online","lat":null,"lon":null,"state":"active","id":null},{"event_id":"327543","title":"秋田開催！2024年度 Web×IoT メイカーズチャレンジ PLUS【講習会 \u0026 ハッカソン】","url":"https://webiotmakers.connpass.com/event/327543/","shortener_url":"https://tiny.cc/ku1lzz","started_at":"2024-10-05T10:00:00.000+09:00","ended_at":"2024-11-17T17:00:00.000+09:00","limit_number":20,"address":"秋田県秋田市卸町3-5-1","place":"Live Office（株式会社渡敬）","lat":39.6991,"lon":140.109,"state":"active","id":null},{"event_id":"vtuber-tiny-jam","title":"Vtuber Tiny Game Jam","url":"https://itch.io/jam/vtuber-tiny-jam","shortener_url":"https://tiny.cc/lu1lzz","started_at":"2024-10-05T10:00:00.000+09:00","ended_at":"2024-10-14T07:00:00.000+09:00","limit_number":null,"address":null,"place":"Online","lat":null,"lon":null,"state":"active","id":null},{"event_id":"sae-cologne-drizzle-jam","title":"SAE Cologne Drizzle Jam 24","url":"https://itch.io/jam/sae-cologne-drizzle-jam","shortener_url":null,"started_at":"2024-10-12T00:00:00.000+09:00","ended_at":"2024-10-14T00:00:00.000+09:00","limit_number":null,"address":null,"place":"Online","lat":null,"lon":null,"state":"active","id":null},{"event_id":"pig-jam-2024","title":"PIG JAM 2024","url":"https://itch.io/jam/pig-jam-2024","shortener_url":null,"started_at":"2024-10-13T14:00:00.000+09:00","ended_at":"2024-10-14T14:00:00.000+09:00","limit_number":null,"address":null,"place":"Online","lat":null,"lon":null,"state":"active","id":null},{"event_id":"quads-jam-2024","title":"Quads Jam 2024","url":"https://itch.io/jam/quads-jam-2024","shortener_url":null,"started_at":"2024-10-18T13:00:00.000+09:00","ended_at":"2024-10-28T12:59:59.000+09:00","limit_number":null,"address":null,"place":"Online","lat":null,"lon":null,"state":"active","id":null},{"event_id":"barajam-2024","title":"BARA JAM 2024","url":"https://itch.io/jam/barajam-2024","shortener_url":null,"started_at":"2024-10-01T13:00:00.000+09:00","ended_at":"2024-12-01T17:00:00.000+09:00","limit_number":null,"address":null,"place":"Online","lat":null,"lon":null,"state":"active","id":null},{"event_id":"snow-hornet-game-jam-2024","title":"Snow Hornet Game Jam 2024","url":"https://itch.io/jam/snow-hornet-game-jam-2024","shortener_url":"https://tiny.cc/su1lzz","started_at":"2024-10-13T01:00:00.000+09:00","ended_at":"2024-10-16T01:00:00.000+09:00","limit_number":null,"address":null,"place":"Online","lat":null,"lon":null,"state":"active","id":null},{"event_id":"argjam","title":"ARG Jam","url":"https://itch.io/jam/argjam","shortener_url":null,"started_at":"2024-10-01T16:15:00.000+09:00","ended_at":"2024-10-17T06:45:00.000+09:00","limit_number":null,"address":null,"place":"Online","lat":null,"lon":null,"state":"active","id":null},{"event_id":"apocalypse-jam-2024","title":"Apocalypse Jam 2024","url":"https://itch.io/jam/apocalypse-jam-2024","shortener_url":"https://tiny.cc/mu1lzz","started_at":"2024-10-06T01:00:00.000+09:00","ended_at":"2024-10-20T13:00:00.000+09:00","limit_number":null,"address":null,"place":"Online","lat":null,"lon":null,"state":"active","id":null},{"event_id":"effing-jam","title":"Effing-Jam","url":"https://itch.io/jam/effing-jam","shortener_url":null,"started_at":"2024-10-06T02:00:01.000+09:00","ended_at":"2024-10-27T13:59:59.000+09:00","limit_number":null,"address":null,"place":"Online","lat":null,"lon":null,"state":"active","id":null},{"event_id":"linux-deutschland-game-jam-1","title":"Linux Deutschland Game Jam 1","url":"https://itch.io/jam/linux-deutschland-game-jam-1","shortener_url":"https://tiny.cc/iu1lzz","started_at":"2024-10-03T07:00:01.000+09:00","ended_at":"2024-10-14T06:59:59.000+09:00","limit_number":null,"address":null,"place":"Online","lat":null,"lon":null,"state":"active","id":null},{"event_id":"demons-or-demos","title":"Demons Or Demos","url":"https://itch.io/jam/demons-or-demos","shortener_url":null,"started_at":"2024-10-05T12:59:59.000+09:00","ended_at":"2024-11-05T13:59:59.000+09:00","limit_number":null,"address":null,"place":"Online","lat":null,"lon":null,"state":"active","id":null},{"event_id":"the-silly-ttrpgs-jam","title":"The Silly TTRPGs Jam","url":"https://itch.io/jam/the-silly-ttrpgs-jam","shortener_url":null,"started_at":"2024-10-02T05:00:00.000+09:00","ended_at":"2024-11-01T05:00:00.000+09:00","limit_number":null,"address":null,"place":"Online","lat":null,"lon":null,"state":"active","id":null},{"event_id":"uol-game-jam-10","title":"UOL Game Jam #10","url":"https://itch.io/jam/uol-game-jam-10","shortener_url":"https://tiny.cc/xu1lzz","started_at":"2024-10-26T01:00:00.000+09:00","ended_at":"2024-10-28T04:00:00.000+09:00","limit_number":null,"address":null,"place":"Online","lat":null,"lon":null,"state":"active","id":null},{"event_id":"weeknight-jammin","title":"Weeknight Jammin'","url":"https://itch.io/jam/weeknight-jammin","shortener_url":null,"started_at":"2024-10-03T06:00:00.000+09:00","ended_at":"2024-10-07T10:00:00.000+09:00","limit_number":null,"address":null,"place":"Online","lat":null,"lon":null,"state":"active","id":null},{"event_id":"floofy-kitty-gamejam","title":"Floofy Kitty Gamejam","url":"https://itch.io/jam/floofy-kitty-gamejam","shortener_url":"https://tiny.cc/ou1lzz","started_at":"2024-10-09T01:00:01.000+09:00","ended_at":"2024-10-23T01:00:35.000+09:00","limit_number":null,"address":null,"place":"Online","lat":null,"lon":null,"state":"closed","id":null},{"event_id":"soulslikes-jam-2024","title":"Soulslikes Jam 2024","url":"https://itch.io/jam/soulslikes-jam-2024","shortener_url":null,"started_at":"2024-10-01T04:50:27.000+09:00","ended_at":"2024-10-07T04:50:39.000+09:00","limit_number":null,"address":null,"place":"Online","lat":null,"lon":null,"state":"active","id":null},{"event_id":"halloween-trick-or-treat","title":"Halloween Trick or Treat 2024","url":"https://itch.io/jam/halloween-trick-or-treat","shortener_url":null,"started_at":"2024-10-27T08:00:00.000+09:00","ended_at":"2024-11-01T04:00:00.000+09:00","limit_number":null,"address":null,"place":"Online","lat":null,"lon":null,"state":"active","id":null},{"event_id":"gjqc2024","title":"Game Jam de Qubec - Edition 2024","url":"https://itch.io/jam/gjqc2024","shortener_url":"https://tiny.cc/ju1lzz","started_at":"2024-10-05T07:00:00.000+09:00","ended_at":"2024-10-07T07:00:00.000+09:00","limit_number":null,"address":null,"place":"Online","lat":null,"lon":null,"state":"active","id":null},{"event_id":"gradient-game-jam-2024","title":"Gradient Game Jam 2024","url":"https://itch.io/jam/gradient-game-jam-2024","shortener_url":"https://tiny.cc/vu1lzz","started_at":"2024-10-14T19:00:00.000+09:00","ended_at":"2024-11-12T00:13:00.000+09:00","limit_number":null,"address":null,"place":"Online","lat":null,"lon":null,"state":"active","id":null},{"event_id":"jurkourko-platformer-jam-1","title":"Jurkourko Platformer Jam #1","url":"https://itch.io/jam/jurkourko-platformer-jam-1","shortener_url":"https://tiny.cc/tu1lzz","started_at":"2024-10-13T01:05:00.000+09:00","ended_at":"2024-10-19T01:05:00.000+09:00","limit_number":null,"address":null,"place":"Online","lat":null,"lon":null,"state":"active","id":null},{"event_id":null,"title":"Hack the Colosseum","url":"https://hack-the-colosseum.devpost.com/","shortener_url":null,"started_at":"2024-10-18T09:00:00.000+09:00","ended_at":"2024-10-19T08:59:59.999+09:00","limit_number":null,"address":null,"place":"Online","lat":null,"lon":null,"state":"active","id":null},{"event_id":"4107451","title":"滋賀をよくする挑戦をみんなで応援しよう！＜こくりしが チア！フェス＞","url":"https://cheer-fes.peatix.com","shortener_url":null,"started_at":"2024-10-26T13:00:00.000+09:00","ended_at":"2024-10-27T00:00:00.000+09:00","limit_number":null,"address":"日本、滋賀県長浜市西浅井町庄１８","place":"ヤンマー株式会社 永原工場","lat":35.505,"lon":136.13,"state":"active","id":null},{"event_id":"queertober","title":"Queertober TTRPG Jam","url":"https://itch.io/jam/queertober","shortener_url":null,"started_at":"2024-10-02T01:11:00.000+09:00","ended_at":"2024-11-01T01:11:00.000+09:00","limit_number":null,"address":null,"place":"Online","lat":null,"lon":null,"state":"active","id":null},{"event_id":"dev-world-game-jam-2024-1-","title":"Dev World Game Jam 2024 #1 ($1000 Prize Pool!!)","url":"https://itch.io/jam/dev-world-game-jam-2024-1-","shortener_url":"https://tiny.cc/996lzz","started_at":"2024-10-01T15:54:58.000+09:00","ended_at":"2024-10-15T15:55:05.000+09:00","limit_number":null,"address":null,"place":"Online","lat":null,"lon":null,"state":"closed","id":null},{"event_id":"rsg-game-jam-1","title":"RSG Game Jam #1","url":"https://itch.io/jam/rsg-game-jam-1","shortener_url":"https://tiny.cc/896lzz","started_at":"2024-10-01T03:30:00.000+09:00","ended_at":"2024-10-06T03:30:00.000+09:00","limit_number":null,"address":null,"place":"Online","lat":null,"lon":null,"state":"active","id":null},{"event_id":"jame-gam-halloween-edition","title":"Jame Gam: Halloween Edition","url":"https://itch.io/jam/jame-gam-halloween-edition","shortener_url":null,"started_at":"2024-10-18T18:32:00.000+09:00","ended_at":"2024-10-25T18:32:00.000+09:00","limit_number":null,"address":null,"place":"Online","lat":null,"lon":null,"state":"active","id":null},{"event_id":"ragnar-retro-game-jam","title":"Retro Game Jam","url":"https://itch.io/jam/ragnar-retro-game-jam","shortener_url":"https://tiny.cc/a96lzz","started_at":"2024-10-18T14:00:00.000+09:00","ended_at":"2024-10-25T14:00:00.000+09:00","limit_number":null,"address":null,"place":"Online","lat":null,"lon":null,"state":"active","id":null},{"event_id":"177325","title":"海外スタートアップ座談会","url":"https://swtokyo.doorkeeper.jp/events/177325","shortener_url":null,"started_at":"2024-10-09T22:00:00.000+09:00","ended_at":"2024-10-09T23:00:00.000+09:00","limit_number":30,"address":null,"place":"","lat":null,"lon":null,"state":"active","id":null},{"event_id":"177396","title":"Startup Weekend 東京 Women","url":"https://swtokyo.doorkeeper.jp/events/177396","shortener_url":"https://tiny.cc/m59lzz","started_at":"2024-10-25T18:30:00.000+09:00","ended_at":"2024-10-27T21:00:00.000+09:00","limit_number":55,"address":"東京都渋谷区渋谷2-24-12 渋谷スクランブルスクエア（東棟）15階","place":"SHIBUYA QWS（渋谷キューズ）","lat":35.6585,"lon":139.702,"state":"active","id":null},{"event_id":"all-flesh-is-surplus","title":"All Flesh is Surplus","url":"https://itch.io/jam/all-flesh-is-surplus","shortener_url":null,"started_at":"2024-10-01T08:01:01.000+09:00","ended_at":"2024-11-02T09:01:01.000+09:00","limit_number":null,"address":null,"place":"Online","lat":null,"lon":null,"state":"active","id":null},{"event_id":"crafted-in-a-shell-srd-jam","title":"Crafted in a Shell SRD Jam","url":"https://itch.io/jam/crafted-in-a-shell-srd-jam","shortener_url":null,"started_at":"2024-10-07T08:00:01.000+09:00","ended_at":"2024-10-14T07:59:59.000+09:00","limit_number":null,"address":null,"place":"Online","lat":null,"lon":null,"state":"active","id":null},{"event_id":"swap-jam-6","title":"Swap Jam #6: Creepy Couch Co-Op ","url":"https://itch.io/jam/swap-jam-6","shortener_url":null,"started_at":"2024-10-24T22:00:00.000+09:00","ended_at":"2024-10-30T23:00:00.000+09:00","limit_number":null,"address":null,"place":"Online","lat":null,"lon":null,"state":"active","id":null},{"event_id":null,"title":"Prehacks","url":"https://prehacks.devpost.com/","shortener_url":null,"started_at":"2024-10-19T09:00:00.000+09:00","ended_at":"2024-10-20T08:59:59.999+09:00","limit_number":null,"address":null,"place":"Online","lat":null,"lon":null,"state":"active","id":null},{"event_id":"toyjam1","title":"toy jam #1","url":"https://itch.io/jam/toyjam1","shortener_url":null,"started_at":"2024-10-12T04:30:00.000+09:00","ended_at":"2024-10-21T04:30:00.000+09:00","limit_number":null,"address":null,"place":"Online","lat":null,"lon":null,"state":"active","id":null},{"event_id":"330570","title":"アーバンデータチャレンジ2024徳島拠点イベントDay 2","url":"https://connpass.com/event/330570/","shortener_url":"https://tiny.cc/iwglzz","started_at":"2024-10-12T10:00:00.000+09:00","ended_at":"2024-10-12T17:00:00.000+09:00","limit_number":35,"address":"徳島県名西郡神山町神領大埜地３４３","place":"神山まるごと高専","lat":33.9752,"lon":134.354,"state":"active","id":null},{"event_id":"finnish-college-jam-7","title":"Finnish College Jam 7","url":"https://itch.io/jam/finnish-college-jam-7","shortener_url":"https://tiny.cc/hwglzz","started_at":"2024-10-07T15:00:00.000+09:00","ended_at":"2024-10-11T05:59:59.000+09:00","limit_number":null,"address":null,"place":"Online","lat":null,"lon":null,"state":"active","id":null},{"event_id":"autumn-lisp-game-jam-2024","title":"Autumn Lisp Game Jam 2024","url":"https://itch.io/jam/autumn-lisp-game-jam-2024","shortener_url":"https://tiny.cc/jwglzz","started_at":"2024-10-25T13:00:00.000+09:00","ended_at":"2024-11-03T13:00:00.000+09:00","limit_number":null,"address":null,"place":"Online","lat":null,"lon":null,"state":"active","id":null},{"event_id":"rpg-mania-x","title":"RPG Mania X","url":"https://itch.io/jam/rpg-mania-x","shortener_url":null,"started_at":"2024-10-01T13:00:00.000+09:00","ended_at":"2024-11-01T13:00:00.000+09:00","limit_number":null,"address":null,"place":"Online","lat":null,"lon":null,"state":"active","id":null},{"event_id":"4123713","title":"SHIBUYA QWS（渋谷キューズ） 見学ツアー 2024年10月  ","url":"https://kengaku202410.peatix.com","shortener_url":null,"started_at":"2024-10-09T18:00:00.000+09:00","ended_at":"2024-10-24T00:00:00.000+09:00","limit_number":null,"address":"渋谷区渋谷２丁目２４−１２","place":"SHIBUYA QWS （渋谷キューズ）","lat":35.6584,"lon":139.702,"state":"active","id":null},{"event_id":"4126068","title":"10/9(水)・11/9(土) カードゲーム体験会 Culture Night Vol.4・5","url":"https://culture-night4-5.peatix.com","shortener_url":null,"started_at":"2024-10-09T19:00:00.000+09:00","ended_at":"2024-11-10T00:00:00.000+09:00","limit_number":null,"address":"横浜市中区相生町２丁目５２","place":"泰生ポーチ フロント","lat":35.4465,"lon":139.638,"state":"active","id":null},{"event_id":"330237","title":"【京橋】データ利活用やってみよう！ハッカソン2024 チームビルディング","url":"https://enjoy-pda.connpass.com/event/330237/","shortener_url":"https://tiny.cc/bellzz","started_at":"2024-10-19T14:00:00.000+09:00","ended_at":"2024-10-19T17:00:00.000+09:00","limit_number":35,"address":"大阪市都島区東野田町4丁目15番82号","place":"QUINTBRIDGE 1階 メインステージ","lat":34.699,"lon":135.53,"state":"active","id":null},{"event_id":"running-jam","title":"On the Run Jam","url":"https://itch.io/jam/running-jam","shortener_url":null,"started_at":"2024-10-05T06:00:00.000+09:00","ended_at":"2024-10-19T06:00:00.000+09:00","limit_number":null,"address":null,"place":"Online","lat":null,"lon":null,"state":"active","id":null},{"event_id":"amq-1","title":"Art Mini Quest 1","url":"https://itch.io/jam/amq-1","shortener_url":null,"started_at":"2024-10-13T16:00:01.000+09:00","ended_at":"2024-11-24T09:00:00.000+09:00","limit_number":null,"address":null,"place":"Online","lat":null,"lon":null,"state":"active","id":null},{"event_id":"330539","title":"第0回 AIエージェント ソフトウェア開発勉強会","url":"https://aiagentsoftware.connpass.com/event/330539/","shortener_url":"https://tiny.cc/umplzz","started_at":"2024-10-04T19:00:00.000+09:00","ended_at":"2024-10-04T21:30:00.000+09:00","limit_number":39,"address":"東京都渋谷区渋谷2丁目14-13(岡崎ビル708)","place":"SHIBUYA STARTUP OASIS","lat":35.6594,"lon":139.706,"state":"active","id":null},{"event_id":"4126565","title":"学生アイデアファクトリー2024　ファイナルプレゼンテーションinサイエンスアゴラ","url":"https://si-fa2024final.peatix.com","shortener_url":null,"started_at":"2024-10-27T10:00:00.000+09:00","ended_at":"2024-10-28T00:00:00.000+09:00","limit_number":null,"address":"江東区青海２丁目３−６","place":"日本科学未来館","lat":35.6193,"lon":139.776,"state":"active","id":null},{"event_id":"330899","title":"AIミーティング 2024/10/09 #ChatGPT #Gemini #RAG","url":"https://osaka-driven-dev.connpass.com/event/330899/","shortener_url":"https://tiny.cc/vmplzz","started_at":"2024-10-09T20:00:00.000+09:00","ended_at":"2024-10-09T21:30:00.000+09:00","limit_number":null,"address":"オンライン","place":"オンライン","lat":0.0,"lon":0.0,"state":"active","id":null},{"event_id":"330940","title":"シビックテックによる市民協働まちづくり講座","url":"https://ipublishing.connpass.com/event/330940/","shortener_url":"https://tiny.cc/wmplzz","started_at":"2024-10-20T13:30:00.000+09:00","ended_at":"2024-10-20T16:30:00.000+09:00","limit_number":30,"address":"宜野湾市宇地泊3-7-1","place":"宜野湾ベイサイド情報センター","lat":26.2739,"lon":127.729,"state":"active","id":null},{"event_id":"4126942","title":"「企業の問いで遊んでみる！」QWS Question Storming with リンナイ","url":"https://qws-question-storming-241011.peatix.com","shortener_url":null,"started_at":"2024-10-11T16:00:00.000+09:00","ended_at":"2024-10-12T00:00:00.000+09:00","limit_number":null,"address":"渋谷区渋谷２丁目 渋谷スクランブルスクエア 15F","place":"SHIBUYA QWS （渋谷キューズ）","lat":35.6585,"lon":139.702,"state":"active","id":null},{"event_id":"spoopy-jam-6-it-spooped-back","title":"Spoopy Jam 6: It Spooped Back","url":"https://itch.io/jam/spoopy-jam-6-it-spooped-back","shortener_url":null,"started_at":"2024-10-27T23:00:00.000+09:00","ended_at":"2024-11-01T13:59:59.000+09:00","limit_number":null,"address":null,"place":"Online","lat":null,"lon":null,"state":"active","id":null},{"event_id":"174231","title":"UiPath Friends ラスベガス ～ グローバルカンファレンス FORWARD ＋TechEd体験速報～ ","url":"https://uipath-friends.doorkeeper.jp/events/174231","shortener_url":"https://tiny.cc/notlzz","started_at":"2024-10-23T14:00:00.000+09:00","ended_at":"2024-10-23T15:00:00.000+09:00","limit_number":null,"address":null,"place":"","lat":null,"lon":null,"state":"active","id":null},{"event_id":"fusionween-2024","title":"Fusionween 2024 Game Jam","url":"https://itch.io/jam/fusionween-2024","shortener_url":"https://tiny.cc/motlzz","started_at":"2024-10-01T13:00:00.000+09:00","ended_at":"2024-10-31T12:59:59.000+09:00","limit_number":null,"address":null,"place":"Online","lat":null,"lon":null,"state":"active","id":null},{"event_id":"2024-annual-halloween-jam","title":"The Spookiest Jam of the Year 2024","url":"https://itch.io/jam/2024-annual-halloween-jam","shortener_url":null,"started_at":"2024-10-19T20:00:00.000+09:00","ended_at":"2024-10-26T08:00:00.000+09:00","limit_number":null,"address":null,"place":"Online","lat":null,"lon":null,"state":"active","id":null},{"event_id":"gamerexict-2024","title":"GameRex 2024","url":"https://itch.io/jam/gamerexict-2024","shortener_url":null,"started_at":"2024-10-14T01:00:00.000+09:00","ended_at":"2024-10-20T01:00:00.000+09:00","limit_number":null,"address":null,"place":"Online","lat":null,"lon":null,"state":"active","id":null},{"event_id":null,"title":"American Allegience of Education","url":"https://aaeducation.devpost.com/","shortener_url":null,"started_at":"2024-10-05T09:00:00.000+09:00","ended_at":"2024-10-13T09:00:00.000+09:00","limit_number":null,"address":null,"place":"Online","lat":null,"lon":null,"state":"active","id":null},{"event_id":"horrorjam-2024","title":"HORRORJAM 2024","url":"https://itch.io/jam/horrorjam-2024","shortener_url":null,"started_at":"2024-10-01T08:00:00.000+09:00","ended_at":"2024-10-31T08:58:00.000+09:00","limit_number":null,"address":null,"place":"Online","lat":null,"lon":null,"state":"active","id":null},{"event_id":null,"title":"Aurora - Hack the spectrum","url":"https://aurora-rtd.devpost.com/","shortener_url":null,"started_at":"2024-10-07T09:00:00.000+09:00","ended_at":"2024-10-08T08:59:59.999+09:00","limit_number":null,"address":null,"place":"Online","lat":null,"lon":null,"state":"active","id":null},{"event_id":null,"title":"XR Midwest","url":"https://xr-midwest.devpost.com/","shortener_url":null,"started_at":"2024-10-12T09:00:00.000+09:00","ended_at":"2024-10-13T09:00:00.000+09:00","limit_number":null,"address":null,"place":"Online","lat":null,"lon":null,"state":"active","id":null},{"event_id":"ouat-2024","title":"Once Upon A Time VN Jam - 2024","url":"https://itch.io/jam/ouat-2024","shortener_url":"https://tiny.cc/qk7mzz","started_at":"2024-10-01T07:00:00.000+09:00","ended_at":"2025-02-01T07:59:59.000+09:00","limit_number":null,"address":null,"place":"Online","lat":null,"lon":null,"state":"active","id":null},{"event_id":"mighty-jam-2","title":"Mighty Pocket Jam","url":"https://itch.io/jam/mighty-jam-2","shortener_url":null,"started_at":"2024-10-02T01:00:00.000+09:00","ended_at":"2024-10-29T01:00:00.000+09:00","limit_number":null,"address":null,"place":"Online","lat":null,"lon":null,"state":"active","id":null},{"event_id":"gametank-game-jam-3","title":"GameTank Game Jam #3","url":"https://itch.io/jam/gametank-game-jam-3","shortener_url":"https://tiny.cc/rk7mzz","started_at":"2024-10-19T08:00:00.000+09:00","ended_at":"2024-10-28T08:00:00.000+09:00","limit_number":null,"address":null,"place":"Online","lat":null,"lon":null,"state":"active","id":null},{"event_id":"punto-y-pixel-comic-jam-2024","title":"Punto y Pixel Comic Jam IV (2024)","url":"https://itch.io/jam/punto-y-pixel-comic-jam-2024","shortener_url":null,"started_at":"2024-10-04T12:00:00.000+09:00","ended_at":"2024-10-14T11:58:59.000+09:00","limit_number":null,"address":null,"place":"Online","lat":null,"lon":null,"state":"active","id":null},{"event_id":"177666","title":"未来を変える アイデアを作ろう！社会問題×アイデア発想ワークショップ","url":"https://swshizuoka.doorkeeper.jp/events/177666","shortener_url":null,"started_at":"2024-10-19T13:00:00.000+09:00","ended_at":"2024-10-19T16:00:00.000+09:00","limit_number":50,"address":"静岡県静岡市葵区紺屋町8-12 金清軒ビル","place":"駅前レンタルオフィス LINK","lat":34.973,"lon":138.387,"state":"active","id":null},{"event_id":"177680","title":"未来を変える アイデアを作ろう！社会問題×アイデア発想ワークショップ","url":"https://founderscircle.doorkeeper.jp/events/177680","shortener_url":null,"started_at":"2024-10-19T13:00:00.000+09:00","ended_at":"2024-10-19T16:00:00.000+09:00","limit_number":50,"address":"静岡県静岡市葵区紺屋町8-12 金清軒ビル","place":"駅前レンタルオフィス LINK","lat":34.973,"lon":138.387,"state":"active","id":null},{"event_id":"solo-dev-game-jam-5-spooky-jam","title":"Solo Dev Game Jam #5 - Spooky jam","url":"https://itch.io/jam/solo-dev-game-jam-5-spooky-jam","shortener_url":"https://tiny.cc/55cmzz","started_at":"2024-10-26T04:00:00.000+09:00","ended_at":"2024-10-29T04:00:00.000+09:00","limit_number":null,"address":null,"place":"Online","lat":null,"lon":null,"state":"active","id":null},{"event_id":"husky-game-dev-20th-anniversary","title":"Husky Games 20th Anniversary","url":"https://itch.io/jam/husky-game-dev-20th-anniversary","shortener_url":null,"started_at":"2024-10-12T13:00:00.000+09:00","ended_at":"2024-10-21T12:59:59.000+09:00","limit_number":null,"address":null,"place":"Online","lat":null,"lon":null,"state":"active","id":null},{"event_id":"untitled-game-jam-100","title":"Untitled Game Jam #100","url":"https://itch.io/jam/untitled-game-jam-100","shortener_url":"https://tiny.cc/45cmzz","started_at":"2024-10-18T09:00:00.000+09:00","ended_at":"2024-10-28T09:00:00.000+09:00","limit_number":null,"address":null,"place":"Online","lat":null,"lon":null,"state":"active","id":null},{"event_id":"aram-jam-fantasy-game-development-challenge","title":"Aram Jam: Fantasy Game Challenge","url":"https://itch.io/jam/aram-jam-fantasy-game-development-challenge","shortener_url":null,"started_at":"2024-10-04T13:03:55.000+09:00","ended_at":"2024-10-17T01:03:35.000+09:00","limit_number":null,"address":null,"place":"Online","lat":null,"lon":null,"state":"active","id":null},{"event_id":null,"title":"Brainstorm - A Neuroscience Challenge","url":"https://brainstorm.devpost.com/","shortener_url":null,"started_at":"2024-10-24T09:00:00.000+09:00","ended_at":"2024-11-30T09:00:00.000+09:00","limit_number":null,"address":null,"place":"Online","lat":null,"lon":null,"state":"active","id":null},{"event_id":"331456","title":"【大阪-オンライン開催】XRミーティング 2024/10/16【AR/CR/MR/SR/VR】","url":"https://osaka-driven-dev.connpass.com/event/331456/","shortener_url":"https://tiny.cc/5jhmzz","started_at":"2024-10-16T20:00:00.000+09:00","ended_at":"2024-10-16T21:30:00.000+09:00","limit_number":23,"address":"大阪市北区本庄東1-18-8","place":"XR 5.6 Room","lat":34.7121,"lon":135.508,"state":"active","id":null},{"event_id":"ue-horror-devs-spook-o-ween-jam","title":"UE Horror Devs Spookoween Jam","url":"https://itch.io/jam/ue-horror-devs-spook-o-ween-jam","shortener_url":null,"started_at":"2024-10-02T10:54:27.000+09:00","ended_at":"2024-10-25T01:00:00.000+09:00","limit_number":null,"address":null,"place":"Online","lat":null,"lon":null,"state":"active","id":null},{"event_id":"177528","title":"すごい会議会議が変われば 90日で会社が変わる","url":"https://founderscircle.doorkeeper.jp/events/177528","shortener_url":"https://tiny.cc/pynmzz","started_at":"2024-10-18T17:00:00.000+09:00","ended_at":"2024-10-18T18:30:00.000+09:00","limit_number":50,"address":"静岡県静岡市葵区紺屋町8-12 金清軒ビル","place":"駅前レンタルオフィス LINK","lat":34.973,"lon":138.387,"state":"active","id":null},{"event_id":"177527","title":"すごい会議会議が変われば 90日で会社が変わる","url":"https://swshizuoka.doorkeeper.jp/events/177527","shortener_url":"https://tiny.cc/qynmzz","started_at":"2024-10-18T17:00:00.000+09:00","ended_at":"2024-10-18T18:30:00.000+09:00","limit_number":50,"address":"静岡県静岡市葵区紺屋町8-12 金清軒ビル","place":"駅前レンタルオフィス LINK","lat":34.973,"lon":138.387,"state":"active","id":null},{"event_id":"177688","title":"アントレプレナーの思考法","url":"https://swkushiro.doorkeeper.jp/events/177688","shortener_url":"https://tiny.cc/synmzz","started_at":"2024-10-19T13:00:00.000+09:00","ended_at":"2024-10-19T15:30:00.000+09:00","limit_number":20,"address":"北海道釧路市北大通3-7-3","place":"株式会社k-Hack","lat":42.983,"lon":144.385,"state":"active","id":null},{"event_id":null,"title":"Red Hat and Intel AI Hackathon","url":"https://redhat-intel.devpost.com/","shortener_url":"https://tiny.cc/tynmzz","started_at":"2024-10-21T09:00:00.000+09:00","ended_at":"2024-11-15T09:00:00.000+09:00","limit_number":null,"address":null,"place":"Online","lat":null,"lon":null,"state":"active","id":null},{"event_id":null,"title":"Myanmar Flood Response Hackathon","url":"https://myanmar-flood-response.devpost.com/","shortener_url":"https://tiny.cc/oynmzz","started_at":"2024-10-01T09:00:00.000+09:00","ended_at":"2024-10-31T09:00:00.000+09:00","limit_number":null,"address":null,"place":"Online","lat":null,"lon":null,"state":"active","id":null},{"event_id":"touhou-jam-14","title":"Touhou Fan Game Jam 14 - Reflection","url":"https://itch.io/jam/touhou-jam-14","shortener_url":"https://tiny.cc/uynmzz","started_at":"2024-10-25T04:00:00.000+09:00","ended_at":"2024-10-28T04:00:00.000+09:00","limit_number":null,"address":null,"place":"Online","lat":null,"lon":null,"state":"active","id":null},{"event_id":"euskal-game-jam-2","title":"Euskal Game Jam 2","url":"https://itch.io/jam/euskal-game-jam-2","shortener_url":"https://tiny.cc/rynmzz","started_at":"2024-10-19T01:00:00.000+09:00","ended_at":"2024-10-21T01:00:00.000+09:00","limit_number":null,"address":null,"place":"Online","lat":null,"lon":null,"state":"active","id":null},{"event_id":"draw-a-comic-over-the-weekend","title":"Draw a Comic over the Weekend!","url":"https://itch.io/jam/draw-a-comic-over-the-weekend","shortener_url":null,"started_at":"2024-10-12T01:00:00.000+09:00","ended_at":"2024-10-14T07:00:00.000+09:00","limit_number":null,"address":null,"place":"Online","lat":null,"lon":null,"state":"active","id":null},{"event_id":"177814","title":"知的財産でブランド力アップ！～ 人材と技術の活用法 ～【実践編】","url":"https://swshizuoka.doorkeeper.jp/events/177814","shortener_url":"https://tiny.cc/13vmzz","started_at":"2024-10-25T17:30:00.000+09:00","ended_at":"2024-10-25T19:00:00.000+09:00","limit_number":50,"address":"静岡県静岡市葵区鷹匠２丁目８１０","place":"＝ODEN | 静鉄のコワーキングスペース","lat":34.9774,"lon":138.389,"state":"active","id":null},{"event_id":"177813","title":"知的財産でブランド力アップ！～ 人材と技術の活用法 ～【実践編】","url":"https://founderscircle.doorkeeper.jp/events/177813","shortener_url":"https://tiny.cc/23vmzz","started_at":"2024-10-25T17:30:00.000+09:00","ended_at":"2024-10-25T19:00:00.000+09:00","limit_number":50,"address":"静岡県静岡市葵区鷹匠２丁目８１０","place":"＝ODEN | 静鉄のコワーキングスペース","lat":34.9774,"lon":138.389,"state":"active","id":null},{"event_id":"sa-game-jam-2024","title":"SA GAME JAM 2024","url":"https://itch.io/jam/sa-game-jam-2024","shortener_url":"https://tiny.cc/x2vmzz","started_at":"2024-10-19T01:00:00.000+09:00","ended_at":"2024-10-22T01:00:00.000+09:00","limit_number":null,"address":null,"place":"Online","lat":null,"lon":null,"state":"active","id":null},{"event_id":"331704","title":"【東京会場※オンライン開催】NASA Space Apps Challenge Tokyo 2024","url":"https://connpass.com/event/331704/","shortener_url":null,"started_at":"2024-10-04T23:45:00.000+09:00","ended_at":"2024-10-07T21:00:00.000+09:00","limit_number":30,"address":null,"place":"オンライン","lat":null,"lon":null,"state":"active","id":null},{"event_id":"330980","title":"PLATEAU（プラトー）2024 ハッカソン by 日本Androidの会","url":"https://japan-android-group.connpass.com/event/330980/","shortener_url":"https://tiny.cc/u2vmzz","started_at":"2024-10-13T12:00:00.000+09:00","ended_at":"2024-10-13T17:00:00.000+09:00","limit_number":34,"address":null,"place":"岩手県宮古市／香川県高松市","lat":null,"lon":null,"state":"active","id":null},{"event_id":"jam-toast","title":"Tabletop Creator Presents:  Jam \u0026 Toast","url":"https://itch.io/jam/jam-toast","shortener_url":null,"started_at":"2024-10-01T16:00:01.000+09:00","ended_at":"2024-11-01T16:00:01.000+09:00","limit_number":null,"address":null,"place":"Online","lat":null,"lon":null,"state":"active","id":null},{"event_id":"lgbtq-horror-jam-2024","title":"LGBTQ+ horror jam 2024!","url":"https://itch.io/jam/lgbtq-horror-jam-2024","shortener_url":null,"started_at":"2024-10-01T18:00:00.000+09:00","ended_at":"2024-11-01T19:00:00.000+09:00","limit_number":null,"address":null,"place":"Online","lat":null,"lon":null,"state":"active","id":null},{"event_id":"dreamscape-jam-3","title":"Dreamscape Jam #3","url":"https://itch.io/jam/dreamscape-jam-3","shortener_url":null,"started_at":"2024-10-19T09:00:00.000+09:00","ended_at":"2024-11-02T09:00:00.000+09:00","limit_number":null,"address":null,"place":"Online","lat":null,"lon":null,"state":"active","id":null},{"event_id":"gulyaawards2024","title":"Gulya Awards 2024","url":"https://itch.io/jam/gulyaawards2024","shortener_url":null,"started_at":"2024-10-01T04:00:00.000+09:00","ended_at":"2024-11-01T04:00:00.000+09:00","limit_number":null,"address":null,"place":"Online","lat":null,"lon":null,"state":"active","id":null},{"event_id":"yourgamejams-n7","title":"YourGameJams dition n°7","url":"https://itch.io/jam/yourgamejams-n7","shortener_url":"https://tiny.cc/v2vmzz","started_at":"2024-10-16T19:00:00.000+09:00","ended_at":"2024-11-01T07:59:00.000+09:00","limit_number":null,"address":null,"place":"Online","lat":null,"lon":null,"state":"active","id":null},{"event_id":"mini-jame-gam-36","title":"Mini Jame Gam #36","url":"https://itch.io/jam/mini-jame-gam-36","shortener_url":null,"started_at":"2024-10-11T20:00:00.000+09:00","ended_at":"2024-10-14T04:00:00.000+09:00","limit_number":null,"address":null,"place":"Online","lat":null,"lon":null,"state":"active","id":null},{"event_id":"thegdg-game-jam-30","title":"TheGDG Game Jam 3.0","url":"https://itch.io/jam/thegdg-game-jam-30","shortener_url":"https://tiny.cc/z2vmzz","started_at":"2024-10-20T20:00:00.000+09:00","ended_at":"2024-10-27T21:30:00.000+09:00","limit_number":null,"address":null,"place":"Online","lat":null,"lon":null,"state":"active","id":null},{"event_id":"halloween-game-jam-2024123","title":" Halloween Game Jam 2024 ","url":"https://itch.io/jam/halloween-game-jam-2024123","shortener_url":"https://tiny.cc/03vmzz","started_at":"2024-10-22T08:00:00.000+09:00","ended_at":"2024-10-30T08:59:59.000+09:00","limit_number":null,"address":null,"place":"Online","lat":null,"lon":null,"state":"active","id":null},{"event_id":"steelworks-game-jam-3","title":"STEELWORKS GAME JAM 3","url":"https://itch.io/jam/steelworks-game-jam-3","shortener_url":"https://tiny.cc/33vmzz","started_at":"2024-10-25T23:00:00.000+09:00","ended_at":"2024-10-28T04:00:00.000+09:00","limit_number":null,"address":null,"place":"Online","lat":null,"lon":null,"state":"active","id":null},{"event_id":"331740","title":"松尾研 LLM コミュニティ \"Paper \u0026 Hacks Vol.19\"","url":"https://matsuolab-community.connpass.com/event/331740/","shortener_url":"https://tiny.cc/n10nzz","started_at":"2024-10-01T20:00:00.000+09:00","ended_at":"2024-10-01T21:30:00.000+09:00","limit_number":null,"address":null,"place":"ZOOM オンライン","lat":null,"lon":null,"state":"active","id":null},{"event_id":"harvest-jam-agon","title":"Harvest Jam for AGON RPG / Paragon System","url":"https://itch.io/jam/harvest-jam-agon","shortener_url":null,"started_at":"2024-10-15T16:00:00.000+09:00","ended_at":"2024-11-16T16:59:59.000+09:00","limit_number":null,"address":null,"place":"Online","lat":null,"lon":null,"state":"active","id":null},{"event_id":"a-good-brew-ii","title":"A Good Brew II","url":"https://itch.io/jam/a-good-brew-ii","shortener_url":null,"started_at":"2024-10-01T13:00:00.000+09:00","ended_at":"2025-01-01T14:00:00.000+09:00","limit_number":null,"address":null,"place":"Online","lat":null,"lon":null,"state":"active","id":null},{"event_id":"first-bhsa-music-jam","title":"First BHSA Music Jam","url":"https://itch.io/jam/first-bhsa-music-jam","shortener_url":null,"started_at":"2024-10-18T07:21:54.000+09:00","ended_at":"2024-11-01T07:22:08.000+09:00","limit_number":null,"address":null,"place":"Online","lat":null,"lon":null,"state":"active","id":null},{"event_id":"alternative-soundtrack-music-jam-6","title":"Alternative Soundtrack - music jam #6","url":"https://itch.io/jam/alternative-soundtrack-music-jam-6","shortener_url":null,"started_at":"2024-10-18T15:00:00.000+09:00","ended_at":"2024-10-29T02:00:00.000+09:00","limit_number":null,"address":null,"place":"Online","lat":null,"lon":null,"state":"active","id":null},{"event_id":"177409","title":"【SWプレイベント】ハロウィンワークショップ","url":"https://swmorioka.doorkeeper.jp/events/177409","shortener_url":"https://tiny.cc/h24nzz","started_at":"2024-10-05T15:00:00.000+09:00","ended_at":"2024-10-05T18:00:00.000+09:00","limit_number":30,"address":"〒020-0024 岩手県盛岡市菜園１丁目３６","place":"盛岡農林会館　大会議室","lat":39.7009,"lon":141.149,"state":"active","id":null},{"event_id":"found-media-horror-jam","title":"Found Media Horror Jam","url":"https://itch.io/jam/found-media-horror-jam","shortener_url":null,"started_at":"2024-10-21T12:00:00.000+09:00","ended_at":"2024-10-28T12:00:00.000+09:00","limit_number":null,"address":null,"place":"Online","lat":null,"lon":null,"state":"active","id":null},{"event_id":"make-a-mud-in-october","title":"Make a MUD in October","url":"https://itch.io/jam/make-a-mud-in-october","shortener_url":null,"started_at":"2024-10-01T14:01:00.000+09:00","ended_at":"2024-10-31T14:59:59.000+09:00","limit_number":null,"address":null,"place":"Online","lat":null,"lon":null,"state":"active","id":null},{"event_id":"2d-medieval-","title":"Medieval Side Scroller 2D","url":"https://itch.io/jam/2d-medieval-","shortener_url":null,"started_at":"2024-10-07T07:19:46.000+09:00","ended_at":"2024-10-14T07:20:09.000+09:00","limit_number":null,"address":null,"place":"Online","lat":null,"lon":null,"state":"active","id":null},{"event_id":"jumpscare-jam","title":"A Single Jumpscare Game Jam","url":"https://itch.io/jam/jumpscare-jam","shortener_url":"https://tiny.cc/i24nzz","started_at":"2024-10-07T12:00:00.000+09:00","ended_at":"2024-10-14T12:00:00.000+09:00","limit_number":null,"address":null,"place":"Online","lat":null,"lon":null,"state":"active","id":null},{"event_id":"impressions-ost-jam-1","title":"Impressions Composing Jam: OST #1","url":"https://itch.io/jam/impressions-ost-jam-1","shortener_url":null,"started_at":"2024-10-12T08:00:00.000+09:00","ended_at":"2024-10-28T10:00:00.000+09:00","limit_number":null,"address":null,"place":"Online","lat":null,"lon":null,"state":"active","id":null},{"event_id":"jam-weekened-4","title":"Jam Weekened #4","url":"https://itch.io/jam/jam-weekened-4","shortener_url":null,"started_at":"2024-10-05T01:00:00.000+09:00","ended_at":"2024-10-07T01:00:00.000+09:00","limit_number":null,"address":null,"place":"Online","lat":null,"lon":null,"state":"active","id":null},{"event_id":"nature-game-jam","title":"Nature Game Jam","url":"https://itch.io/jam/nature-game-jam","shortener_url":"https://tiny.cc/968nzz","started_at":"2024-10-06T07:00:00.000+09:00","ended_at":"2024-10-14T06:59:59.000+09:00","limit_number":null,"address":null,"place":"Online","lat":null,"lon":null,"state":"active","id":null},{"event_id":null,"title":"YHack Fall 2024","url":"https://yhack.devpost.com/","shortener_url":null,"started_at":"2024-10-05T09:00:00.000+09:00","ended_at":"2024-10-06T09:00:00.000+09:00","limit_number":null,"address":null,"place":"Online","lat":null,"lon":null,"state":"active","id":null},{"event_id":"vr-halloween-jam-2024","title":"VR Halloween Jam 2024","url":"https://itch.io/jam/vr-halloween-jam-2024","shortener_url":"https://tiny.cc/1cdnzz","started_at":"2024-10-12T02:00:00.000+09:00","ended_at":"2024-10-19T02:00:00.000+09:00","limit_number":null,"address":null,"place":"Online","lat":null,"lon":null,"state":"active","id":null},{"event_id":"horror-of-the-americas-jam","title":"Horror of the Americas Jam","url":"https://itch.io/jam/horror-of-the-americas-jam","shortener_url":null,"started_at":"2024-10-07T16:01:05.000+09:00","ended_at":"2025-04-16T14:27:33.000+09:00","limit_number":null,"address":null,"place":"Online","lat":null,"lon":null,"state":"active","id":null},{"event_id":"gb-studio-2024-fall-game-jam","title":"GB Studio 2024 Fall Game Jam","url":"https://itch.io/jam/gb-studio-2024-fall-game-jam","shortener_url":"https://tiny.cc/ybdnzz","started_at":"2024-10-01T14:00:00.000+09:00","ended_at":"2024-10-08T13:59:59.000+09:00","limit_number":null,"address":null,"place":"Online","lat":null,"lon":null,"state":"active","id":null},{"event_id":"32bitjam-demo-disc","title":"32Bit Demo Disc Game Jam","url":"https://itch.io/jam/32bitjam-demo-disc","shortener_url":"https://tiny.cc/xbdnzz","started_at":"2024-10-01T13:00:00.000+09:00","ended_at":"2024-12-01T14:00:00.000+09:00","limit_number":null,"address":null,"place":"Online","lat":null,"lon":null,"state":"active","id":null},{"event_id":"scratch-game-jam-19","title":"Scratch Game Jam #19","url":"https://itch.io/jam/scratch-game-jam-19","shortener_url":"https://tiny.cc/0cdnzz","started_at":"2024-10-04T09:00:00.000+09:00","ended_at":"2024-10-21T09:00:00.000+09:00","limit_number":null,"address":null,"place":"Online","lat":null,"lon":null,"state":"active","id":null},{"event_id":null,"title":"Global Hack Week: Open Source","url":"https://global-hack-week-open-source.devpost.com/","shortener_url":null,"started_at":"2024-10-04T09:00:00.000+09:00","ended_at":"2024-10-10T09:00:00.000+09:00","limit_number":null,"address":null,"place":"Online","lat":null,"lon":null,"state":"active","id":null},{"event_id":"331897","title":"アイマスハッカソン2024 懇親会","url":"https://imas.connpass.com/event/331897/","shortener_url":"https://tiny.cc/gygnzz","started_at":"2024-10-12T20:30:00.000+09:00","ended_at":"2024-10-12T23:00:00.000+09:00","limit_number":null,"address":null,"place":"","lat":null,"lon":null,"state":"active","id":null},{"event_id":"hexcrawloween","title":"Hexcrawloween","url":"https://itch.io/jam/hexcrawloween","shortener_url":null,"started_at":"2024-10-01T13:00:00.000+09:00","ended_at":"2024-11-03T13:00:00.000+09:00","limit_number":null,"address":null,"place":"Online","lat":null,"lon":null,"state":"active","id":null},{"event_id":"frigid-cold-horror-jrpg-jam","title":"FRIGID COLD - HORROR jRPG JAM","url":"https://itch.io/jam/frigid-cold-horror-jrpg-jam","shortener_url":null,"started_at":"2024-10-02T07:05:57.000+09:00","ended_at":"2024-12-01T08:06:03.000+09:00","limit_number":null,"address":null,"place":"Online","lat":null,"lon":null,"state":"active","id":null},{"event_id":"epic-canoe-jam-1","title":"Epic Canoe JAM #1","url":"https://itch.io/jam/epic-canoe-jam-1","shortener_url":"https://tiny.cc/eygnzz","started_at":"2024-10-02T11:20:30.000+09:00","ended_at":"2024-10-16T11:20:41.000+09:00","limit_number":null,"address":null,"place":"Online","lat":null,"lon":null,"state":"active","id":null},{"event_id":"micro-jam-024","title":"Micro Jam 024: Wind ($$ Prizes)","url":"https://itch.io/jam/micro-jam-024","shortener_url":"https://tiny.cc/fygnzz","started_at":"2024-10-05T08:00:00.000+09:00","ended_at":"2024-10-07T08:00:00.000+09:00","limit_number":null,"address":null,"place":"Online","lat":null,"lon":null,"state":"active","id":null},{"event_id":"gosu-game-jam-7","title":"Gosu Game Jam 7","url":"https://itch.io/jam/gosu-game-jam-7","shortener_url":"https://tiny.cc/iygnzz","started_at":"2024-10-19T05:00:00.000+09:00","ended_at":"2024-10-28T13:59:59.000+09:00","limit_number":null,"address":null,"place":"Online","lat":null,"lon":null,"state":"active","id":null},{"event_id":"rpg-in-a-box-fall-2024-game-jam","title":"RPG in a Box FALL 2024 Game Jam","url":"https://itch.io/jam/rpg-in-a-box-fall-2024-game-jam","shortener_url":"https://tiny.cc/jygnzz","started_at":"2024-10-21T21:58:54.000+09:00","ended_at":"2024-11-21T22:59:15.000+09:00","limit_number":null,"address":null,"place":"Online","lat":null,"lon":null,"state":"active","id":null},{"event_id":"balaguer-game-jam","title":"Game Jam Balaguer","url":"https://itch.io/jam/balaguer-game-jam","shortener_url":"https://tiny.cc/hygnzz","started_at":"2024-10-18T17:00:00.000+09:00","ended_at":"2024-10-21T06:59:59.000+09:00","limit_number":null,"address":null,"place":"Online","lat":null,"lon":null,"state":"active","id":null},{"event_id":"pp-jam-12","title":"PP Jam #12","url":"https://itch.io/jam/pp-jam-12","shortener_url":null,"started_at":"2024-10-05T05:00:00.000+09:00","ended_at":"2024-10-07T05:00:00.000+09:00","limit_number":null,"address":null,"place":"Online","lat":null,"lon":null,"state":"active","id":null},{"event_id":"-br-halloween-jam-2024","title":"BR Halloween Jam 2024 ","url":"https://itch.io/jam/-br-halloween-jam-2024","shortener_url":null,"started_at":"2024-10-25T02:30:00.000+09:00","ended_at":"2024-11-01T11:59:59.000+09:00","limit_number":null,"address":null,"place":"Online","lat":null,"lon":null,"state":"active","id":null},{"event_id":null,"title":"Nature Hacks","url":"https://naturehacks.devpost.com/","shortener_url":null,"started_at":"2024-10-01T09:00:00.000+09:00","ended_at":"2024-11-25T09:00:00.000+09:00","limit_number":null,"address":null,"place":"Online","lat":null,"lon":null,"state":"active","id":null},{"event_id":"2d-jam","title":"2D game jam","url":"https://itch.io/jam/2d-jam","shortener_url":"https://tiny.cc/4nknzz","started_at":"2024-10-14T19:00:00.000+09:00","ended_at":"2024-10-20T19:00:00.000+09:00","limit_number":null,"address":null,"place":"Online","lat":null,"lon":null,"state":"active","id":null},{"event_id":"all-hallows-2024","title":"All Hallows 2024","url":"https://itch.io/jam/all-hallows-2024","shortener_url":null,"started_at":"2024-10-01T15:34:43.000+09:00","ended_at":"2024-11-01T15:35:06.000+09:00","limit_number":null,"address":null,"place":"Online","lat":null,"lon":null,"state":"active","id":null},{"event_id":"the-stupid-jam-2024","title":"The Stupid Jam 2024","url":"https://itch.io/jam/the-stupid-jam-2024","shortener_url":null,"started_at":"2024-10-10T21:00:00.000+09:00","ended_at":"2024-10-25T09:00:00.000+09:00","limit_number":null,"address":null,"place":"Online","lat":null,"lon":null,"state":"active","id":null},{"event_id":"accountability-jam-october-2024","title":"Accountability Jam: October 2024","url":"https://itch.io/jam/accountability-jam-october-2024","shortener_url":"https://tiny.cc/3nknzz","started_at":"2024-10-01T12:59:59.000+09:00","ended_at":"2024-11-01T12:59:59.000+09:00","limit_number":null,"address":null,"place":"Online","lat":null,"lon":null,"state":"active","id":null},{"event_id":"reunijam-2024","title":"reUNIJAM 2024","url":"https://itch.io/jam/reunijam-2024","shortener_url":null,"started_at":"2024-10-26T02:00:00.000+09:00","ended_at":"2024-10-28T02:00:00.000+09:00","limit_number":null,"address":null,"place":"Online","lat":null,"lon":null,"state":"active","id":null},{"event_id":"jam-weekend-7","title":"Jam Weekend #7","url":"https://itch.io/jam/jam-weekend-7","shortener_url":null,"started_at":"2024-10-26T01:00:00.000+09:00","ended_at":"2024-10-28T02:00:00.000+09:00","limit_number":null,"address":null,"place":"Online","lat":null,"lon":null,"state":"active","id":null},{"event_id":"jam-weekend-5","title":"Jam Weekend #5","url":"https://itch.io/jam/jam-weekend-5","shortener_url":null,"started_at":"2024-10-12T01:00:00.000+09:00","ended_at":"2024-10-14T01:00:00.000+09:00","limit_number":null,"address":null,"place":"Online","lat":null,"lon":null,"state":"active","id":null},{"event_id":"net-yaroze-2024","title":"net-yaroze-2024","url":"https://itch.io/jam/net-yaroze-2024","shortener_url":"https://tiny.cc/2nknzz","started_at":"2024-10-01T00:00:00.000+09:00","ended_at":"2024-12-31T10:59:59.000+09:00","limit_number":null,"address":null,"place":"Online","lat":null,"lon":null,"state":"active","id":null},{"event_id":"jam-weekend-6","title":"Jam Weekend #6","url":"https://itch.io/jam/jam-weekend-6","shortener_url":null,"started_at":"2024-10-19T01:00:00.000+09:00","ended_at":"2024-10-21T01:00:00.000+09:00","limit_number":null,"address":null,"place":"Online","lat":null,"lon":null,"state":"active","id":null},{"event_id":"178001","title":"ハックツハッカソン ~シュモクカップ~","url":"https://hackz-community.doorkeeper.jp/events/178001","shortener_url":"https://tiny.cc/2acrzz","started_at":"2024-10-26T10:00:00.000+09:00","ended_at":"2024-10-27T19:00:00.000+09:00","limit_number":22,"address":"〒812-0012 福岡市博多区博多駅中央街8-27 第16岡部ビル5階","place":"株式会社レイヤード 福岡本社","lat":33.5879,"lon":130.419,"state":"active","id":null},{"event_id":"175912","title":"アントレプレナーの思考法","url":"https://swkariya.doorkeeper.jp/events/175912","shortener_url":null,"started_at":"2024-10-27T13:30:00.000+09:00","ended_at":"2024-10-27T16:00:00.000+09:00","limit_number":30,"address":"愛知県名古屋市中村区名駅４丁目５２８","place":"デンソー名古屋オフィス（桜通豊田ビル15F）","lat":35.1713,"lon":136.887,"state":"active","id":null},{"event_id":"178144","title":"地方から始める！スタートアップのためのマーケティング実践講座 Vol.2（Vol.1アーカイブ付き）","url":"https://swshizuoka.doorkeeper.jp/events/178144","shortener_url":"https://tiny.cc/3acrzz","started_at":"2024-10-26T10:00:00.000+09:00","ended_at":"2024-10-27T18:00:00.000+09:00","limit_number":50,"address":null,"place":"","lat":null,"lon":null,"state":"active","id":null},{"event_id":"177935","title":"起業体験プレイベント in 山口大学","url":"https://swkanmon.doorkeeper.jp/events/177935","shortener_url":"https://tiny.cc/bacrzz","started_at":"2024-10-30T13:00:00.000+09:00","ended_at":"2024-10-30T14:30:00.000+09:00","limit_number":null,"address":"山口県山口市吉田１６７７－１","place":"山口大学　吉田キャンパス　国際総合科学部棟４F　ワークショップスタジオ","lat":34.1466,"lon":131.467,"state":"active","id":null},{"event_id":"176856","title":"ミニStartup Weekend！～ワールドカフェでアイデアを生む！イノベーション体験～","url":"https://swkanmon.doorkeeper.jp/events/176856","shortener_url":null,"started_at":"2024-10-27T14:00:00.000+09:00","ended_at":"2024-10-27T16:00:00.000+09:00","limit_number":null,"address":"〒750-0025 山口県下関市竹崎町４丁目４１０","place":"JOIN083 大丸下関店","lat":33.9485,"lon":130.922,"state":"active","id":null},{"event_id":"178717","title":"［第９回］Startup Weekend 豊橋 キックオフイベント！ ","url":"https://swtoyohashi.doorkeeper.jp/events/178717","shortener_url":null,"started_at":"2024-10-23T19:30:00.000+09:00","ended_at":"2024-10-23T20:30:00.000+09:00","limit_number":null,"address":null,"place":"","lat":null,"lon":null,"state":"active","id":null},{"event_id":"lsdjam-2024","title":"LSDJAM 2024","url":"https://itch.io/jam/lsdjam-2024","shortener_url":"https://tiny.cc/r9crzz","started_at":"2024-10-22T08:00:00.000+09:00","ended_at":"2025-03-01T09:00:00.000+09:00","limit_number":null,"address":null,"place":"Online","lat":null,"lon":null,"state":"active","id":null},{"event_id":"332659","title":"【ソフトバンク開催】生成AIハッカソン 初心者大歓迎","url":"https://creator-square.connpass.com/event/332659/","shortener_url":"https://tiny.cc/t9crzz","started_at":"2024-10-25T19:00:00.000+09:00","ended_at":"2024-10-25T21:30:00.000+09:00","limit_number":105,"address":"東京都港区海岸一丁目7番1号 19Fエレベーターホール","place":"ソフトバンク本社","lat":35.6552,"lon":139.761,"state":"active","id":null},{"event_id":"cozy-fall-jam-2024","title":"Cozy Fall Jam 2024 ","url":"https://itch.io/jam/cozy-fall-jam-2024","shortener_url":null,"started_at":"2024-10-25T05:00:00.000+09:00","ended_at":"2024-10-28T05:00:00.000+09:00","limit_number":null,"address":null,"place":"Online","lat":null,"lon":null,"state":"active","id":null},{"event_id":"334273","title":"合トレ×エンジニア@赤坂","url":"https://connpass.com/event/334273/","shortener_url":"https://tiny.cc/4acrzz","started_at":"2024-10-26T12:00:00.000+09:00","ended_at":"2024-10-26T15:00:00.000+09:00","limit_number":3,"address":"東京都港区赤坂2-12-20 (BUZZ Bldg 7F)","place":"BUZZ LABO","lat":35.6707,"lon":139.741,"state":"closed","id":null},{"event_id":"raylib-next-gamejam","title":"raylib NEXT gamejam","url":"https://itch.io/jam/raylib-next-gamejam","shortener_url":"https://tiny.cc/8acrzz","started_at":"2024-10-28T08:00:00.000+09:00","ended_at":"2024-11-03T08:00:00.000+09:00","limit_number":null,"address":null,"place":"Online","lat":null,"lon":null,"state":"active","id":null},{"event_id":"pixelsunflower-gamejam","title":"Pixel Sunflower - Game Jam","url":"https://itch.io/jam/pixelsunflower-gamejam","shortener_url":"https://tiny.cc/u9crzz","started_at":"2024-10-25T20:00:00.000+09:00","ended_at":"2024-11-01T20:00:00.000+09:00","limit_number":null,"address":null,"place":"Online","lat":null,"lon":null,"state":"active","id":null},{"event_id":"333366","title":"はじめてのプリント基板作成ワークショップ","url":"https://iotlab.connpass.com/event/333366/","shortener_url":"https://tiny.cc/5acrzz","started_at":"2024-10-26T13:00:00.000+09:00","ended_at":"2024-10-26T17:00:00.000+09:00","limit_number":2,"address":"東京都秋葉原駅徒歩5分","place":"秋葉原ハッカースペース","lat":35.6984,"lon":139.773,"state":"active","id":null},{"event_id":"locjam-horror-movie","title":"LocJAM Horror Movie","url":"https://itch.io/jam/locjam-horror-movie","shortener_url":null,"started_at":"2024-10-31T08:01:01.000+09:00","ended_at":"2024-11-18T07:59:00.000+09:00","limit_number":null,"address":null,"place":"Online","lat":null,"lon":null,"state":"active","id":null},{"event_id":"fist-jam-ops-v","title":"FIST: JAM OPS V","url":"https://itch.io/jam/fist-jam-ops-v","shortener_url":null,"started_at":"2024-10-31T14:00:00.000+09:00","ended_at":"2024-12-21T15:00:00.000+09:00","limit_number":null,"address":null,"place":"Online","lat":null,"lon":null,"state":"active","id":null},{"event_id":"334051","title":"HTML5 10th Anniversary","url":"https://html5.connpass.com/event/334051/","shortener_url":null,"started_at":"2024-10-27T10:00:00.000+09:00","ended_at":"2024-10-27T12:00:00.000+09:00","limit_number":55,"address":"オンライン","place":"オンライン","lat":0.0,"lon":0.0,"state":"active","id":null},{"event_id":"334274","title":"【参加者限定】Open Hack U 2024 TOKYO vol.3 事前相談会","url":"https://hacku.connpass.com/event/334274/","shortener_url":null,"started_at":"2024-10-28T18:00:00.000+09:00","ended_at":"2024-10-28T19:00:00.000+09:00","limit_number":12,"address":"オンライン","place":"LINEヤフー株式会社 オンライン会場","lat":0.0,"lon":0.0,"state":"active","id":null},{"event_id":"beginners-jam-halloween-2024","title":"Beginner's Jam Halloween 2024","url":"https://itch.io/jam/beginners-jam-halloween-2024","shortener_url":null,"started_at":"2024-10-25T00:00:00.000+09:00","ended_at":"2024-10-31T07:00:00.000+09:00","limit_number":null,"address":null,"place":"Online","lat":null,"lon":null,"state":"active","id":null},{"event_id":"330855","title":"「参加しなきゃ悪戯するぞ！？」デザイナーとエンジニアのハロウィントークNight！","url":"https://yumemi.connpass.com/event/330855/","shortener_url":"https://tiny.cc/facrzz","started_at":"2024-10-30T19:30:00.000+09:00","ended_at":"2024-10-30T21:30:00.000+09:00","limit_number":44,"address":"千代田区大手町１丁目６１ 大手町ビルヂング B1","place":"株式会社Sun Asterisk","lat":35.6864,"lon":139.765,"state":"active","id":null},{"event_id":"330265","title":"【残り数枠！】DYY合同開催！エンジニア学生が集まってワイワイしNight","url":"https://dmm-recruit.connpass.com/event/330265/","shortener_url":"https://tiny.cc/gacrzz","started_at":"2024-10-31T19:00:00.000+09:00","ended_at":"2024-10-31T22:00:00.000+09:00","limit_number":36,"address":"東京都港区六本木３丁目２１ 住友不動産六本木グランドタワー 24階","place":"DMM 本社","lat":35.6647,"lon":139.738,"state":"active","id":null},{"event_id":"drinkdevs-2024","title":"DrinkDevs 2024","url":"https://itch.io/jam/drinkdevs-2024","shortener_url":"https://tiny.cc/v9crzz","started_at":"2024-10-26T01:00:00.000+09:00","ended_at":"2024-10-28T01:30:00.000+09:00","limit_number":null,"address":null,"place":"Online","lat":null,"lon":null,"state":"active","id":null},{"event_id":"durf-jam-2024","title":"DURF Jam 2024","url":"https://itch.io/jam/durf-jam-2024","shortener_url":null,"started_at":"2024-10-26T19:00:00.000+09:00","ended_at":"2024-11-24T20:00:00.000+09:00","limit_number":null,"address":null,"place":"Online","lat":null,"lon":null,"state":"active","id":null},{"event_id":"goedware-game-jam-halloween","title":"GoedWare Game Jam Halloween Edition(+ prizes )","url":"https://itch.io/jam/goedware-game-jam-halloween","shortener_url":"https://tiny.cc/eacrzz","started_at":"2024-10-30T19:00:00.000+09:00","ended_at":"2024-11-02T19:00:00.000+09:00","limit_number":null,"address":null,"place":"Online","lat":null,"lon":null,"state":"active","id":null},{"event_id":"mini-jam-170-clean","title":"Mini Jam 170: Clean","url":"https://itch.io/jam/mini-jam-170-clean","shortener_url":null,"started_at":"2024-10-25T13:00:00.000+09:00","ended_at":"2024-10-28T13:00:00.000+09:00","limit_number":null,"address":null,"place":"Online","lat":null,"lon":null,"state":"active","id":null},{"event_id":"madder-multiplayer-jam","title":"Madder Multiplayer Jam- $1k Prize Pool!","url":"https://itch.io/jam/madder-multiplayer-jam","shortener_url":null,"started_at":"2024-10-29T05:11:33.000+09:00","ended_at":"2024-11-08T00:00:00.000+09:00","limit_number":null,"address":null,"place":"Online","lat":null,"lon":null,"state":"active","id":null},{"event_id":"ukrainian-micro-visual-novel-jam","title":"Ukrainian Micro Visual Novel Jam","url":"https://itch.io/jam/ukrainian-micro-visual-novel-jam","shortener_url":null,"started_at":"2024-10-25T21:00:00.000+09:00","ended_at":"2024-11-04T06:59:59.000+09:00","limit_number":null,"address":null,"place":"Online","lat":null,"lon":null,"state":"active","id":null},{"event_id":"spooky-uji-game-jam-2024","title":"UJI Game Jam 2024 (Spooky Edition)","url":"https://itch.io/jam/spooky-uji-game-jam-2024","shortener_url":"https://tiny.cc/x9crzz","started_at":"2024-10-26T02:00:00.000+09:00","ended_at":"2024-10-28T03:00:00.000+09:00","limit_number":null,"address":null,"place":"Online","lat":null,"lon":null,"state":"active","id":null},{"event_id":"oficina-jam-out-2024","title":"Oficina Jam - Out 2024","url":"https://itch.io/jam/oficina-jam-out-2024","shortener_url":null,"started_at":"2024-10-26T00:00:00.000+09:00","ended_at":"2024-10-28T11:59:00.000+09:00","limit_number":null,"address":null,"place":"Online","lat":null,"lon":null,"state":"active","id":null},{"event_id":"arcjam-2024-card-game-challenge","title":"Arcjam (2024): The Card Game Challenge","url":"https://itch.io/jam/arcjam-2024-card-game-challenge","shortener_url":null,"started_at":"2024-10-26T00:00:00.000+09:00","ended_at":"2024-11-26T06:00:00.000+09:00","limit_number":null,"address":null,"place":"Online","lat":null,"lon":null,"state":"active","id":null},{"event_id":"ctrl-alt-jam-halloween","title":"CTRL ALT JAM - Halloween","url":"https://itch.io/jam/ctrl-alt-jam-halloween","shortener_url":"https://tiny.cc/z9crzz","started_at":"2024-10-26T07:00:00.000+09:00","ended_at":"2024-11-04T11:59:59.000+09:00","limit_number":null,"address":null,"place":"Online","lat":null,"lon":null,"state":"active","id":null},{"event_id":"opengameartorgs-fall-game-jam-2024","title":"OpenGameArt.org's Fall Game Jam 2024 \"Festival\"","url":"https://itch.io/jam/opengameartorgs-fall-game-jam-2024","shortener_url":null,"started_at":"2024-10-14T21:21:03.000+09:00","ended_at":"2024-11-14T22:21:13.000+09:00","limit_number":null,"address":null,"place":"Online","lat":null,"lon":null,"state":"active","id":null},{"event_id":"autumn-russian-jam","title":"Autumn Russian Jam ","url":"https://itch.io/jam/autumn-russian-jam","shortener_url":null,"started_at":"2024-10-28T21:00:00.000+09:00","ended_at":"2024-11-01T21:00:00.000+09:00","limit_number":null,"address":null,"place":"Online","lat":null,"lon":null,"state":"active","id":null},{"event_id":"niantic-studio-real-world-gaming-challenge","title":"Niantic Studio: Real-World Gaming Challenge","url":"https://itch.io/jam/niantic-studio-real-world-gaming-challenge","shortener_url":null,"started_at":"2024-10-24T16:00:00.000+09:00","ended_at":"2024-12-10T16:59:59.000+09:00","limit_number":null,"address":null,"place":"Online","lat":null,"lon":null,"state":"active","id":null},{"event_id":"pbbg-game-jam-2024","title":"PBBG Game Jam 2024","url":"https://itch.io/jam/pbbg-game-jam-2024","shortener_url":null,"started_at":"2024-10-21T16:00:00.000+09:00","ended_at":"2024-11-10T17:00:00.000+09:00","limit_number":null,"address":null,"place":"Online","lat":null,"lon":null,"state":"active","id":null},{"event_id":"zero-hour-game-jam-2024","title":"Zero Hour Game Jam 2024","url":"https://itch.io/jam/zero-hour-game-jam-2024","shortener_url":"https://tiny.cc/6acrzz","started_at":"2024-10-27T08:55:00.000+09:00","ended_at":"2024-10-27T11:20:00.000+09:00","limit_number":null,"address":null,"place":"Online","lat":null,"lon":null,"state":"active","id":null},{"event_id":"trijam-293","title":"Trijam #293: The 3 hour game jam","url":"https://itch.io/jam/trijam-293","shortener_url":"https://tiny.cc/s9crzz","started_at":"2024-10-25T18:00:00.000+09:00","ended_at":"2024-10-28T19:00:00.000+09:00","limit_number":null,"address":null,"place":"Online","lat":null,"lon":null,"state":"active","id":null},{"event_id":"spookyjam-2024","title":"Spooky Jam 2024","url":"https://itch.io/jam/spookyjam-2024","shortener_url":null,"started_at":"2024-10-25T10:00:00.000+09:00","ended_at":"2024-10-28T10:00:00.000+09:00","limit_number":null,"address":null,"place":"Online","lat":null,"lon":null,"state":"active","id":null},{"event_id":"chill-devs-chill-jam-11","title":"Chill Devs: Chill Jam 11","url":"https://itch.io/jam/chill-devs-chill-jam-11","shortener_url":null,"started_at":"2024-10-26T06:00:00.000+09:00","ended_at":"2024-11-09T08:00:00.000+09:00","limit_number":null,"address":null,"place":"Online","lat":null,"lon":null,"state":"active","id":null},{"event_id":"omg-its-wierd-game-jam-except-its-fall-again","title":"OMG!!!11!!1!!1! IT'S Wierd game jam except it's fall AGAIN!!1!!111","url":"https://itch.io/jam/omg-its-wierd-game-jam-except-its-fall-again","shortener_url":"https://tiny.cc/7acrzz","started_at":"2024-10-27T09:00:00.000+09:00","ended_at":"2024-11-01T09:00:01.000+09:00","limit_number":null,"address":null,"place":"Online","lat":null,"lon":null,"state":"active","id":null},{"event_id":"jam-of-mythology","title":"Jam of Mythology (Retold)","url":"https://itch.io/jam/jam-of-mythology","shortener_url":null,"started_at":"2024-10-26T02:00:00.000+09:00","ended_at":"2024-11-02T03:00:00.000+09:00","limit_number":null,"address":null,"place":"Online","lat":null,"lon":null,"state":"active","id":null},{"event_id":"mythology-jam1","title":"Mythology Jam#1","url":"https://itch.io/jam/mythology-jam1","shortener_url":null,"started_at":"2024-10-25T19:30:00.000+09:00","ended_at":"2024-11-01T20:30:00.000+09:00","limit_number":null,"address":null,"place":"Online","lat":null,"lon":null,"state":"active","id":null},{"event_id":"cover-up-4","title":"Cover Up #4 Spooky Covers","url":"https://itch.io/jam/cover-up-4","shortener_url":null,"started_at":"2024-10-25T07:00:00.000+09:00","ended_at":"2024-11-04T07:59:59.000+09:00","limit_number":null,"address":null,"place":"Online","lat":null,"lon":null,"state":"active","id":null},{"event_id":"danger-game-jam","title":"Danger TRPG Jam","url":"https://itch.io/jam/danger-game-jam","shortener_url":null,"started_at":"2024-10-25T16:00:00.000+09:00","ended_at":"2024-11-08T17:00:00.000+09:00","limit_number":null,"address":null,"place":"Online","lat":null,"lon":null,"state":"active","id":null},{"event_id":"game-off-a24","title":"game_off_a24","url":"https://itch.io/jam/game-off-a24","shortener_url":"https://tiny.cc/9acrzz","started_at":"2024-10-28T13:00:00.000+09:00","ended_at":"2024-11-04T13:59:59.000+09:00","limit_number":null,"address":null,"place":"Online","lat":null,"lon":null,"state":"active","id":null},{"event_id":"bham-halloween","title":"Bham Halloween Game Jam","url":"https://itch.io/jam/bham-halloween","shortener_url":"https://tiny.cc/1acrzz","started_at":"2024-10-26T08:00:00.000+09:00","ended_at":"2024-10-28T08:00:00.000+09:00","limit_number":null,"address":null,"place":"Online","lat":null,"lon":null,"state":"active","id":null},{"event_id":"pre-render-jam","title":"Pre-Render Jam","url":"https://itch.io/jam/pre-render-jam","shortener_url":null,"started_at":"2024-10-26T00:14:29.000+09:00","ended_at":"2024-12-27T01:15:18.000+09:00","limit_number":null,"address":null,"place":"Online","lat":null,"lon":null,"state":"active","id":null},{"event_id":"pry-dev-game-jam","title":"PRY Dev Game Jam","url":"https://itch.io/jam/pry-dev-game-jam","shortener_url":"https://tiny.cc/cacrzz","started_at":"2024-10-30T13:00:00.000+09:00","ended_at":"2024-11-16T14:00:00.000+09:00","limit_number":null,"address":null,"place":"Online","lat":null,"lon":null,"state":"active","id":null},{"event_id":"the-advent-cal-jam","title":"The Advent(ure) Calendar Jam","url":"https://itch.io/jam/the-advent-cal-jam","shortener_url":null,"started_at":"2024-10-26T01:00:00.000+09:00","ended_at":"2024-11-16T02:00:00.000+09:00","limit_number":null,"address":null,"place":"Online","lat":null,"lon":null,"state":"active","id":null},{"event_id":"rhythm-jam-second","title":"Rhythm Jam 2","url":"https://itch.io/jam/rhythm-jam-second","shortener_url":null,"started_at":"2024-10-22T12:00:00.000+09:00","ended_at":"2024-11-04T12:00:00.000+09:00","limit_number":null,"address":null,"place":"Online","lat":null,"lon":null,"state":"active","id":null},{"event_id":"fun-halloween-jam","title":"Halloween Jam 2024","url":"https://itch.io/jam/fun-halloween-jam","shortener_url":null,"started_at":"2024-10-24T18:00:00.000+09:00","ended_at":"2024-11-01T12:59:59.000+09:00","limit_number":null,"address":null,"place":"Online","lat":null,"lon":null,"state":"active","id":null},{"event_id":"crazy-scatch-jam-2","title":"Crazy Scatch Jam #2","url":"https://itch.io/jam/crazy-scatch-jam-2","shortener_url":null,"started_at":"2024-10-22T19:30:00.000+09:00","ended_at":"2024-10-29T19:30:00.000+09:00","limit_number":null,"address":null,"place":"Online","lat":null,"lon":null,"state":"active","id":null},{"event_id":"hyper-1-hour-game-jam-081","title":"Hyper 1 HOUR Game Jam! TOPIC: ??????","url":"https://itch.io/jam/hyper-1-hour-game-jam-081","shortener_url":"https://tiny.cc/0acrzz","started_at":"2024-10-26T07:00:00.000+09:00","ended_at":"2024-10-26T08:10:00.000+09:00","limit_number":null,"address":null,"place":"Online","lat":null,"lon":null,"state":"active","id":null},{"event_id":"octojam-2024","title":"Octojam 2024","url":"https://itch.io/jam/octojam-2024","shortener_url":"https://tiny.cc/w9crzz","started_at":"2024-10-26T01:00:00.000+09:00","ended_at":"2024-10-28T02:00:00.000+09:00","limit_number":null,"address":null,"place":"Online","lat":null,"lon":null,"state":"active","id":null},{"event_id":null,"title":"Google Chrome Built-in AI Challenge","url":"https://googlechromeai.devpost.com/","shortener_url":null,"started_at":"2024-10-01T09:00:00.000+09:00","ended_at":"2024-12-04T09:00:00.000+09:00","limit_number":null,"address":null,"place":"Online","lat":null,"lon":null,"state":"active","id":null},{"event_id":null,"title":"Google's Women Techmakers presents She Builds AI","url":"https://womentechmakers.devpost.com/","shortener_url":null,"started_at":"2024-10-09T09:00:00.000+09:00","ended_at":"2024-11-13T09:00:00.000+09:00","limit_number":null,"address":null,"place":"Online","lat":null,"lon":null,"state":"active","id":null},{"event_id":null,"title":"Codegeist 2024","url":"https://codegeist.devpost.com/","shortener_url":null,"started_at":"2024-10-15T09:00:00.000+09:00","ended_at":"2024-12-10T09:00:00.000+09:00","limit_number":null,"address":null,"place":"Online","lat":null,"lon":null,"state":"active","id":null},{"event_id":null,"title":"MongoDB AI Hackathon: Code for a Cause","url":"https://mongodb-ai.devpost.com/","shortener_url":null,"started_at":"2024-10-01T09:00:00.000+09:00","ended_at":"2024-11-13T09:00:00.000+09:00","limit_number":null,"address":null,"place":"Online","lat":null,"lon":null,"state":"active","id":null},{"event_id":null,"title":"Google Photorealistic 3D Maps Challenge","url":"https://google3dmaps.devpost.com/","shortener_url":null,"started_at":"2024-10-01T09:00:00.000+09:00","ended_at":"2024-11-20T09:00:00.000+09:00","limit_number":null,"address":null,"place":"Online","lat":null,"lon":null,"state":"active","id":null},{"event_id":null,"title":"Determined AI Hackathon","url":"https://determined-ai-hackathon.devpost.com/","shortener_url":null,"started_at":"2024-10-02T09:00:00.000+09:00","ended_at":"2024-11-22T09:00:00.000+09:00","limit_number":null,"address":null,"place":"Online","lat":null,"lon":null,"state":"active","id":null},{"event_id":null,"title":"Decentralized Identity Foundation Hackathon 2024","url":"https://difhackathon2024.devpost.com/","shortener_url":null,"started_at":"2024-10-01T09:00:00.000+09:00","ended_at":"2024-11-04T09:00:00.000+09:00","limit_number":null,"address":null,"place":"Online","lat":null,"lon":null,"state":"active","id":null},{"event_id":null,"title":"Lightning Fast AI Hackathon","url":"https://sambanova.devpost.com/","shortener_url":null,"started_at":"2024-10-14T09:00:00.000+09:00","ended_at":"2024-11-22T09:00:00.000+09:00","limit_number":null,"address":null,"place":"Online","lat":null,"lon":null,"state":"active","id":null},{"event_id":null,"title":"Build with AI - Google Developer Groups GGITS","url":"https://buildwithai.devpost.com/","shortener_url":null,"started_at":"2024-10-01T09:00:00.000+09:00","ended_at":"2024-11-08T09:00:00.000+09:00","limit_number":null,"address":null,"place":"Online","lat":null,"lon":null,"state":"active","id":null},{"event_id":null,"title":"Tableau DataDev 2024-2025 Hackathon ","url":"https://datadev-2024-2025-hackathon.devpost.com/","shortener_url":null,"started_at":"2024-10-29T09:00:00.000+09:00","ended_at":"2025-01-31T09:00:00.000+09:00","limit_number":null,"address":null,"place":"Online","lat":null,"lon":null,"state":"active","id":null},{"event_id":null,"title":"LLM Agents MOOC Hackathon","url":"https://uc-berkeley-rdi-llm-agents.devpost.com/","shortener_url":null,"started_at":"2024-10-23T09:00:00.000+09:00","ended_at":"2024-12-17T09:00:00.000+09:00","limit_number":null,"address":null,"place":"Online","lat":null,"lon":null,"state":"active","id":null},{"event_id":null,"title":"BostonHacks 2024 ","url":"https://bostonhacks-2024.devpost.com/","shortener_url":null,"started_at":"2024-10-29T09:00:00.000+09:00","ended_at":"2024-11-03T09:00:00.000+09:00","limit_number":null,"address":null,"place":"Online","lat":null,"lon":null,"state":"active","id":null},{"event_id":null,"title":"UI/UX Design Hackathon","url":"https://ui-ux-design-hackathon.devpost.com/","shortener_url":null,"started_at":"2024-10-13T09:00:00.000+09:00","ended_at":"2024-11-30T09:00:00.000+09:00","limit_number":null,"address":null,"place":"Online","lat":null,"lon":null,"state":"active","id":null},{"event_id":null,"title":"AWS Amplify Hackathon","url":"https://aws-amplify-hackathon.devpost.com/","shortener_url":null,"started_at":"2024-10-28T09:00:00.000+09:00","ended_at":"2024-11-20T09:00:00.000+09:00","limit_number":null,"address":null,"place":"Online","lat":null,"lon":null,"state":"active","id":null},{"event_id":null,"title":"2024 Halloween Hackathon","url":"https://2024-halloween-hackathon.devpost.com/","shortener_url":null,"started_at":"2024-10-29T09:00:00.000+09:00","ended_at":"2024-11-06T09:00:00.000+09:00","limit_number":null,"address":null,"place":"Online","lat":null,"lon":null,"state":"active","id":null},{"event_id":null,"title":"InsightMed Hacks","url":"https://insightmedhackathon.devpost.com/","shortener_url":null,"started_at":"2024-10-24T09:00:00.000+09:00","ended_at":"2024-11-21T09:00:00.000+09:00","limit_number":null,"address":null,"place":"Online","lat":null,"lon":null,"state":"active","id":null},{"event_id":null,"title":"AgriTechJam ","url":"https://agritechjam.devpost.com/","shortener_url":null,"started_at":"2024-10-15T09:00:00.000+09:00","ended_at":"2024-11-13T09:00:00.000+09:00","limit_number":null,"address":null,"place":"Online","lat":null,"lon":null,"state":"active","id":null},{"event_id":null,"title":"Fill The Grids","url":"https://fill-the-grids.devpost.com/","shortener_url":null,"started_at":"2024-10-27T09:00:00.000+09:00","ended_at":"2024-11-09T09:00:00.000+09:00","limit_number":null,"address":null,"place":"Online","lat":null,"lon":null,"state":"active","id":null},{"event_id":null,"title":"GTVO Hackathon","url":"https://gtvo-hackathon.devpost.com/","shortener_url":null,"started_at":"2024-10-30T09:00:00.000+09:00","ended_at":"2024-12-02T09:00:00.000+09:00","limit_number":null,"address":null,"place":"Online","lat":null,"lon":null,"state":"active","id":null},{"event_id":null,"title":"DevForge Hackathon","url":"https://devforge-hackathon.devpost.com/","shortener_url":null,"started_at":"2024-10-30T09:00:00.000+09:00","ended_at":"2024-12-10T09:00:00.000+09:00","limit_number":null,"address":null,"place":"Online","lat":null,"lon":null,"state":"active","id":null},{"event_id":null,"title":"EmpowerHer TechSprint","url":"https://empowerher-techsprint.devpost.com/","shortener_url":null,"started_at":"2024-10-30T09:00:00.000+09:00","ended_at":"2025-01-01T09:00:00.000+09:00","limit_number":null,"address":null,"place":"Online","lat":null,"lon":null,"state":"active","id":null},{"event_id":null,"title":"The AI Hackathon","url":"https://the-ai-hackathon.devpost.com/","shortener_url":null,"started_at":"2024-10-18T09:00:00.000+09:00","ended_at":"2024-11-28T09:00:00.000+09:00","limit_number":null,"address":null,"place":"Online","lat":null,"lon":null,"state":"active","id":null},{"event_id":null,"title":"Biohackers","url":"https://biohackers.devpost.com/","shortener_url":null,"started_at":"2024-10-19T09:00:00.000+09:00","ended_at":"2024-11-28T09:00:00.000+09:00","limit_number":null,"address":null,"place":"Online","lat":null,"lon":null,"state":"active","id":null}]